SALE TYPE,SOLD DATE,PROPERTY TYPE,ADDRESS,CITY,STATE OR PROVINCE,ZIP OR POSTAL CODE,PRICE,BEDS,BATHS,LOCATION,SQUARE FEET,LOT SIZE,YEAR BUILT,DAYS ON MARKET,$/SQUARE FEET,HOA/MONTH,STATUS,NEXT OPEN HOUSE START TIME,NEXT OPEN HOUSE END TIME,URL (SEE http://www.redfin.com/buy-a-home/comparative-market-analysis FOR INFO ON PRICING),SOURCE,MLS#,FAVORITE,INTERESTED,LATITUDE,LONGITUDE
MLS Listing,,Condo/Co-op,123 Washington St Unit 50G,New York,NY,10006,1499000,1,1,Financial District,708,,2010,1,2117,,Active,,,http://www.redfin.com/NY/New-York/123-Washington-St-10006/home/45330870,REBNY,POGR1864919,N,Y,40.7092191,-74.0137534
MLS Listing,,Condo/Co-op,100 Jay St Unit 18J,Brooklyn,NY,11201,1285000,1,1,Dumbo,909,,2006,3,1414,,Active,,,http://www.redfin.com/NY/Brooklyn/100-Jay-St-11201/home/40667335,REBNY,UCOM462442,N,Y,40.7019049,-73.987181
MLS Listing,,Condo/Co-op,104 W 70th St Unit 4G,New York,NY,10023,1299000,1,1,Upper West Side,750,,1902,4,1732,,Active,,,http://www.redfin.com/NY/New-York/104-W-70th-St-10023/home/45269615,REBNY,UCOM1865214,N,Y,40.7761017,-73.9801351
MLS Listing,,Condo/Co-op,543 W 122nd St Unit 18D,New York,NY,10027,1280000,1,1,Morningside Heights,770,,2019,4,1662,,Active,,,http://www.redfin.com/NY/New-York/543-W-122nd-St-10027/home/170245177,REBNY,HALS19383456,N,Y,40.8114727,-73.9602154
MLS Listing,,Condo/Co-op,543 W 122nd St Unit 7G,New York,NY,10027,1260000,1,1,Morningside Heights,801,,2019,4,1573,,Active,,,http://www.redfin.com/NY/New-York/543-W-122nd-St-10027/home/170243438,REBNY,HALS19382688,N,Y,40.8114727,-73.9602154
MLS Listing,,Condo/Co-op,123 Washington St Unit 48A,Manhattan,NY,10006,1450000,1,1,Financial District,799,,2007,4,1815,1420,Active,,,http://www.redfin.com/NY/New-York/123-Washington-St-10006/unit-48A/home/45330829,MLSLI,3190627,N,Y,40.7092191,-74.0137534
MLS Listing,,Condo/Co-op,66 E 83rd St Unit C3,New York,NY,10028,1295000,1,1,Upper East Side,,,1930,4,,,Active,,,http://www.redfin.com/NY/New-York/66-E-83rd-St-10028/home/114908860,REBNY,HALS20007702,N,Y,40.7783334,-73.9592651
MLS Listing,,Condo/Co-op,60 E 8th St Unit 23L,New York,NY,10003,1475000,1,1,Central Village,850,,1967,4,1735,,Active,,,http://www.redfin.com/NY/New-York/60-E-8th-St-10003/home/170234106,REBNY,DEGI4068816,N,Y,40.7306031,-73.9930165
MLS Listing,,Condo/Co-op,211 E 13th St Unit 5G,New York,NY,10003,1475000,1,1,East Village,776,,2013,5,1901,,Active,,,http://www.redfin.com/NY/New-York/211-E-13th-St-10003/home/105855280,REBNY,UCOM1178088,N,Y,40.732446,-73.98682
MLS Listing,,Condo/Co-op,350 Hicks St Unit 14C,Brooklyn,NY,11201,1360000,1,1,Cobble Hill,721,,,5,1886,,Active,,,http://www.redfin.com/NY/Brooklyn/350-Hicks-St-11201/home/170231883,REBNY,DEGI3947590,N,Y,40.6908113,-73.9980356
MLS Listing,,Condo/Co-op,101 W 79th St Unit 6G,New York,NY,10024,1350000,1,1,Upper West Side,860,,1986,5,1570,,Active,,,http://www.redfin.com/NY/New-York/101-W-79th-St-10024/home/45272719,REBNY,CORC5961079,N,Y,40.7824201,-73.9757026
MLS Listing,,Condo/Co-op,1255 Fifth Ave Unit 5A,New York,NY,10029,1275000,1,1,Upper East Side,908,,1925,6,1404,,Active,,,http://www.redfin.com/NY/New-York/1255-5th-Ave-10029/home/45297168,REBNY,UCOM1864862,N,Y,40.7950776,-73.9502988
MLS Listing,,Multi-Family (2-4 Unit),41-53 68th,Woodside,NY,11377,1495000,0,,Woodside,,,,6,,,Active,,,http://www.redfin.com/NY/Flushing/41-53-Woodside-Ave-11377/home/20937017,HGMLS,6002291,N,Y,40.7430902,-73.8963556
MLS Listing,,Condo/Co-op,130 W 17th St Unit 4S,New York,NY,10011,1395000,1,1,Chelsea,1255,,,6,1112,,Active,,,http://www.redfin.com/NY/New-York/130-W-17th-St-10011/home/170225495,REBNY,BHSR19993298,N,Y,40.7397632,-73.9971743
MLS Listing,,Condo/Co-op,200 E 69th St Unit 19E,New York,NY,10021,1450000,1,1.5,Upper East Side,775,,1991,6,1871,,Active,,,http://www.redfin.com/NY/New-York/200-E-69th-St-10021/home/45286136,REBNY,212C67813,N,Y,40.76751,-73.961754
MLS Listing,,Condo/Co-op,255 Hudson St Unit 10C,New York,NY,10013,1395000,1,1,Soho,917,,2005,6,1521,,Active,,,http://www.redfin.com/NY/New-York/255-Hudson-St-10013/home/45194373,REBNY,BHSR20003521,N,Y,40.7247255,-74.0081158
MLS Listing,,Vacant Land,134-148 Beach St,Staten Island,NY,10304,1400000,0,,Stapleton,,5082,,10,,,Active,,,http://www.redfin.com/NY/Staten-Island/134-Beach-St-10304/home/77422763,SIBORMLS,1134575,N,Y,40.6291334,-74.0804288
MLS Listing,,Condo/Co-op,545 W 48th St Unit 603S,New York,NY,10036,1375000,1,1,Middle West Side,,,2015,11,,,Active,,,http://www.redfin.com/NY/New-York/545-W-48th-St-10036/home/105886620,REBNY,HALS19998120,N,Y,40.7644125,-73.9945268
MLS Listing,,Condo/Co-op,347 W 57th St Unit 34D,New York,NY,10019,1500000,1,2,Middle West Side,,,1982,12,,,Active,,,http://www.redfin.com/NY/New-York/347-W-57th-St-10019/home/45263625,REBNY,CORC5953713,N,Y,40.7678349,-73.9846922
MLS Listing,,Condo/Co-op,210 W 19th St Unit 1J,New York,NY,10011,1499000,1,1,Chelsea,,,1939,12,,,Active,,,http://www.redfin.com/NY/New-York/210-W-19th-St-10011/home/45249313,REBNY,CORC5951228,N,Y,40.7417597,-73.9982003
MLS Listing,,Condo/Co-op,252 South St Unit 33J,New York,NY,10002,1430000,1,1,Chinatown,695,,,13,2058,,Active,,,http://www.redfin.com/NY/New-York/252-South-St-10002/home/170188118,REBNY,EXTE107065,N,Y,40.7110409,-73.9911744
MLS Listing,,Condo/Co-op,252 South St Unit 12B,New York,NY,10002,1434000,1,1,Chinatown,696,,,13,2060,,Active,,,http://www.redfin.com/NY/New-York/252-South-St-10002/home/148049307,REBNY,EXTE107064,N,Y,40.709943,-73.991212
MLS Listing,,Condo/Co-op,252 South St Unit 28F,New York,NY,10002,1341000,1,1,Chinatown,695,,,13,1929,,Active,,,http://www.redfin.com/NY/New-York/252-South-St-10002/home/144573930,REBNY,EXTE107063,N,Y,40.710175,-73.9893198
MLS Listing,,Condo/Co-op,67 E 11th St #306,New York,NY,10003,1250000,1,1,Greenwich Village,850,,1868,15,1471,,Active,,,http://www.redfin.com/NY/New-York/67-E-11th-St-10003/home/45172958,REBNY,UCOM1863824,N,Y,40.7330515,-73.9923312
MLS Listing,,Condo/Co-op,61 Jane St Unit 10K,New York,NY,10014,1495000,1,1,West Village,,,1967,17,,,Active,,,http://www.redfin.com/NY/New-York/61-Jane-St-10014/home/45200155,REBNY,DEGI4058590,N,Y,40.7382981,-74.0058899
MLS Listing,,Condo/Co-op,15 Union Sq W Unit 2A,New York,NY,10003,1400000,1,1,Flatiron,,,2008,18,,,Active,,,http://www.redfin.com/NY/New-York/15-Union-Sq-W-10003/home/45319921,REBNY,SOTH2829978,N,Y,40.7358934,-73.9917033
MLS Listing,,Condo/Co-op,345 E 50th St Unit 3B,New York,NY,10022,1380000,1,1.5,Middle East Side,1350,,1900,18,1022,,Active,,,http://www.redfin.com/NY/New-York/345-E-50th-St-10022/home/45207489,REBNY,SOCE1863172,N,Y,40.754397,-73.966708
MLS Listing,,Condo/Co-op,37 Bridge St Unit 2D,Brooklyn,NY,11201,1250000,1,1,Vinegar Hill,883,,1915,18,1416,,Active,,,http://www.redfin.com/NY/Brooklyn/37-Bridge-St-11201/home/40928841,REBNY,UCOM918534,N,Y,40.7033293,-73.9843386
MLS Listing,,Condo/Co-op,15 Broad St #1530,New York,NY,10005,1300000,1,1,Financial District,1418,,1914,18,917,,Active,,,http://www.redfin.com/NY/New-York/15-Broad-St-10005/home/45188410,REBNY,UCOM351596,N,Y,40.7065317,-74.0105879
MLS Listing,,Condo/Co-op,133 Second Ave #3,New York,NY,10003,1390000,1,1,East Village,,,1936,18,,,Active,,,http://www.redfin.com/NY/New-York/133-2nd-Ave-10003/home/45221134,REBNY,UCOM537804,N,Y,40.7288652,-73.9879224
MLS Listing,,Condo/Co-op,3 Great Jones St #5,New York,NY,10012,1495000,0,1,Greenwich Village,1200,,1843,28,1246,,Active,,,http://www.redfin.com/NY/New-York/3-Great-Jones-St-10012/home/170116180,REBNY,CITY1862955,N,Y,40.727337,-73.9943009
MLS Listing,,Condo/Co-op,100 Jay St Unit 23J,Brooklyn,NY,11201,1300000,1,1,Brooklyn,909,,2007,28,1430,,Active,,,http://www.redfin.com/NY/Brooklyn/100-Jay-St-11201/unit-23J/home/40669751,BNYMLS,435399,N,Y,40.7019049,-73.987181
MLS Listing,,Condo/Co-op,300 E 64th St Unit 18C,New York,NY,10021,1450000,1,2,Upper East Side,976,,1996,28,1486,,Active,,,http://www.redfin.com/NY/New-York/300-E-64th-St-10065/home/109654168,REBNY,DEGI1851636,N,Y,40.7634372,-73.961718
MLS Listing,,Condo/Co-op,15 Broad St #904,New York,NY,10005,1399000,0,1,Lower Manhattan,1200,,1914,31,1166,,Active,,,http://www.redfin.com/NY/New-York/15-Broad-St-10005/home/45188160,REBNY,DEGI4049473,N,Y,40.7065317,-74.0105879
MLS Listing,,Condo/Co-op,11 Hoyt St Unit 46J,Brooklyn,NY,11201,1435000,1,1,Downtown Brooklyn,879,,,33,1633,,Active,,,http://www.redfin.com/NY/Brooklyn/11-Hoyt-St-11201/home/170058882,REBNY,CORC5949554,N,Y,40.6899456,-73.9850466
MLS Listing,,Condo/Co-op,110 Central Park S Unit 8C,New York,NY,10019,1295000,1,1.5,Middle West Side,,,1927,33,,,Active,,,http://www.redfin.com/NY/New-York/110-Central-Park-S-10019/home/45232288,REBNY,HALS19976791,N,Y,40.765738,-73.9770652
MLS Listing,,Condo/Co-op,304 E 65th St Unit 35B,New York,NY,10065,1290000,1,1.5,Upper East Side,826,,1987,33,1562,,Active,,,http://www.redfin.com/NY/New-York/304-E-65th-St-10065/home/45288013,REBNY,KWNY238814,N,Y,40.7640326,-73.9614858
MLS Listing,,Condo/Co-op,27-28 Thomson Ave #245,New York,NY,11101,1490000,1,2.5,New York,1725,,1920,35,864,,Active,,,http://www.redfin.com/NY/Long-Island-City/2728-Thomson-Ave-11101/unit-245/home/23206767,HGMLS,5125651,N,Y,40.7457312,-73.9417545
MLS Listing,,Condo/Co-op,27 -28 Thomson Ave #245,Queens,NY,11101,1490000,1,2.5,Long Island City,1725,,1928,35,864,,Active,,,http://www.redfin.com/NY/Long-Island-City/27-Thomson-Ave-11101/home/170043422,REBNY,UCOM354390,N,Y,40.7463288,-73.9424209
MLS Listing,,Condo/Co-op,58 W 58th St Unit 33B,New York,NY,10022,1350000,1,1,Middle West Side,,,1969,38,,,Active,,,http://www.redfin.com/NY/New-York/58-W-58th-St-10019/home/45276852,REBNY,CORC5947270,N,Y,40.7645754,-73.9762659
MLS Listing,,Condo/Co-op,200 E 94th St #2211,New York,NY,10128,1375000,1,1,Upper East Side,854,,1987,38,1610,,Active,,,http://www.redfin.com/NY/New-York/200-E-94th-St-10128/home/108581289,REBNY,CORC5888527,N,Y,40.7833546,-73.9499982
MLS Listing,,Condo/Co-op,210 W 19th St Unit 6A,New York,NY,10011,1275000,1,1,Chelsea,850,,1936,38,1500,,Active,,,http://www.redfin.com/NY/New-York/210-W-19th-St-10011/home/45249173,REBNY,HALS19975780,N,Y,40.7417597,-73.9982003
MLS Listing,,Condo/Co-op,543 W 122nd St Unit 18F,New York,NY,10027,1265000,1,1,Morningside Heights,733,,2019,39,1726,,Active,,,http://www.redfin.com/NY/New-York/543-W-122nd-St-10027/home/160769357,REBNY,HALS19979906,N,Y,40.8114727,-73.9602154
MLS Listing,,Condo/Co-op,101 W 79th St Unit 3A,New York,NY,10024,1295000,1,1,Upper West Side,858,,1986,42,1509,,Active,,,http://www.redfin.com/NY/New-York/101-W-79th-St-10024/home/45273002,REBNY,CORC5942985,N,Y,40.7824201,-73.9757026
MLS Listing,,Condo/Co-op,57 Reade St Unit 14E,New York,NY,10007,1250000,0,1,Tribeca,712,,2011,42,1756,,Active,,,http://www.redfin.com/NY/New-York/57-Reade-St-10007/home/53327631,REBNY,UCOM1170044,N,Y,40.7148523,-74.0064365
MLS Listing,,Condo/Co-op,15 E 30th St Unit 17A,New York,NY,10016,1480000,1,1,Middle East Side,938,,,42,1578,,Active,,,http://www.redfin.com/NY/New-York/15-E-30th-St-10016/home/169997254,REBNY,DEGI3944695,N,Y,40.7456749,-73.9852366
MLS Listing,,Condo/Co-op,1060 Park Ave Unit 9C,New York,NY,10128,1299000,1,1.5,Upper East Side,,,1924,42,,,Active,,,http://www.redfin.com/NY/New-York/1060-Park-Ave-10128/home/169991927,REBNY,DEGI4030614,N,Y,40.7812136,-73.9570373
MLS Listing,,Condo/Co-op,24 -16 Queens Plz S Unit 14A,Queens,NY,11101,1292650,1,2,Queens ( Other),918,,2019,47,1408,,Active,,,http://www.redfin.com/NY/Long-Island-City/24-Queens-Plz-S-11101/home/169974176,REBNY,SEEK1858086,N,Y,40.7506597,-73.940856
MLS Listing,,Condo/Co-op,405 Dean St Unit 1A,Brooklyn,NY,11217,1499000,1,2,Park Slope,1637,,2005,47,916,,Active,,,http://www.redfin.com/NY/Brooklyn/405-Dean-St-11217/home/40644173,REBNY,CORC5941944,N,Y,40.6827843,-73.9777946
MLS Listing,,Condo/Co-op,200 E 66th St Unit E206,New York,NY,10065,1450000,1,1,Upper East Side,955,,1951,47,1518,,Active,,,http://www.redfin.com/NY/New-York/200-E-66th-St-10065/home/115345442,REBNY,DEGI4034860,N,Y,40.7654964,-73.9631442
MLS Listing,,Condo/Co-op,32 E 1st St Unit 7E,New York,NY,10003,1375000,1,1,East Village,484,,,48,2841,,Active,,,http://www.redfin.com/NY/New-York/32-E-1st-St-10003/home/166836533,REBNY,DEGI3925095,N,Y,40.7240884,-73.9902622
MLS Listing,,Condo/Co-op,30 E 31st St Unit 8B,New York,NY,10016,1490000,1,1,Middle East Side,741,,2018,49,2011,,Active,,,http://www.redfin.com/NY/New-York/30-E-31st-St-10016/home/145507477,REBNY,REUV1860127,N,Y,40.7454469,-73.9839442
MLS Listing,,Condo/Co-op,400 E 51st St Unit 7C,New York,NY,10022,1435000,1,2,Middle East Side,1046,,2002,49,1372,,Active,,,http://www.redfin.com/NY/New-York/400-E-51st-St-10022/home/45121712,REBNY,CORC5935359,N,Y,40.754198,-73.9655694
MLS Listing,,Multi-Family (2-4 Unit),3050 Brighton 2 St,Brooklyn,NY,11235,1400000,0,,Brooklyn,1458,1800,1915,52,960,,Active,,,http://www.redfin.com/NY/Brooklyn/3050-Brighton-2nd-St-11235/home/40906423,BNYMLS,434946,N,Y,40.577637,-73.965624
MLS Listing,,Condo/Co-op,123 Washington St Unit 40D,New York,NY,10006,1300000,1,1,Financial District,732,,2007,53,1776,,Active,,,http://www.redfin.com/NY/New-York/123-Washington-St-10006/home/45330483,REBNY,LLGI2799922,N,Y,40.7092191,-74.0137534
MLS Listing,,Condo/Co-op,421 W 54th St Unit 4F,New York,NY,10019,1379000,1,2,Middle West Side,1021,,1928,54,1351,,Active,,,http://www.redfin.com/NY/New-York/421-W-54th-St-10019/home/45191131,REBNY,SOTH2819776,N,Y,40.7667454,-73.9882599
MLS Listing,,Condo/Co-op,350 W 42nd St Unit 44H,New York,NY,10036,1290000,1,1,Middle West Side,,,2004,55,,,Active,,,http://www.redfin.com/NY/New-York/350-W-42nd-St-10036/home/45190957,REBNY,BHSR19964177,N,Y,40.7578531,-73.9923304
MLS Listing,,Condo/Co-op,11 E 36th St #606,New York,NY,10016,1471260,1,2,Middle East Side,1130,,1911,55,1302,,Active,,,http://www.redfin.com/NY/New-York/11-E-36th-St-10016/home/45190223,REBNY,HALS19862377,N,Y,40.7496366,-73.9825832
MLS Listing,,Condo/Co-op,261 W 25th St Unit 4E,New York,NY,10001,1395000,1,1,Chelsea,783,,2015,55,1782,,Active,,,http://www.redfin.com/NY/New-York/261-W-25th-St-10001/home/108581787,REBNY,ENGE2819134,N,Y,40.7463802,-73.9967585
MLS Listing,,Condo/Co-op,46 S 2nd St Unit 4D,Brooklyn,NY,11249,1250000,1,1,Williamsburg,,,2010,55,,,Active,,,http://www.redfin.com/NY/Brooklyn/46-S-2nd-St-11249/home/40923747,REBNY,RUTE1859518,N,Y,40.7143731,-73.966159
MLS Listing,,Condo/Co-op,377 Rector Pl Unit 21E,New York,NY,10280,1264000,1,1,Battery Park City,814,,1985,56,1553,,Active,,,http://www.redfin.com/NY/New-York/377-Rector-Pl-10280/home/45125274,REBNY,DEGI2580931,N,Y,40.709744,-74.0177676
MLS Listing,,Condo/Co-op,196 Orchard St Unit 6R,New York,NY,10002,1500000,1,1,Lower East Side,846,,2017,58,1773,,Active,,,http://www.redfin.com/NY/New-York/196-Orchard-St-10002/home/145282678,REBNY,SEEK1859293,N,Y,40.7222717,-73.9878326
MLS Listing,,Condo/Co-op,196 Orchard St Unit 7Q,New York,NY,10002,1250000,1,1,Lower East Side,686,,2017,58,1822,,Active,,,http://www.redfin.com/NY/New-York/196-Orchard-St-10002/home/147019397,REBNY,SEEK1859289,N,Y,40.7222717,-73.9878326
MLS Listing,,Condo/Co-op,80 Riverside Blvd Unit 15K,New York,NY,10069,1325000,1,1,Upper West Side,745,,2006,59,1779,,Active,,,http://www.redfin.com/NY/New-York/80-Riverside-Blvd-10069/home/45224623,REBNY,SEEK358641,N,Y,40.77508,-73.990303
MLS Listing,,Condo/Co-op,15 W 53rd St Unit 20E,New York,NY,10019,1475000,1,1.5,Middle West Side,1187,,1982,59,1243,,Active,,,http://www.redfin.com/NY/New-York/15-W-53rd-St-10019/home/45276212,REBNY,SOTH2818128,N,Y,40.7612338,-73.9775174
MLS Listing,,Condo/Co-op,11 Fifth Ave Unit 10V,New York,NY,10003,1250000,1,1,Greenwich Village,950,,1956,59,1316,,Active,,,http://www.redfin.com/NY/New-York/11-5th-Ave-10003/home/145246206,REBNY,UCOM1736322,N,Y,40.7322935,-73.9959261
MLS Listing,,Condo/Co-op,123 Clinton Ave Unit 3B,Brooklyn,NY,11205,1315000,1,1,Clinton Hill,880,,2019,60,1494,,Active,,,http://www.redfin.com/NY/Brooklyn/123-Clinton-Ave-11205/home/169820877,REBNY,UCOM1859237,N,Y,40.694311,-73.968676
MLS Listing,,Condo/Co-op,715 Park Ave Unit 6E,New York,NY,10021,1475000,1,1,Upper East Side,,,1948,62,,,Active,,,http://www.redfin.com/NY/New-York/715-Park-Ave-10021/home/45285006,REBNY,CORC5934614,N,Y,40.7695061,-73.9644851
MLS Listing,,Condo/Co-op,20 Pine St #1408,New York,NY,10005,1495000,1,1.5,Financial District,1200,,1928,63,1246,,Active,,,http://www.redfin.com/NY/New-York/20-Pine-St-10005/home/169776706,REBNY,PPGN1459584,N,Y,40.7075665,-74.0096766
MLS Listing,,Condo/Co-op,250 Mercer St Unit B/603,New York,NY,10012,1300000,1,1,Greenwich Village,,,,66,,,Active,,,http://www.redfin.com/NY/New-York/250-Mercer-St-10012/home/45200224,REBNY,BHSR19951508,N,Y,40.7282326,-73.9953422
MLS Listing,,Condo/Co-op,41 Fifth Ave Unit 10D,New York,NY,10003,1250000,1,1,Greenwich Village,,,1923,66,,,Active,,,http://www.redfin.com/NY/New-York/41-5th-Ave-10003/home/53322487,REBNY,UCOM126202,N,Y,40.7337881,-73.9948252
MLS Listing,,Condo/Co-op,350 W 42nd St Unit 33C,New York,NY,10036,1295000,1,1,Middle West Side,818,,2005,67,1583,,Active,,,http://www.redfin.com/NY/New-York/350-W-42nd-St-10036/home/45191057,REBNY,ENGE2814502,N,Y,40.7578531,-73.9923304
MLS Listing,,Condo/Co-op,304 E 65th St Unit 34B,New York,NY,10021,1350000,1,1.5,Upper East Side,825,,1985,67,1636,,Active,,,http://www.redfin.com/NY/New-York/304-E-65th-St-10065/home/45288016,REBNY,DEGI4012029,N,Y,40.7640326,-73.9614858
MLS Listing,,Condo/Co-op,85 N -101 3rd St #314,Brooklyn,NY,11249,1499000,0,1,Brooklyn,1213,,2006,67,1236,,Active,,,http://www.redfin.com/NY/Brooklyn/85-N-3rd-St-11249/home/40668271,REBNY,CLIC16785,N,Y,40.7172132,-73.9622559
MLS Listing,,Condo/Co-op,280 Park Ave S Unit 4E,New York,NY,10010,1450000,1,1,Gramercy Park,728,,1986,68,1992,,Active,,,http://www.redfin.com/NY/New-York/280-Park-Ave-S-10010/home/45250870,REBNY,DEGI4014537,N,Y,40.7395698,-73.9875483
MLS Listing,,Condo/Co-op,60 Broadway Unit 6E,Brooklyn,NY,11249,1250000,1,1.5,Williamsburg S Side,,,1916,69,,,Active,,,http://www.redfin.com/NY/Brooklyn/60-Broadway-10006/home/40639711,REBNY,HALS19943381,N,Y,40.710294,-73.966014
MLS Listing,,Condo/Co-op,210 Lafayette St Unit 7C,New York,NY,10012,1495000,1,1,Soho,673,,2005,69,2221,,Active,,,http://www.redfin.com/NY/New-York/210-Lafayette-St-10012/home/45136118,REBNY,UCOM181194,N,Y,40.7217405,-73.9980452
MLS Listing,,Condo/Co-op,40 E 78th St Unit 7A,New York,NY,10075,1295000,1,1,Upper East Side,705,,1949,69,1837,,Active,,,http://www.redfin.com/NY/New-York/40-E-78th-St-10075/home/45283884,REBNY,ASHW2812935,N,Y,40.7752654,-73.9624098
MLS Listing,,Condo/Co-op,11 E 29th St Unit 25B,New York,NY,10016,1300000,1,1,Middle East Side,767,,2008,73,1695,,Active,,,http://www.redfin.com/NY/New-York/11-E-29th-St-10016/home/45208755,REBNY,DEGI4011050,N,Y,40.7449921,-73.985602
MLS Listing,,Condo/Co-op,350 W 53rd St Unit PHC,New York,NY,10019,1400000,1,1,Middle West Side,815,,2005,75,1718,,Active,,,http://www.redfin.com/NY/New-York/350-W-53rd-St-10019/home/145284357,REBNY,UCOM178275,N,Y,40.7649347,-73.9868156
MLS Listing,,Condo/Co-op,55 Wall St #944,New York,NY,10005,1250000,1,1.5,Financial District,1104,,1842,75,1132,,Active,,,http://www.redfin.com/NY/New-York/55-Wall-St-10005/home/45193704,REBNY,AAMA1856215,N,Y,40.7059312,-74.0093393
MLS Listing,,Condo/Co-op,55 Wall St #940,New York,NY,10005,1450000,1,1.5,Financial District,1200,,1842,75,1208,,Active,,,http://www.redfin.com/NY/New-York/55-Wall-St-10005/home/45193705,REBNY,AAMA1355045,N,Y,40.7059312,-74.0093393
MLS Listing,,Condo/Co-op,36 E 69th St Unit 3A,New York,NY,10021,1295000,1,1,Upper East Side,,,1903,76,,,Active,,,http://www.redfin.com/NY/New-York/36-E-69th-St-10021/home/45156078,REBNY,DEGI4007964,N,Y,40.769474,-73.966413
MLS Listing,,Condo/Co-op,400 Central Park W Unit 14B,New York,NY,10025,1350000,1,1,Upper West Side,840,,1961,76,1607,,Active,,,http://www.redfin.com/NY/New-York/400-Central-Park-W-10025/home/45124967,REBNY,DEGI4004358,N,Y,40.7942099,-73.9636725
MLS Listing,,Condo/Co-op,15 William St Unit 42C,New York,NY,10005,1300000,1,1,Financial District,832,,2007,77,1563,,Active,,,http://www.redfin.com/NY/New-York/15-William-St-10005/home/45321331,REBNY,UCOM765347,N,Y,40.7052538,-74.0103402
MLS Listing,,Condo/Co-op,265 Water St Unit 4THFL,New York,NY,10038,1395000,1,1,Lower Manhattan,1650,,,77,845,,Active,,,http://www.redfin.com/NY/New-York/265-Water-St-10038/home/145200396,REBNY,BHSR19919869,N,Y,40.7083917,-74.0013357
MLS Listing,,Condo/Co-op,333 W 56th St Unit 8I,New York,NY,10019,1295000,1,1,Middle West Side,,,1931,78,,,Active,,,http://www.redfin.com/NY/New-York/333-W-56th-St-10019/home/45262972,REBNY,UCOM354163,N,Y,40.7669292,-73.985069
MLS Listing,,Condo/Co-op,34 N 7th St Unit 7L,Brooklyn,NY,11249,1285000,1,1.5,Williamsburg,1091,,2008,80,1178,,Active,,,http://www.redfin.com/NY/Brooklyn/34-N-7th-St-11249/home/40923001,REBNY,MNSM1261425,N,Y,40.7205817,-73.9623624
MLS Listing,,Multi-Family (2-4 Unit),1128 74 St,Brooklyn,NY,11228,1250000,1,3.25,Brooklyn,1620,3000,,81,772,,Active,,,http://www.redfin.com/NY/Brooklyn/1128-74th-St-11228/home/40823887,BNYMLS,434284,N,Y,40.6229782,-74.0105722
MLS Listing,,Condo/Co-op,75 Wall St Unit 38R,New York,NY,10005,1295000,1,1.5,Financial District,927,,1987,82,1397,,Active,,,http://www.redfin.com/NY/New-York/75-Wall-St-10005/home/45219411,REBNY,PLAT1855726,N,Y,40.7051691,-74.008024
MLS Listing,,Condo/Co-op,1 Irving Pl Unit U16A,New York,NY,10003,1370000,1,1,Gramercy Park,715,,1987,82,1916,,Active,,,http://www.redfin.com/NY/New-York/1-Irving-Pl-10003/home/45252745,REBNY,LUMR19925902,N,Y,40.7349087,-73.9891288
MLS Listing,,Condo/Co-op,100 Avenue A Unit 4C,New York,NY,10009,1450000,1,1,East Village,675,,2016,82,2148,,Active,,,http://www.redfin.com/NY/New-York/100-Avenue-A-10009/home/112851341,REBNY,SEEK1855734,N,Y,40.7257027,-73.9836046
MLS Listing,,Condo/Co-op,29 Tompkins Pl #2,Brooklyn,NY,11231,1495000,1,1,Cobble Hill,,,1910,83,,,Active,,,http://www.redfin.com/NY/Brooklyn/29-Tompkins-Pl-11231/home/40647559,REBNY,SOTH2806854,N,Y,40.6849742,-73.9955731
MLS Listing,,Condo/Co-op,2 Horatio St Unit 3R,New York,NY,10014,1495000,1,1,West Village,900,,1931,83,1661,,Active,,,http://www.redfin.com/NY/New-York/2-Horatio-St-10014/home/45198348,REBNY,SEEK1855492,N,Y,40.7385473,-74.0026807
MLS Listing,,Condo/Co-op,15 William St Unit D2,New York,NY,10005,1491000,1,2,Lower Manhattan,1065,,2008,84,1400,,Active,,,http://www.redfin.com/NY/New-York/15-William-St-10005/home/45324358,REBNY,DEGI3959213,N,Y,40.7052538,-74.0103402
MLS Listing,,Condo/Co-op,305 Second Ave #707,New York,NY,10003,1495000,1,1,Gramercy Park,1168,,1899,84,1280,,Active,,,http://www.redfin.com/NY/New-York/305-2nd-Ave-10003/home/45127735,REBNY,UCOM931737,N,Y,40.7347439,-73.9836697
MLS Listing,,Condo/Co-op,163 E 81st St Unit PHC,New York,NY,10028,1395000,1,1,Upper East Side,,,1927,85,,,Active,,,http://www.redfin.com/NY/New-York/520-E-81st-St-10028/home/45234154,REBNY,DEGI3988188,N,Y,40.7719776,-73.9483231
MLS Listing,,Condo/Co-op,220 Riverside Blvd Unit 14K,New York,NY,10069,1450000,1,1.5,Upper West Side,1044,,2002,86,1389,,Active,,,http://www.redfin.com/NY/New-York/220-Riverside-Blvd-10069/home/45121321,REBNY,DEGI3998568,N,Y,40.7798481,-73.9870662
MLS Listing,,Condo/Co-op,25 E 69th St Unit 5B,New York,NY,10021,1475000,1,1,Upper East Side,,,1920,86,,,Active,,,http://www.redfin.com/NY/New-York/25-E-69th-St-10021/home/169476839,REBNY,NYCA1047,N,Y,40.7697491,-73.966184
MLS Listing,,Vacant Land,507 Richard Ave,Staten Island,NY,10309,1290000,0,,Richmond Valley,,15000,,88,,,Active,,,http://www.redfin.com/NY/Staten-Island/507-Richard-Ave-10309/home/56070807,SIBORMLS,1133150,N,Y,40.5056405,-74.2235498
MLS Listing,,Condo/Co-op,50 Bridge St #516,Brooklyn,NY,11201,1375000,0,1,Dumbo,1162,,1907,89,1183,,Active,,,http://www.redfin.com/NY/Brooklyn/50-Bridge-St-11201/home/40638853,REBNY,UCOM1854713,N,Y,40.703348,-73.98524
MLS Listing,,Condo/Co-op,180 E End Ave Unit 16H,New York,NY,10128,1250000,1,1.5,Upper East Side,1425,,1961,90,877,,Active,,,http://www.redfin.com/NY/New-York/180-E-End-Ave-10128/home/114903557,REBNY,UCOM1560519,N,Y,40.7766673,-73.9439269
MLS Listing,,Condo/Co-op,392 Central Park W Unit 9K,New York,NY,10025,1295000,1,1,Upper West Side,949,,1960,94,1365,,Active,,,http://www.redfin.com/NY/New-York/392-Central-Park-W-10025/home/45133323,REBNY,DEGI3988791,N,Y,40.7945469,-73.9649582
MLS Listing,,Condo/Co-op,325 Fifth Ave Unit 23D,New York,NY,10016,1295000,1,1.5,Middle West Side,899,,2005,95,1440,,Active,,,http://www.redfin.com/NY/New-York/325-5th-Ave-10016/home/45190441,REBNY,DEGI3986495,N,Y,40.7474748,-73.9850314
MLS Listing,,Condo/Co-op,250 Mercer St Unit B603,New York,NY,10012,1300000,1,1,Greenwich Village,,,1908,96,,,Active,,,http://www.redfin.com/NY/New-York/250-Mercer-St-10012/home/45172477,REBNY,CORC5777124,N,Y,40.7282326,-73.9953422
MLS Listing,,Condo/Co-op,241 Fifth Ave Unit 8C,New York,NY,10016,1295000,1,1,Flatiron,646,,2013,96,2005,,Active,,,http://www.redfin.com/NY/New-York/241-5th-Ave-10016/home/105859116,REBNY,EXPR1849474,N,Y,40.7442176,-73.9872499
MLS Listing,,Condo/Co-op,304 E 65th St Unit 28B,New York,NY,10065,1395000,1,1.5,Upper East Side,826,,1985,96,1689,,Active,,,http://www.redfin.com/NY/New-York/304-E-65th-St-10065/home/45288006,REBNY,STRI1853639,N,Y,40.7640326,-73.9614858
MLS Listing,,Condo/Co-op,17 Cornelia St Unit 1C,New York,NY,10014,1325000,1,1,Greenwich Village,1406,,1910,97,942,,Active,,,http://www.redfin.com/NY/New-York/17-Cornelia-St-10014/home/45245197,REBNY,SUMI1853395,N,Y,40.7315734,-74.0020789
MLS Listing,,Condo/Co-op,200 E 61st St Unit 12E,New York,NY,10065,1395000,1,1.5,Upper East Side,904,,1986,98,1543,,Active,,,http://www.redfin.com/NY/New-York/200-E-61st-St-10065/home/45285493,REBNY,HALS19894253,N,Y,40.7625289,-73.9654889
MLS Listing,,Condo/Co-op,340 W 57th St Unit 2B,New York,NY,10019,1495000,1,1,Middle West Side,,,1904,98,,,Active,,,http://www.redfin.com/NY/New-York/340-W-57th-St-10019/home/45262416,REBNY,DEGI3982815,N,Y,40.767258,-73.984671
MLS Listing,,Condo/Co-op,768 Fifth Ave #1238,New York,NY,10019,1250000,0,1,Middle East Side,529,,1907,100,2363,,Active,,,http://www.redfin.com/NY/New-York/768-5th-Ave-10019/home/115589989,REBNY,STRI688004,N,Y,40.7646095,-73.9743547
MLS Listing,,Condo/Co-op,695 First Ave Unit 30J,New York,NY,10016,1495000,1,1,Middle East Side,714,,2019,101,2094,,Active,,,http://www.redfin.com/NY/New-York/695-1st-Ave-10016/home/160674507,REBNY,CORC5771635,N,Y,40.7473591,-73.9709181
MLS Listing,,Condo/Co-op,695 First Ave Unit 30C,New York,NY,10016,1385000,1,1,Middle East Side,760,,2019,101,1822,,Active,,,http://www.redfin.com/NY/New-York/695-1st-Ave-10016/home/160674511,REBNY,CORC5737480,N,Y,40.7473591,-73.9709181
MLS Listing,,Condo/Co-op,330 E 38th St Unit 19A,New York,NY,10016,1270000,1,1.5,Middle East Side,1009,,1987,101,1259,,Active,,,http://www.redfin.com/NY/New-York/330-E-38th-St-10016/home/45257585,REBNY,DEGI3979111,N,Y,40.746393,-73.9727324
MLS Listing,,Condo/Co-op,454 W 54th St Unit 2K,New York,NY,10019,1295000,1,1.5,Middle West Side,870,,2010,103,1489,,Active,,,http://www.redfin.com/NY/New-York/454-W-54th-St-10019/home/160498919,REBNY,UCOM1806355,N,Y,40.7668859,-73.9896277
MLS Listing,,Condo/Co-op,15 W 11th St Unit 6A,New York,NY,10011,1465000,1,1,Greenwich Village,,,1922,103,,,Active,,,http://www.redfin.com/NY/New-York/15-W-11th-St-10011/home/102005662,REBNY,BHSR19864763,N,Y,40.7345295,-73.9956975
MLS Listing,,Condo/Co-op,16 W 16th St Unit 3CS,New York,NY,10011,1295000,1,1,Flatiron,,,1964,103,,,Active,,,http://www.redfin.com/NY/New-York/16-W-16th-St-10011/home/45167131,REBNY,CORC5895626,N,Y,40.737402,-73.99318
MLS Listing,,Condo/Co-op,20 E 9th St Unit 11F,New York,NY,10003,1495000,1,1,Greenwich Village,,,1964,104,,,Active,,,http://www.redfin.com/NY/New-York/20-E-9th-St-10003/home/148049441,REBNY,CORC5893782,N,Y,40.7321555,-73.9947831
MLS Listing,,Condo/Co-op,2 E 55th St #1001,New York,NY,10022,1250000,0,1,Middle East Side,593,,1904,104,2108,,Active,,,http://www.redfin.com/NY/New-York/2-E-55th-St-10022/home/169252446,REBNY,CORC5887910,N,Y,40.7613979,-73.9746128
MLS Listing,,Condo/Co-op,39 E 19th St #2,New York,NY,10003,1495000,1,2,Flatiron,1350,,2000,108,1107,,Active,,,http://www.redfin.com/NY/New-York/39-E-19th-St-10003/home/160968065,REBNY,HALS19883698,N,Y,40.738276,-73.9888627
MLS Listing,,Condo/Co-op,21 Powers St Unit 1B,Brooklyn,NY,11211,1375000,1,1.5,Williamsburg,1199,,2019,109,1147,,Active,,,http://www.redfin.com/NY/Brooklyn/21-Powers-St-11211/home/169209324,REBNY,HALS19119466,N,Y,40.71205,-73.950354
MLS Listing,,Condo/Co-op,611 W 56th St Unit 6D,New York,NY,10019,1260000,1,1,Middle West Side,509,,2019,111,2475,,Active,,,http://www.redfin.com/NY/New-York/611-W-56th-St-10019/home/169197056,REBNY,UCOM1850775,N,Y,40.7698651,-73.9923494
MLS Listing,,Condo/Co-op,15 W 61st St Unit 8D,New York,NY,10023,1495000,1,1,Upper West Side,668,,,111,2238,,Active,,,http://www.redfin.com/NY/New-York/15-W-61st-St-10023/home/169197048,REBNY,CORC5882630,N,Y,40.7702499,-73.9827768
MLS Listing,,Condo/Co-op,785 Park Ave Unit 15D,New York,NY,10021,1250000,1,1.5,Upper East Side,,,1940,115,,,Active,,,http://www.redfin.com/NY/New-York/785-Park-Ave-10021/home/102004340,REBNY,BHSR19864734,N,Y,40.7718461,-73.9629838
MLS Listing,,Condo/Co-op,30 E 29th St Unit 28D,New York,NY,10016,1495000,0,1,Middle East Side,601,,2020,116,2488,,Active,,,http://www.redfin.com/NY/New-York/30-E-29th-St-10016/home/169113975,REBNY,CORE2768091,N,Y,40.7442132,-73.9847706
MLS Listing,,Condo/Co-op,167 Perry St Unit 4S,New York,NY,10014,1290000,1,1,West Village,,,1986,117,,,Active,,,http://www.redfin.com/NY/New-York/167-Perry-St-10014/home/53323094,REBNY,UCOM1006621,N,Y,40.7348125,-74.0094964
MLS Listing,,Condo/Co-op,167 E 82nd St Unit 7D,New York,NY,10028,1300000,1,1,Upper East Side,878,,1929,117,1481,,Active,,,http://www.redfin.com/NY/New-York/167-E-82nd-St-10028/home/45332540,REBNY,UCOM845230,N,Y,40.7766796,-73.9563485
MLS Listing,,Condo/Co-op,154 Skillman Ave Unit 2A,Brooklyn,NY,11211,1250000,1,2.5,Williamsburg,1660,,2008,118,753,,Active,,,http://www.redfin.com/NY/Brooklyn/154-Skillman-Ave-11211/home/40917536,REBNY,KWNY236684,N,Y,40.7157675,-73.945029
MLS Listing,,Condo/Co-op,2 River Ter Unit 9B,New York,NY,10282,1500000,1,1,Battery Park City,865,,2006,118,1734,,Active,,,http://www.redfin.com/NY/New-York/2-River-Ter-10282/home/169090609,REBNY,DEGI3955051,N,Y,40.7153984,-74.0161723
MLS Listing,,Condo/Co-op,201 W 16th St Unit 4B,New York,NY,10011,1400000,1,1,Chelsea,900,,1930,119,1556,,Active,,,http://www.redfin.com/NY/New-York/201-W-16th-St-10011/home/45231429,REBNY,UCOM738755,N,Y,40.7401582,-73.9988739
MLS Listing,,Condo/Co-op,5 Franklin Pl Unit 2D,New York,NY,10013,1500000,0,1,Tribeca,812,,2015,121,1847,,Active,,,http://www.redfin.com/NY/New-York/5-Franklin-Pl-10013/home/108582242,REBNY,DEGI3954883,N,Y,40.7179654,-74.0039166
MLS Listing,,Condo/Co-op,70 Charlton St Unit 2B,New York,NY,10014,1399000,1,1,Soho,828,,2014,122,1690,,Active,,,http://www.redfin.com/NY/New-York/70-Charlton-St-10014/home/143038156,REBNY,CORC5885796,N,Y,40.7270269,-74.0063713
MLS Listing,,Condo/Co-op,140 Nassau St Unit 12B,New York,NY,10038,1385000,1,1,Financial District,,,,123,,,Active,,,http://www.redfin.com/NY/New-York/140-Nassau-St-10038/home/169036822,REBNY,BHSR19831651,N,Y,40.7111925,-74.0062163
MLS Listing,,Condo/Co-op,98 Front St Unit 4H,Brooklyn,NY,11201,1250000,1,1,Dumbo,642,,2020,123,1947,,Active,,,http://www.redfin.com/NY/Brooklyn/98-Front-St-11201/home/168997733,REBNY,TPGR1848303,N,Y,40.701994,-73.9890574
MLS Listing,,Vacant Land,59 Hamilton Ave,Staten Island,NY,10301,1500000,0,,St. George,,7200,,124,,,Active,,,http://www.redfin.com/NY/Staten-Island/59-Hamilton-Ave-10301/home/56083793,SIBORMLS,1132146,N,Y,40.6451387,-74.0798708
MLS Listing,,Condo/Co-op,151 W 21st St Unit 3C,New York,NY,10011,1250000,1,1,Chelsea,,,2013,125,,,Active,,,http://www.redfin.com/NY/New-York/151-W-21st-St-10011/home/105884733,REBNY,RUTE1844617,N,Y,40.742603,-73.995492
MLS Listing,,Condo/Co-op,505 W 43rd St Unit 5L,New York,NY,10036,1265000,1,1,Middle West Side,658,,2019,126,1922,,Active,,,http://www.redfin.com/NY/New-York/505-W-43rd-St-10036/home/145508023,REBNY,REUV1846838,N,Y,40.7606309,-73.9955084
MLS Listing,,Condo/Co-op,505 W 43rd St Unit 7A,New York,NY,10036,1450000,1,1,Middle West Side,764,,2019,126,1898,,Active,,,http://www.redfin.com/NY/New-York/505-W-43rd-St-10036/home/168960267,REBNY,REUV1815265,N,Y,40.7606309,-73.9955084
MLS Listing,,Condo/Co-op,389 E 89th St Unit 18B,New York,NY,10128,1295000,1,1,Upper East Side,731,,2003,126,1772,,Active,,,http://www.redfin.com/NY/New-York/389-E-89th-St-10128/home/143345858,REBNY,UCOM1564189,N,Y,40.7791072,-73.9483299
MLS Listing,,Condo/Co-op,425 E 58th St Unit 19F,New York,NY,10022,1395000,1,1.5,Upper East Side,1400,,1975,127,996,,Active,,,http://www.redfin.com/NY/New-York/425-E-58th-St-10022/home/168946897,REBNY,DEGI3939667,N,Y,40.7586967,-73.9609292
MLS Listing,,Condo/Co-op,20 Pine St #2606,New York,NY,10005,1250000,1,2,Financial District,956,,2006,128,1308,,Active,,,http://www.redfin.com/NY/New-York/20-Pine-St-10005/home/143014345,REBNY,HORL135291,N,Y,40.7077299,-74.0097298
MLS Listing,,Multi-Family (2-4 Unit),441 74th St,Brooklyn,NY,11209,1296000,0,2,Bay Ridge,2000,,,130,648,,Active,,,http://www.redfin.com/NY/Brooklyn/441-74th-St-11209/home/40813859,REBNY,HALS19831682,N,Y,40.6311097,-74.0235202
MLS Listing,,Condo/Co-op,130 E 18th St Unit 9W,New York,NY,10003,1295000,1,1,Gramercy Park,950,,1962,130,1363,,Active,,,http://www.redfin.com/NY/New-York/130-E-18th-St-10003/home/45146393,REBNY,PLAT1846857,N,Y,40.7361064,-73.9865382
MLS Listing,,Condo/Co-op,18 W 48th St Unit 21A,New York,NY,10036,1380000,1,1.5,Middle West Side,808,,2006,131,1708,,Active,,,http://www.redfin.com/NY/New-York/18-W-48th-St-10036/home/45192548,REBNY,DEGI3939883,N,Y,40.7574596,-73.9793586
MLS Listing,,Condo/Co-op,650 Sixth Ave Unit 4B,New York,NY,10011,1250000,1,1,Flatiron,716,,1892,131,1746,,Active,,,http://www.redfin.com/NY/New-York/650-6th-Ave-10011/home/45222245,REBNY,UCOM737202,N,Y,40.7407484,-73.9939939
MLS Listing,,Condo/Co-op,200 Central Park S Unit 4I,New York,NY,10019,1349000,1,1,Middle West Side,950,,1964,132,1420,,Active,,,http://www.redfin.com/NY/New-York/200-Central-Park-S-10019/home/45167685,REBNY,UCOM183547,N,Y,40.7666871,-73.9795594
MLS Listing,,Condo/Co-op,460 W 42nd St Unit 55A,New York,NY,10036,1250000,1,1,Middle West Side,608,,2011,132,2056,,Active,,,http://www.redfin.com/NY/New-York/460-W-42nd-St-10036/home/115464539,REBNY,UCOM1604860,N,Y,40.7590905,-73.9948511
MLS Listing,,Condo/Co-op,401 E 60th St Unit 16C,New York,NY,10022,1350000,1,1.5,Upper East Side,1108,,2000,140,1218,,Active,,,http://www.redfin.com/NY/New-York/401-E-60th-St-10022/home/45315610,REBNY,DEGI3925646,N,Y,40.7603548,-73.9609971
MLS Listing,,Condo/Co-op,1600 Broadway Ph 2A,New York,NY,10019,1325000,1,1,Middle West Side,,,2006,140,,,Active,,,http://www.redfin.com/NY/New-York/1600-Broadway-10019/home/45190756,REBNY,POGR1845000,N,Y,40.7601775,-73.9843631
MLS Listing,,Condo/Co-op,77 Charlton St Unit S10G,New York,NY,10014,1415000,1,1,Soho,676,,2019,146,2093,,Active,,,http://www.redfin.com/NY/New-York/77-Charlton-St-10014/home/168688729,REBNY,TOLL1445274,N,Y,40.727291,-74.00666
MLS Listing,,Condo/Co-op,100 W 15th St Unit 3BC,New York,NY,10011,1390000,1,2,Chelsea,,,1865,151,,,Active,,,http://www.redfin.com/NY/New-York/100-W-15th-St-10011/home/168666531,REBNY,UCOM1843470,N,Y,40.7381186,-73.9969064
MLS Listing,,Condo/Co-op,5 Beekman St Unit 18C,New York,NY,10038,1399000,1,1,Lower Manhattan,703,,2015,152,1990,,Active,,,http://www.redfin.com/NY/New-York/5-Beekman-St-10038/home/115670011,REBNY,DEGI3914324,N,Y,40.7111978,-74.0068856
MLS Listing,,Condo/Co-op,15 W 72nd St Unit 31D,New York,NY,10023,1495000,1,1,Upper West Side,,,1964,153,,,Active,,,http://www.redfin.com/NY/New-York/15-W-72nd-St-10023/home/146260848,REBNY,CORC5857429,N,Y,40.7771759,-73.9768046
MLS Listing,,Condo/Co-op,121 E 22nd St Unit N503,New York,NY,10010,1310000,0,1,Gramercy Park,616,,2018,155,2127,,Active,,,http://www.redfin.com/NY/New-York/121-E-22nd-St-10010/home/143195932,REBNY,TOLL1429647,N,Y,40.7391216,-73.985647
MLS Listing,,Condo/Co-op,715 Park Ave Unit 7E,New York,NY,10021,1395000,1,1,Upper East Side,950,,1949,157,1468,,Active,,,http://www.redfin.com/NY/New-York/715-Park-Ave-10021/home/45285011,REBNY,DOMU1842497,N,Y,40.7695061,-73.9644851
MLS Listing,,Condo/Co-op,10 West St Unit 26D,New York,NY,10004,1380000,1,1.5,Battery Park City,807,,2001,157,1710,,Active,,,http://www.redfin.com/NY/New-York/10-West-St-10004/home/168626311,REBNY,CHRS1429263,N,Y,40.705569,-74.0175001
MLS Listing,,Condo/Co-op,322 W 57th St Unit 29M,New York,NY,10019,1500000,1,1,Middle West Side,800,,1978,159,1875,,Active,,,http://www.redfin.com/NY/New-York/322-W-57th-St-10019/home/45206560,REBNY,DEGI3906634,N,Y,40.7670037,-73.9840606
MLS Listing,,Condo/Co-op,415 E 54th St Unit 9E,New York,NY,10022,1300000,1,1.5,Middle East Side,991,,1983,164,1312,,Active,,,http://www.redfin.com/NY/New-York/415-E-54th-St-10022/home/45282466,REBNY,UCOM1841108,N,Y,40.7561323,-73.9633677
MLS Listing,,Condo/Co-op,389 E 89th St Unit 4E,New York,NY,10128,1350000,1,1,Upper East Side,1009,,2002,164,1338,,Active,,,http://www.redfin.com/NY/New-York/389-E-89th-St-10128/home/144132571,REBNY,DEGI3901090,N,Y,40.7791072,-73.9483299
MLS Listing,,Condo/Co-op,130 William St Unit 22A,New York,NY,10038,1460990,1,1,Financial District,872,,2020,171,1675,,Active,,,http://www.redfin.com/NY/New-York/130-William-St-10038/home/167956829,REBNY,CORC5841664,N,Y,40.7091434,-74.0064461
MLS Listing,,Condo/Co-op,200 Chambers St Unit 4E,New York,NY,10007,1398000,0,1,Tribeca,744,,2007,172,1879,,Active,,,http://www.redfin.com/NY/New-York/200-Chambers-St-10007/home/45188741,REBNY,DEGI3886316,N,Y,40.7165847,-74.0122431
MLS Listing,,Condo/Co-op,33 Conselyea St Unit 1B,Brooklyn,NY,11211,1495000,1,1.5,Williamsburg,1160,,,173,1289,,Active,,,http://www.redfin.com/NY/Brooklyn/33-Conselyea-St-11211/home/167902281,REBNY,INHO98083,N,Y,40.714892,-73.950222
MLS Listing,,Condo/Co-op,350 W 42nd St Unit 54A,New York,NY,10036,1390000,1,1,Middle West Side,885,,2004,180,1571,,Active,,,http://www.redfin.com/NY/New-York/350-W-42nd-St-10036/home/45191527,REBNY,BHSR19747743,N,Y,40.7578531,-73.9923304
MLS Listing,,Condo/Co-op,465 Park Ave Unit 9E,New York,NY,10022,1395000,1,1.5,Middle East Side,,,1926,181,,,Active,,,http://www.redfin.com/NY/New-York/465-Park-Ave-10022/home/45153852,REBNY,STRI47049,N,Y,40.7617486,-73.9703425
MLS Listing,,Condo/Co-op,16 W 19th St Unit 2B,New York,NY,10011,1498000,1,1,Flatiron,,,1906,188,,,Active,,,http://www.redfin.com/NY/New-York/16-W-19th-St-10011/home/45194573,REBNY,UCOM1519502,N,Y,40.7394618,-73.9925543
MLS Listing,,Condo/Co-op,254 Park Ave S Unit 1N,New York,NY,10010,1395000,1,2,Flatiron,943,,1913,189,1479,,Active,,,http://www.redfin.com/NY/New-York/254-Park-Ave-S-10010/home/114834400,REBNY,DEGI3860584,N,Y,40.7386051,-73.9878238
MLS Listing,,Condo/Co-op,393 W 49th St Unit 5CC,New York,NY,10019,1425000,1,1,New York,814,,1989,193,1751,,Active,,,http://www.redfin.com/NY/New-York/393-W-49th-St-10019/unit-5CC/home/45262406,HGMLS,4909382,N,Y,40.7628821,-73.9884916
MLS Listing,,Condo/Co-op,330 E 38th St Unit 34B,New York,NY,10016,1450000,1,1.5,Murray Hill Kips Bay,971,,1987,195,1493,,Active,,,http://www.redfin.com/NY/New-York/330-E-38th-St-10016/home/45258005,REBNY,UCOM25158,N,Y,40.746393,-73.9727324
MLS Listing,,Condo/Co-op,14 Sutton Pl S Unit 2C,New York,NY,10022,1275000,1,1.5,Middle East Side,,,1929,199,,,Active,,,http://www.redfin.com/NY/New-York/14-Sutton-Pl-S-10022/home/45155675,REBNY,CTRE1404254,N,Y,40.7570006,-73.9614914
MLS Listing,,Vacant Land,121 Circle Rd,Staten Island,NY,10304,1499000,0,,Todt Hill,,13331,,199,,,Active,,,http://www.redfin.com/NY/Staten-Island/121-Circle-Rd-10304/home/56133726,SIBORMLS,1130231,N,Y,40.5989248,-74.1078917
MLS Listing,,Multi-Family (2-4 Unit),6655 Hull Ave,Maspeth,NY,11378,1359000,0,,Maspeth,,5000,1924,200,,,Active,,,http://www.redfin.com/NY/Flushing/66-55-Hull-Ave-11378/home/20912060,MLSLI,3142454,N,Y,40.727752,-73.897117
MLS Listing,,Condo/Co-op,160 Central Park S #1814,New York,NY,10019,1500000,1,1.5,Middle West Side,1180,,1930,200,1271,,Active,,,http://www.redfin.com/NY/New-York/160-Central-Park-S-10019/home/45194880,REBNY,DEGI3851496,N,Y,40.7661784,-73.9785246
MLS Listing,,Condo/Co-op,416 W 52nd St #217,New York,NY,10019,1250000,1,1,Middle West Side,769,,,202,1625,,Active,,,http://www.redfin.com/NY/New-York/416-W-52nd-St-10019/home/110074313,REBNY,DEGI3845848,N,Y,40.7647904,-73.9890812
MLS Listing,,Condo/Co-op,350 W 42nd St Unit 53A,New York,NY,10036,1495000,1,1,Middle West Side,,,2006,214,,,Active,,,http://www.redfin.com/NY/New-York/350-W-42nd-St-10036/home/45191535,REBNY,HALS19649333,N,Y,40.7578531,-73.9923304
MLS Listing,,Condo/Co-op,15 Broad St #2824,New York,NY,10005,1495000,1,2,Financial District,,,1914,215,,,Active,,,http://www.redfin.com/NY/New-York/15-Broad-St-10005/home/45188250,REBNY,BHSR19606274,N,Y,40.7065317,-74.0105879
MLS Listing,,Condo/Co-op,101 W 79th St Unit 6E,New York,NY,10024,1295000,1,2,Upper West Side,894,,1984,217,1449,,Active,,,http://www.redfin.com/NY/New-York/101-W-79th-St-10024/home/45272717,REBNY,CUST1828157,N,Y,40.7824201,-73.9757026
MLS Listing,,Condo/Co-op,372 Central Park W Unit 7W,New York,NY,10025,1350000,1,1,Upper West Side,823,,1961,217,1640,,Active,,,http://www.redfin.com/NY/New-York/372-Central-Park-W-10025/home/45301429,REBNY,UCOM1829882,N,Y,40.792888,-73.9646827
MLS Listing,,Condo/Co-op,116 Central Park S Unit 7B,New York,NY,10019,1450000,1,1,Middle West Side,830,,1962,217,1747,,Active,,,http://www.redfin.com/NY/New-York/116-Central-Park-S-10019/home/45261145,REBNY,SEEK1828325,N,Y,40.7657641,-73.9772488
MLS Listing,,Condo/Co-op,75 Wall St Unit 35B,New York,NY,10005,1350000,1,1,Financial District,862,,1987,217,1566,,Active,,,http://www.redfin.com/NY/New-York/75-Wall-St-10005/home/45219235,REBNY,WWIR1828419,N,Y,40.7051691,-74.008024
MLS Listing,,Condo/Co-op,166 E 63rd St Unit 10A,New York,NY,10065,1295000,1,1,Upper East Side,960,,1959,222,1349,,Active,,,http://www.redfin.com/NY/New-York/166-E-63rd-St-10065/home/45131369,REBNY,HALS19638702,N,Y,40.7640866,-73.9651703
MLS Listing,,Condo/Co-op,50 Clinton St Unit 6F,New York,NY,10002,1295000,1,1,Lower East Side,650,,2017,229,1992,,Active,,,http://www.redfin.com/NY/New-York/50-Clinton-St-10002/home/114955578,REBNY,UCOM1475255,N,Y,40.7196176,-73.9845754
MLS Listing,,Condo/Co-op,139 Lefferts Pl Unit TOWNHOUSE,Brooklyn,NY,11238,1395000,0,1,Bedford Stuyvesant,,,1931,234,,,Active,,,http://www.redfin.com/NY/Brooklyn/139-Lefferts-Pl-11238/home/169986744,REBNY,IPGL2010,N,Y,40.6809116,-73.958007
MLS Listing,,Condo/Co-op,25 E 69th St Unit 2A,New York,NY,10021,1350000,1,1,Upper East Side,,,1920,234,,,Active,,,http://www.redfin.com/NY/New-York/25-E-69th-St-10021/home/53324356,REBNY,CORC5740389,N,Y,40.7697491,-73.966184
MLS Listing,,Condo/Co-op,39 E 29th St Unit 11B,New York,NY,10016,1500000,1,1,Flatiron,855,,2008,234,1754,,Active,,,http://www.redfin.com/NY/New-York/39-E-29th-St-10016/home/45223097,REBNY,CORC5738552,N,Y,40.7444225,-73.9840414
MLS Listing,,Condo/Co-op,270 W 17th St Unit 18B,New York,NY,10011,1250000,1,1,Chelsea,564,,1988,234,2216,,Active,,,http://www.redfin.com/NY/New-York/270-W-17th-St-10011/home/45249415,REBNY,DEGI3802422,N,Y,40.7412309,-74.0010072
MLS Listing,,Condo/Co-op,393 W 49th St Unit 5DD,New York,NY,10019,1275000,1,1,Middle West Side,766,,1988,234,1664,,Active,,,http://www.redfin.com/NY/New-York/393-W-49th-St-10019/home/45262411,REBNY,UCOM1174299,N,Y,40.7628821,-73.9884916
MLS Listing,,Condo/Co-op,167 E 61st St Unit 18B,New York,NY,10021,1295000,1,1,Upper East Side,1000,,1984,235,1295,,Active,,,http://www.redfin.com/NY/New-York/167-E-61st-St-10065/home/115149233,REBNY,DEGI3807009,N,Y,40.7632112,-73.965853
MLS Listing,,Condo/Co-op,870 United Nations Plz Unit 15G,New York,NY,10017,1449000,1,1.5,Middle East Side,,,,242,,,Active,,,http://www.redfin.com/NY/New-York/870-United-Nations-Plz-10017/home/166690362,REBNY,BHSR19616371,N,Y,40.7524819,-73.9654633
MLS Listing,,Condo/Co-op,15 Broad St #2430,New York,NY,10005,1349900,0,1,Financial District,1145,,1914,245,1179,,Active,,,http://www.redfin.com/NY/New-York/15-Broad-St-10005/home/45188492,REBNY,CORC5727213,N,Y,40.7065317,-74.0105879
MLS Listing,,Condo/Co-op,252 South St Unit 17C,New York,NY,10002,1482000,1,1,Chinatown,695,,,246,2132,,Active,,,http://www.redfin.com/NY/New-York/252-South-St-10002/home/145245445,REBNY,EXTE91161,N,Y,40.7102574,-73.9888754
MLS Listing,,Condo/Co-op,252 South St Unit 37J,New York,NY,10002,1445000,1,1,Chinatown,695,,,246,2079,,Active,,,http://www.redfin.com/NY/New-York/252-South-St-10002/home/144319691,REBNY,EXTE91158,N,Y,40.710175,-73.9893198
MLS Listing,,Condo/Co-op,252 South St Unit 34F,New York,NY,10002,1392000,1,1,Chinatown,722,,,246,1928,,Active,,,http://www.redfin.com/NY/New-York/252-South-St-10002/home/146159751,REBNY,EXTE91156,N,Y,40.7102574,-73.9888754
MLS Listing,,Condo/Co-op,1025 Fifth Ave Unit 10FS,New York,NY,10028,1350000,1,1.5,Upper East Side,,,1954,262,,,Active,,,http://www.redfin.com/NY/New-York/1025-5th-Ave-10028/home/146129368,REBNY,DEGI3769856,N,Y,40.779724,-73.9615305
MLS Listing,,Condo/Co-op,23 W 73rd St #1208,New York,NY,10023,1295000,1,1,Upper West Side,700,,1929,262,1850,,Active,,,http://www.redfin.com/NY/New-York/23-W-73rd-St-10023/home/144319822,REBNY,UCOM1705947,N,Y,40.7776725,-73.9767657
MLS Listing,,Condo/Co-op,123 Washington St Unit 30B,New York,NY,10006,1345000,1,1,Financial District,924,,2010,263,1456,,Active,,,http://www.redfin.com/NY/New-York/123-Washington-St-10006/home/45339453,REBNY,UCOM1820147,N,Y,40.7092191,-74.0137534
MLS Listing,,Condo/Co-op,302 E 96th St #402,New York,NY,10128,1495000,1,2,Upper East Side,979,,2012,265,1527,,Active,,,http://www.redfin.com/NY/New-York/302-E-96th-St-10128/home/160808621,REBNY,UCOM1813784,N,Y,40.783707,-73.946774
MLS Listing,,Condo/Co-op,76 Madison Ave Unit 5C,New York,NY,10016,1499999,1,1,Middle East Side,827,,1911,269,1814,,Active,,,http://www.redfin.com/NY/New-York/76-Madison-Ave-10016/home/45190602,REBNY,DEGI3763140,N,Y,40.743971,-73.9860561
MLS Listing,,Condo/Co-op,1050 Park Ave Unit 1E,New York,NY,10128,1275000,0,2,Upper East Side,1250,,1923,271,1020,,Active,,,http://www.redfin.com/NY/New-York/1050-Park-Ave-10028/home/166556873,REBNY,CORC5727317,N,Y,40.7808925,-73.957221
MLS Listing,,Condo/Co-op,450 W 17th St #1204,New York,NY,10011,1300000,1,1,Chelsea,600,,,271,2167,,Active,,,http://www.redfin.com/NY/New-York/450-W-17th-St-10011/home/45221501,REBNY,PREV89993,N,Y,40.7434891,-74.0063862
MLS Listing,,Condo/Co-op,21 Powers St Unit 1C,Brooklyn,NY,11211,1350000,1,1.5,Williamsburg,948,,2019,272,1424,,Active,,,http://www.redfin.com/NY/Brooklyn/21-Powers-St-11217/home/146985699,REBNY,HALS19559102,N,Y,40.6815619,-73.9785952
MLS Listing,,Condo/Co-op,392 Central Park W Unit 18M,New York,NY,10025,1360000,1,1,Manhattan Valley,788,,1960,273,1726,,Active,,,http://www.redfin.com/NY/New-York/392-Central-Park-W-10025/home/45301802,REBNY,SOTH784745,N,Y,40.7945469,-73.9649582
MLS Listing,,Condo/Co-op,27 -28 Thomson Ave #533,Queens,NY,11101,1475000,1,2,Long Island City,1272,,1928,278,1160,,Active,,,http://www.redfin.com/NY/Long-Island-City/27-Thomson-Ave-11101/home/161481806,REBNY,MOSP484213,N,Y,40.7463288,-73.9424209
MLS Listing,,Condo/Co-op,2 Horatio St Unit 4J,New York,NY,10014,1400000,1,1,West Village,,,1931,283,,,Active,,,http://www.redfin.com/NY/New-York/2-Horatio-St-10014/home/53323015,REBNY,SOTH781604,N,Y,40.7385473,-74.0026807
MLS Listing,,Condo/Co-op,146 W 57th St Unit 46E,New York,NY,10019,1295000,1,1.5,Middle West Side,782,,1987,287,1656,,Active,,,http://www.redfin.com/NY/New-York/146-W-57th-St-10019/home/45260522,REBNY,MLPS1814298,N,Y,40.764812,-73.9792825
MLS Listing,,Condo/Co-op,80 Riverside Blvd Unit 5H,New York,NY,10069,1395000,1,1,Upper West Side,798,,2006,287,1748,,Active,,,http://www.redfin.com/NY/New-York/80-Riverside-Blvd-10069/home/45224087,REBNY,UCOM1593386,N,Y,40.77508,-73.990303
MLS Listing,,Condo/Co-op,287 E Houston St Unit 3A,New York,NY,10002,1295000,1,1,Lower East Side,750,,2018,300,1727,,Active,,,http://www.redfin.com/NY/New-York/287-E-Houston-St-10002/home/130617012,REBNY,CORC5701963,N,Y,40.721261,-73.984247
MLS Listing,,Condo/Co-op,287 E Houston St Unit 4B,New York,NY,10002,1375000,1,1,Lower East Side,750,,2018,300,1833,,Active,,,http://www.redfin.com/NY/New-York/287-E-Houston-St-10002/home/160703943,REBNY,CORC5701342,N,Y,40.7212467,-73.9842655
MLS Listing,,Condo/Co-op,60 Riverside Blvd #1110,New York,NY,10069,1295000,1,1,Upper West Side,732,,2010,305,1769,,Active,,,http://www.redfin.com/NY/New-York/60-Riverside-Blvd-10069/home/45339660,REBNY,BLUR885297,N,Y,40.7744896,-73.9907833
MLS Listing,,Condo/Co-op,15 William St Unit DLX3,New York,NY,10005,1480000,1,1.5,Lower Manhattan,,,2008,306,,,Active,,,http://www.redfin.com/NY/New-York/15-William-St-10005/home/160675735,REBNY,DEGI3713075,N,Y,40.705371,-74.0100717
MLS Listing,,Condo/Co-op,721 Fifth Ave Unit 35C,New York,NY,10022,1450000,1,2,Middle East Side,1127,,,308,1287,,Active,,,http://www.redfin.com/NY/New-York/721-5th-Ave-10022/home/45277472,REBNY,BHSR19480641,N,Y,40.762394,-73.9739039
MLS Listing,,Condo/Co-op,211 E 13th St Unit 6E,New York,NY,10003,1495000,1,1,East Village,766,,2013,311,1952,,Active,,,http://www.redfin.com/NY/New-York/211-E-13th-St-10003/home/105844676,REBNY,UCOM1809689,N,Y,40.732446,-73.98682
MLS Listing,,Condo/Co-op,18 W 48th St Unit 22B,New York,NY,10036,1470000,1,1.5,Middle West Side,842,,2006,315,1746,,Active,,,http://www.redfin.com/NY/New-York/18-W-48th-St-10036/home/45195657,REBNY,DEGI3700839,N,Y,40.7574596,-73.9793586
MLS Listing,,Condo/Co-op,28 Old Fulton St Unit 8H,Brooklyn,NY,11201,1350000,1,1,Dumbo,,,1883,315,,,Active,,,http://www.redfin.com/NY/Brooklyn/28-Old-Fulton-St-11201/home/40666901,REBNY,HALS19474020,N,Y,40.702334,-73.9937463
MLS Listing,,Condo/Co-op,60 Riverside Blvd #1504,New York,NY,10069,1285000,1,1,Upper West Side,739,,2010,315,1739,,Active,,,http://www.redfin.com/NY/New-York/60-Riverside-Blvd-10069/home/45339790,REBNY,UCOM881055,N,Y,40.7744896,-73.9907833
MLS Listing,,Condo/Co-op,150 W 56th St #4107,New York,NY,10019,1295000,1,1.5,Middle West Side,,,1988,321,,,Active,,,http://www.redfin.com/NY/New-York/150-156-W-56th-St-10019/home/45259892,REBNY,DEGI3693241,N,Y,40.7642467,-73.9797507
MLS Listing,,Vacant Land,19 Carriage Ct,Staten Island,NY,10304,1395000,0,,Todt Hill,,15032,,321,,,Active,,,http://www.redfin.com/NY/Staten-Island/19-Carriage-Ct-10304/home/144727381,SIBORMLS,1126532,N,Y,40.6077,-74.09552
MLS Listing,,Condo/Co-op,930 Fifth Ave Unit 11H,New York,NY,10021,1395000,1,1.5,Upper East Side,1100,,1940,326,1268,,Active,,,http://www.redfin.com/NY/New-York/930-5th-Ave-10021/home/160509859,REBNY,DEGI3687527,N,Y,40.7738274,-73.9658238
MLS Listing,,Condo/Co-op,322 W 57th St Unit 17H,New York,NY,10019,1400000,1,1,Middle West Side,775,,1978,340,1806,,Active,,,http://www.redfin.com/NY/New-York/322-W-57th-St-10019/home/45206461,REBNY,ANCH996307,N,Y,40.7670037,-73.9840606
MLS Listing,,Condo/Co-op,20 Pine St #2706,New York,NY,10005,1500000,1,2,Financial District,956,,2006,340,1569,,Active,,,http://www.redfin.com/NY/New-York/20-Pine-St-10005/home/160414030,REBNY,NYCA1034,N,Y,40.7075665,-74.0096766
MLS Listing,,Condo/Co-op,1 W 67th St #302,New York,NY,10023,1275000,1,1,Upper West Side,,,1917,348,,,Active,,,http://www.redfin.com/NY/New-York/1-W-67th-St-10023/home/45149170,REBNY,UCOM69018,N,Y,40.7731562,-73.9781993
MLS Listing,,Condo/Co-op,15 William St Unit 31C,New York,NY,10005,1300000,1,1,Lower Manhattan,832,,2008,349,1563,,Active,,,http://www.redfin.com/NY/New-York/15-William-St-10005/home/45320048,REBNY,DEGI3642848,N,Y,40.7052538,-74.0103402
MLS Listing,,Condo/Co-op,184 Kent Ave Unit D204,Brooklyn,NY,11249,1350000,1,2,Williamsburg,938,,1915,354,1439,,Active,,,http://www.redfin.com/NY/Brooklyn/184-Kent-Ave-11249/home/146394878,REBNY,SEEK1801994,N,Y,40.7185491,-73.9645909
MLS Listing,,Condo/Co-op,125 Greenwich St Unit 66H,New York,NY,10006,1450000,0,1,Lower Manhattan,652,,2017,361,2224,,Active,,,http://www.redfin.com/NY/New-York/125-Greenwich-St-10013/home/148732214,REBNY,DEGI2836587,N,Y,40.7091812,-74.0128162
MLS Listing,,Condo/Co-op,125 Greenwich St Unit 70F,New York,NY,10006,1500000,0,1,Lower Manhattan,652,,2017,361,2301,,Active,,,http://www.redfin.com/NY/New-York/125-Greenwich-St-10013/home/148732207,REBNY,DEGI2836519,N,Y,40.7091812,-74.0128162
MLS Listing,,Condo/Co-op,125 Greenwich St Unit 20A,New York,NY,10006,1450000,1,1,Lower Manhattan,878,,2017,363,1651,,Active,,,http://www.redfin.com/NY/New-York/125-Greenwich-St-10013/home/148722643,REBNY,DEGI2836642,N,Y,40.7091812,-74.0128162
MLS Listing,,Condo/Co-op,360 W 36th St Unit 4NW,New York,NY,10018,1355000,1,1,Middle West Side,1400,,1926,364,968,,Active,,,http://www.redfin.com/NY/New-York/360-W-36th-St-10018/home/45336920,REBNY,UCOM972865,N,Y,40.7542588,-73.9948722
MLS Listing,,Condo/Co-op,160 E 22nd St Unit 11B,New York,NY,10010,1400000,1,1,Gramercy Park,722,,2013,367,1939,,Active,,,http://www.redfin.com/NY/New-York/160-E-22nd-St-10010/home/63690667,REBNY,DEGI3597193,N,Y,40.738135,-73.9839671
MLS Listing,,Condo/Co-op,15 William St Unit 18C,New York,NY,10005,1250000,1,1,Lower Manhattan,832,,2008,367,1502,,Active,,,http://www.redfin.com/NY/New-York/15-William-St-10005/home/45218633,REBNY,DEGI3582628,N,Y,40.7052538,-74.0103402
MLS Listing,,Condo/Co-op,325 Lexington Ave Unit 10D,New York,NY,10016,1495000,1,1,Murray Hill Kips Bay,754,,2014,367,1983,,Active,,,http://www.redfin.com/NY/New-York/325-Lexington-Ave-10016/home/105884500,REBNY,UCOM1460994,N,Y,40.7492232,-73.977336
MLS Listing,,Condo/Co-op,130 William St Unit 18B,New York,NY,10038,1355990,1,1,Financial District,748,,2020,367,1813,,Active,,,http://www.redfin.com/NY/New-York/130-William-St-10038/home/148704401,REBNY,CORC5647466,N,Y,40.7091434,-74.0064461
MLS Listing,,Condo/Co-op,1725 York Ave Unit MEDICAL,New York,NY,10128,1500000,0,2,Upper East Side,2500,,1971,367,600,,Active,,,http://www.redfin.com/NY/New-York/1725-York-Ave-10128/home/148704054,REBNY,CORC5642666,N,Y,40.7782664,-73.9459474
MLS Listing,,Condo/Co-op,60 E 8th St Unit 24C,New York,NY,10003,1340000,1,1,Greenwich Village,,,1967,479,,,Active,,,http://www.redfin.com/NY/New-York/60-E-8th-St-10003/home/45172715,REBNY,ANCH1778126,N,Y,40.7306031,-73.9930165
MLS Listing,,Vacant Land,8 Faith Ct,Staten Island,NY,10309,1500000,0,,Richmond Valley,,31113,,514,,,Active,,,http://www.redfin.com/NY/Staten-Island/8-Faith-Ct-10312/home/146767015,SIBORMLS,1122010,N,Y,40.505752,-74.225496
MLS Listing,,Condo/Co-op,327 W 11th St Unit 2E,New York,NY,10014,1350000,1,1,West Village,,,1899,522,,,Active,,,http://www.redfin.com/NY/New-York/327-W-11th-St-10014/home/45201127,REBNY,BOND1459714,N,Y,40.7358127,-74.0075779
MLS Listing,,Condo/Co-op,389 E 89th St Unit 3C,New York,NY,10128,1285000,1,2,Upper East Side,867,,2003,522,1482,,Active,,,http://www.redfin.com/NY/New-York/389-E-89th-St-10128/home/143178855,REBNY,CORC5528993,N,Y,40.7791072,-73.9483299
MLS Listing,,Condo/Co-op,88 Lexington Ave #1002,New York,NY,10016,1250000,0,1,Gramercy Park,797,,1927,560,1568,,Active,,,http://www.redfin.com/NY/New-York/88-Lexington-Ave-10016/home/144131764,REBNY,CORC5448145,N,Y,40.7417244,-73.9835246
MLS Listing,,Condo/Co-op,10 West St Unit 18D,New York,NY,10004,1470000,1,1.5,Battery Park City,807,,2001,563,1822,,Active,,,http://www.redfin.com/NY/New-York/10-West-St-10004/home/45119065,REBNY,BATT34670,N,Y,40.705569,-74.0175001
MLS Listing,,Condo/Co-op,389 E 89th St Unit 7G,New York,NY,10128,1499000,1,2,Upper East Side,1052,,2003,563,1425,,Active,,,http://www.redfin.com/NY/New-York/389-E-89th-St-10128/home/144132588,REBNY,CORC5459171,N,Y,40.7791072,-73.9483299
MLS Listing,,Condo/Co-op,325 Lexington Ave Unit 15E,New York,NY,10016,1349000,1,1,Murray Hill Kips Bay,645,,2014,563,2091,,Active,,,http://www.redfin.com/NY/New-York/325-Lexington-Ave-10016/home/105884548,REBNY,UCOM1454236,N,Y,40.7492232,-73.977336
MLS Listing,,Vacant Land,65 Circle Rd,Staten Island,NY,10304,1250065,0,,Todt Hill,,26000,,572,,,Active,,,http://www.redfin.com/NY/Unknown/65-Circle-Rd-10304/home/109460166,SIBORMLS,1120406,N,Y,40.5962815,-74.1067874
MLS Listing,,Condo/Co-op,515 Park Ave Unit 3K,New York,NY,10022,1439000,0,1,Upper East Side,300,,1999,627,4797,,Active,,,http://www.redfin.com/NY/New-York/515-Park-Ave-10022/home/53399637,REBNY,AIBR1747614,N,Y,40.7632227,-73.9691596
MLS Listing,,Condo/Co-op,540 W 49th St Unit 104S,New York,NY,10019,1298000,1,1,Middle West Side,782,,2015,635,1660,,Active,,,http://www.redfin.com/NY/New-York/540-W-49th-St-10019/home/114899053,REBNY,UCOM1549833,N,Y,40.764641,-73.994225
MLS Listing,,Condo/Co-op,230 E 20th St #11,New York,NY,10003,1350000,1,1,Gramercy Park,648,,1920,635,2083,,Active,,,http://www.redfin.com/NY/New-York/230-E-20th-St-10003/home/145345888,REBNY,DEGI2114860,N,Y,40.7364194,-73.9832869
MLS Listing,,Condo/Co-op,1025 Fifth Ave Unit 9GS,New York,NY,10028,1295000,1,2,Upper East Side,,,1955,655,,,Active,,,http://www.redfin.com/NY/New-York/1025-5th-Ave-10028/home/53321811,REBNY,CORC5361079,N,Y,40.7798953,-73.9613955
MLS Listing,,Condo/Co-op,389 E 89th St Unit 6E,New York,NY,10128,1350000,1,1,Upper East Side,1009,,2003,697,1338,,Active,,,http://www.redfin.com/NY/New-York/389-E-89th-St-10128/home/144132583,REBNY,CORC5342764,N,Y,40.7791072,-73.9483299
MLS Listing,,Condo/Co-op,310 W 52nd St Unit 17C,New York,NY,10019,1268000,1,1.5,Middle West Side,742,,2007,747,1709,,Active,,,http://www.redfin.com/NY/New-York/310-W-52nd-St-10019/home/45191412,REBNY,RUTE1716752,N,Y,40.7635957,-73.9859404
MLS Listing,,Condo/Co-op,261 W 25th St Unit 2E,New York,NY,10001,1299000,1,1,Chelsea,783,,2015,784,1659,,Active,,,http://www.redfin.com/NY/New-York/261-W-25th-St-10001/home/108582664,REBNY,UCOM1365062,N,Y,40.7463802,-73.9967585
MLS Listing,,Condo/Co-op,1 Central Park W #1718,New York,NY,10023,1295000,1,1,Upper West Side,691,,1960,830,1874,,Active,,,http://www.redfin.com/NY/New-York/1-Central-Park-W-10023/home/143996898,REBNY,TRMP97796,N,Y,40.7691199,-73.9815582
MLS Listing,,Condo/Co-op,63 E 9th St Unit 6L,New York,NY,10003,1299000,1,1,Greenwich Village,,,1955,867,,,Active,,,http://www.redfin.com/NY/New-York/63-E-9th-St-10003/home/45228808,REBNY,MAJA1693358,N,Y,40.7315218,-73.9922112
MLS Listing,,Condo/Co-op,389 E 89th St Unit 5A,New York,NY,10128,1375000,1,1,Upper East Side,1037,,2003,887,1326,,Active,,,http://www.redfin.com/NY/New-York/389-E-89th-St-10128/home/143179757,REBNY,CORC5200735,N,Y,40.7791072,-73.9483299
MLS Listing,,Condo/Co-op,45 Park Ave #302,New York,NY,10016,1400000,1,1.5,Murray Hill Kips Bay,927,,2007,950,1510,,Active,,,http://www.redfin.com/NY/New-York/45-Park-Ave-10016/home/45205765,REBNY,UCOM375167,N,Y,40.748647,-73.979718
MLS Listing,,Condo/Co-op,768 Fifth Ave #1438,New York,NY,10019,1495000,0,1,Middle East Side,531,,1907,950,2815,,Active,,,http://www.redfin.com/NY/New-York/768-5th-Ave-10019/home/115687725,REBNY,SUMI374814,N,Y,40.7646095,-73.9743547
MLS Listing,,Condo/Co-op,3 E 71st St Unit 12E,New York,NY,10021,1350000,1,1.5,Upper East Side,,,1948,950,,,Active,,,http://www.redfin.com/NY/New-York/3-E-71st-St-10021/home/115228619,REBNY,HALS12956145,N,Y,40.771712,-73.9666841
MLS Listing,,Condo/Co-op,247 W 46th St #1602,New York,NY,10036,1320000,1,1.5,Middle West Side,999,,2007,950,1321,,Active,,,http://www.redfin.com/NY/New-York/247-W-46th-St-10036/home/45222736,REBNY,SEEK1072584,N,Y,40.7598542,-73.9874427
MLS Listing,,Condo/Co-op,385 First Ave Unit 17B,New York,NY,10010,1295000,1,1,Gramercy Park,815,,2002,951,1589,,Active,,,http://www.redfin.com/NY/New-York/385-1st-Ave-10010/home/137405797,REBNY,UCOM1604680,N,Y,40.7366485,-73.9789518
MLS Listing,,Condo/Co-op,540 W 28th St Unit 4H,New York,NY,10001,1400000,1,1,Chelsea,781,,2008,951,1793,,Active,,,http://www.redfin.com/NY/New-York/540-W-28th-St-10001/home/45331391,REBNY,RUTE603883,N,Y,40.7514683,-74.0037858
New Construction Home,,Condo/Co-op,77 Charlton Unit s10g,New York,NY,10013,1415000,1,1,77 Charlton,676,,2019,114,2093,,Active,,,http://www.redfin.com/NY/New-York/155-6th-Ave-10013/unit-s10g/home/169147159,NewHomeSource.com,1711265,N,Y,40.725395,-74.0048036
