SALE TYPE,SOLD DATE,PROPERTY TYPE,ADDRESS,CITY,STATE OR PROVINCE,ZIP OR POSTAL CODE,PRICE,BEDS,BATHS,LOCATION,SQUARE FEET,LOT SIZE,YEAR BUILT,DAYS ON MARKET,$/SQUARE FEET,HOA/MONTH,STATUS,NEXT OPEN HOUSE START TIME,NEXT OPEN HOUSE END TIME,URL (SEE http://www.redfin.com/buy-a-home/comparative-market-analysis FOR INFO ON PRICING),SOURCE,MLS#,FAVORITE,INTERESTED,LATITUDE,LONGITUDE
MLS Listing,,Condo/Co-op,700 Washington St Unit BA,New York,NY,10014,1995000,2,2,West Village,,,1975,1,,,Active,,,http://www.redfin.com/NY/New-York/700-Washington-St-10014/home/170273934,REBNY,CORC5960706,N,Y,40.7346491,-74.0086522
MLS Listing,,Condo/Co-op,60 E 55th St Unit 20A,New York,NY,10022,1995000,1,1,Middle East Side,,,2004,1,,,Active,,,http://www.redfin.com/NY/New-York/60-E-55th-St-10022/home/45192229,REBNY,SOTH2868094,N,Y,40.7605481,-73.9727654
MLS Listing,,Condo/Co-op,333 Rector Pl Ph 5S,New York,NY,10280,1990000,1,1.5,Battery Park City,1132,,1985,3,1758,,Active,,,http://www.redfin.com/NY/New-York/333-Rector-Pl-10280/home/45330367,REBNY,BATT1865407,N,Y,40.7096161,-74.0173132
MLS Listing,,Condo/Co-op,145 W 86th St Unit 11D,New York,NY,10024,1849000,2,2,Upper West Side,,,1925,3,,,Active,,,http://www.redfin.com/NY/New-York/145-W-86th-St-10024/home/45152123,REBNY,CORC5959537,N,Y,40.7873659,-73.9735905
MLS Listing,,Condo/Co-op,222 Park Pl Unit 1B,Brooklyn,NY,11238,1795000,2,2,Prospect Heights,1794,,2004,3,1001,,Active,,,http://www.redfin.com/NY/Brooklyn/222-Park-Pl-11238/home/40639045,REBNY,DEGI4070361,N,Y,40.6767363,-73.9705812
MLS Listing,,Condo/Co-op,196 Orchard St Unit PHG,New York,NY,10002,1750000,1,1,Lower East Side,786,,2017,4,2226,,Active,,,http://www.redfin.com/NY/New-York/196-Orchard-St-10002/home/170248004,REBNY,SEEK1865196,N,Y,40.7222717,-73.9878326
MLS Listing,,Condo/Co-op,543 W 122nd St Unit 5E,New York,NY,10027,1750000,2,2,Morningside Heights,1189,,2019,4,1472,,Active,,,http://www.redfin.com/NY/New-York/543-W-122nd-St-10027/home/150604387,REBNY,HALS20013036,N,Y,40.8114727,-73.9602154
MLS Listing,,Condo/Co-op,118 E 60th St Unit 30C,New York,NY,10022,1895000,2,2,Upper East Side,1500,,1964,4,1263,,Active,,,http://www.redfin.com/NY/New-York/118-E-60th-St-10022/home/45181786,REBNY,QRES1865095,N,Y,40.7629068,-73.9686349
MLS Listing,,Condo/Co-op,77 Bleecker St #113,New York,NY,10012,1750000,2,2,Central Village,1350,,1930,4,1296,,Active,,,http://www.redfin.com/NY/New-York/77-Bleecker-St-10012/home/45141709,REBNY,DEGI4070080,N,Y,40.7267103,-73.9958678
MLS Listing,,Condo/Co-op,427 E 90th St Unit 4A,New York,NY,10128,1895000,2,2,Upper East Side,1028,,2020,4,1843,,Active,,,http://www.redfin.com/NY/New-York/427-E-90th-St-10128/home/170236650,REBNY,HALS20009276,N,Y,40.7790248,-73.9458556
MLS Listing,,Condo/Co-op,325 Fifth Ave Unit 26F,New York,NY,10016,1875000,2,2,Murray Hill Kips Bay,1228,,2005,5,1527,,Active,,,http://www.redfin.com/NY/New-York/325-5th-Ave-10016/home/45190402,REBNY,ASHE1864811,N,Y,40.7474748,-73.9850314
MLS Listing,,Condo/Co-op,123 S 1st St,Brooklyn,NY,11249,1895000,2,2,Williamsburg,1390,,2012,5,1363,,Active,,,http://www.redfin.com/NY/Brooklyn/123-S-1st-St-11249/home/92328995,REBNY,DEGI4065932,N,Y,40.714297,-73.9625106
MLS Listing,,Condo/Co-op,389 E 89th St Unit 23D,New York,NY,10128,1950000,2,2,Upper East Side,,,2002,5,,,Active,,,http://www.redfin.com/NY/New-York/389-E-89th-St-10128/home/130611941,REBNY,HALS20007859,N,Y,40.7791072,-73.9483299
MLS Listing,,Condo/Co-op,325 Fifth Ave Unit 35C,New York,NY,10016,1984000,2,2,Middle West Side,1151,,2005,6,1724,,Active,,,http://www.redfin.com/NY/New-York/325-5th-Ave-10016/home/45190389,REBNY,DEGI4067204,N,Y,40.7474748,-73.9850314
MLS Listing,,Condo/Co-op,225 Fifth Ave Unit 8P,New York,NY,10010,1830000,1,1,Middle East Side,1025,,1900,6,1785,,Active,,,http://www.redfin.com/NY/New-York/225-5th-Ave-10010/home/45190048,REBNY,DEGI4067196,N,Y,40.7437447,-73.9875513
MLS Listing,,Condo/Co-op,59 John St Unit 4C,New York,NY,10038,1995000,2,3,Financial District,1651,,1909,7,1208,,Active,,,http://www.redfin.com/NY/New-York/59-John-St-10038/home/45188625,REBNY,CORC5945104,N,Y,40.708983,-74.0072266
MLS Listing,,Condo/Co-op,870 United Nations Plz Unit 21G,New York,NY,10017,1995000,2,2,Middle East Side,,,1966,7,,,Active,,,http://www.redfin.com/NY/New-York/870-United-Nations-Plz-10017/home/170111499,REBNY,SOTH2828524,N,Y,40.7524819,-73.9654633
MLS Listing,,Condo/Co-op,11 E 29th St Unit 40C,New York,NY,10016,1899000,1,2,Flatiron,991,,2008,8,1916,,Active,,,http://www.redfin.com/NY/New-York/11-E-29th-St-10016/home/45222475,REBNY,MART1001,N,Y,40.7449921,-73.985602
MLS Listing,,Condo/Co-op,101 Warren St #890,New York,NY,10007,1875000,1,1.5,Tribeca,979,,2006,10,1915,,Active,,,http://www.redfin.com/NY/New-York/101-Warren-St-10007/home/45220604,REBNY,KWNY239171,N,Y,40.7156284,-74.0121137
MLS Listing,,Condo/Co-op,325 Fifth Ave Unit 34B,New York,NY,10016,1985000,2,2,Middle West Side,1446,,2005,10,1373,,Active,,,http://www.redfin.com/NY/New-York/325-5th-Ave-10016/home/45190381,REBNY,DEGI4062173,N,Y,40.7474748,-73.9850314
MLS Listing,,Condo/Co-op,177 Ninth Ave Unit 5E,New York,NY,10011,1900000,1,1.5,Chelsea,,,2008,11,,,Active,,,http://www.redfin.com/NY/New-York/177-9th-Ave-10011/home/45325491,REBNY,UCOM759996,N,Y,40.7450569,-74.0027927
MLS Listing,,Condo/Co-op,42 Allen St Unit 5B/6B,New York,NY,10002,1995000,2,2.5,Lower East Side,1346,,2017,11,1482,,Active,,,http://www.redfin.com/NY/New-York/42-Allen-St-10002/home/170193996,REBNY,UCOM1864001,N,Y,40.7162479,-73.9915649
MLS Listing,,Condo/Co-op,117 E 57th St Unit 22F/G,New York,NY,10022,2000000,2,2,Middle East Side,1238,,1976,11,1616,,Active,,,http://www.redfin.com/NY/New-York/117-E-57th-St-10022/home/45278258,REBNY,CHRS2863278,N,Y,40.7614678,-73.9698441
MLS Listing,,Condo/Co-op,252 South St Unit 9H,New York,NY,10002,1895000,2,2,Chinatown,1156,,,13,1639,,Active,,,http://www.redfin.com/NY/New-York/252-South-St-10002/home/115295367,REBNY,EXTE107069,N,Y,40.7102574,-73.9888754
MLS Listing,,Condo/Co-op,252 South St Unit 72L,New York,NY,10002,1752000,1,1,Chinatown,709,,,13,2471,,Active,,,http://www.redfin.com/NY/New-York/252-South-St-10002/home/147153836,REBNY,EXTE107068,N,Y,40.709943,-73.991212
MLS Listing,,Condo/Co-op,923 Fifth Ave Unit MEDICAL,New York,NY,10021,1760000,0,,Upper East Side,1100,,1950,14,1600,,Active,,,http://www.redfin.com/NY/New-York/923-5th-Ave-10021/home/115443979,REBNY,HALS20001047,N,Y,40.7731734,-73.9660257
MLS Listing,,Condo/Co-op,395 Broadway Unit 12C,New York,NY,10013,1998000,2,2,Tribeca,1266,,1899,18,1578,,Active,,,http://www.redfin.com/NY/New-York/395-Broadway-10013/home/45238240,REBNY,SOTH2862483,N,Y,40.7186447,-74.0027967
MLS Listing,,Condo/Co-op,20 Pine St #1602,New York,NY,10005,1799000,2,2,Lower Manhattan,1277,,1928,18,1409,,Active,,,http://www.redfin.com/NY/New-York/20-Pine-St-10005/home/146522863,REBNY,DEGI4056183,N,Y,40.7075665,-74.0096766
MLS Listing,,Condo/Co-op,425 E 58th St Unit 19G,New York,NY,10022,1795000,2,2.5,Upper East Side,1800,,1975,18,997,,Active,,,http://www.redfin.com/NY/New-York/425-E-58th-St-10022/home/170163605,REBNY,DEGI4048634,N,Y,40.7586967,-73.9609292
MLS Listing,,Condo/Co-op,117 E 57th St Unit 33H,New York,NY,10022,1995000,2,2,Middle East Side,1208,,,18,1651,,Active,,,http://www.redfin.com/NY/New-York/117-E-57th-St-10022/home/45278165,REBNY,BHSR19979746,N,Y,40.7614678,-73.9698441
MLS Listing,,Condo/Co-op,1095 Park Ave Unit 14A,New York,NY,10128,1850000,2,2,Upper East Side,1564,,1930,22,1183,,Active,,,http://www.redfin.com/NY/New-York/1095-Park-Ave-10128/home/45327124,REBNY,DGNR105789,N,Y,40.7817564,-73.9554301
MLS Listing,,Condo/Co-op,46-30 Center Blvd #1208,Queens,NY,11109,1848000,2,2,Queens,1196,,2008,27,1545,,Active,,,http://www.redfin.com/NY/Long-Island-City/4630-Center-Blvd-11109/unit-1208/home/28684737,HGMLS,5127353,N,Y,40.7466195,-73.9569605
MLS Listing,,Condo/Co-op,15 W 61st St Unit 3K,New York,NY,10023,1800000,1,1,Upper West Side,804,,,28,2239,,Active,,,http://www.redfin.com/NY/New-York/15-W-61st-St-10023/home/170116177,REBNY,CORC5950090,N,Y,40.7702499,-73.9827768
MLS Listing,,Condo/Co-op,303 E 49th St #16,New York,NY,10022,1850000,2,2,Middle East Side,1250,,1982,28,1480,,Active,,,http://www.redfin.com/NY/New-York/303-E-49th-St-10017/home/114485313,REBNY,UCOM1366234,N,Y,40.7541496,-73.9684026
MLS Listing,,Condo/Co-op,250 W 24th St Unit 1GW,New York,NY,10011,1800000,2,2,Chelsea,1250,,1940,28,1440,,Active,,,http://www.redfin.com/NY/New-York/250-W-24th-St-10011/home/53322881,REBNY,DGNR154857,N,Y,40.7452464,-73.9966775
MLS Listing,,Condo/Co-op,46 -30 Center Blvd #1208,Queens,NY,11109,1848000,2,2,Long Island City,1196,,2008,28,1545,,Active,,,http://www.redfin.com/NY/Long-Island-City/46-Center-Blvd-11109/home/170115308,REBNY,UCOM1862984,N,Y,40.7452203,-73.9575245
MLS Listing,,Condo/Co-op,322 W 57th St Unit 47S,New York,NY,10019,1995000,2,2,Middle West Side,1014,,1978,28,1967,,Active,,,http://www.redfin.com/NY/New-York/322-W-57th-St-10019/home/45223208,REBNY,UCOM1793169,N,Y,40.7670037,-73.9840606
MLS Listing,,Condo/Co-op,1 Grand Army Plz Unit 9D,Brooklyn,NY,11238,1850000,2,2,Prospect Heights,1137,,2008,28,1627,,Active,,,http://www.redfin.com/NY/Brooklyn/1-Grand-Army-Plz-11238/home/40675978,REBNY,UCOM406150,N,Y,40.6733584,-73.9684479
MLS Listing,,Condo/Co-op,200 Central Park S Unit 7C,New York,NY,10019,1875000,0,1,Middle West Side,650,,1964,28,2885,,Active,,,http://www.redfin.com/NY/New-York/200-Central-Park-S-10019/home/45148082,REBNY,UCOM139362,N,Y,40.7666871,-73.9795594
MLS Listing,,Condo/Co-op,11 Hoyt St Unit 19E,Brooklyn,NY,11201,1845000,2,2,Downtown Brooklyn,1320,,,31,1398,,Active,January-15-2020 12:00 PM,January-15-2020 03:00 PM,http://www.redfin.com/NY/Brooklyn/11-Hoyt-St-11201/home/170101847,REBNY,CORC5950039,N,Y,40.6899456,-73.9850466
MLS Listing,,Condo/Co-op,30 E 29th St Unit 14B,New York,NY,10016,1785000,2,1.5,Middle East Side,929,,2020,33,1921,,Active,,,http://www.redfin.com/NY/New-York/30-E-29th-St-10016/home/170061710,REBNY,CORE2823093,N,Y,40.7442132,-73.9847706
MLS Listing,,Condo/Co-op,1 Central Park W #408,New York,NY,10023,1895000,1,1.5,Upper West Side,1016,,1971,33,1865,,Active,,,http://www.redfin.com/NY/New-York/1-Central-Park-W-10023/home/115234854,REBNY,DEGI4047916,N,Y,40.7690255,-73.9816255
MLS Listing,,Condo/Co-op,650 Sixth Ave Unit 6A,New York,NY,10011,2000000,2,2,Flatiron,1280,,1892,35,1563,,Active,,,http://www.redfin.com/NY/New-York/650-6th-Ave-10011/home/45222256,REBNY,CHRS2822910,N,Y,40.7407484,-73.9939939
MLS Listing,,Condo/Co-op,24-12 42nd Rd,Long Island City,NY,11101,1890000,2,2,Arcadia Lic,1226,,2017,36,1542,851,Active,January-19-2020 12:00 PM,January-19-2020 01:30 PM,http://www.redfin.com/NY/Long-Island-City/24-12-42nd-Rd-11101/unit-6F/home/20956186,MLSLI,3184990,N,Y,40.7498668,-73.9417526
MLS Listing,,Condo/Co-op,200 E 94th St #1114,New York,NY,10128,1875000,2,2,Upper East Side,1065,,1987,38,1761,,Active,,,http://www.redfin.com/NY/New-York/200-E-94th-St-10128/home/108582825,REBNY,CORC5940101,N,Y,40.7833546,-73.9499982
MLS Listing,,Condo/Co-op,200 E 94th St #2415,New York,NY,10128,1825000,2,2,Upper East Side,1076,,1987,38,1696,,Active,,,http://www.redfin.com/NY/New-York/200-E-94th-St-10128/home/108581094,REBNY,CORC5888464,N,Y,40.7833546,-73.9499982
MLS Listing,,Condo/Co-op,30 Riverside Blvd Unit 27F,New York,NY,10069,1925000,1,1,Upper West Side,775,,2019,38,2484,,Active,,,http://www.redfin.com/NY/New-York/30-Riverside-Blvd-10069/home/145245766,REBNY,CORC5939427,N,Y,40.7734426,-73.9916656
MLS Listing,,Condo/Co-op,70 W Little St Unit 7N,New York,NY,10004,1799000,2,2,Battery Park City,1356,,2008,38,1327,,Active,,,http://www.redfin.com/NY/New-York/70-W-Little-St-10004/home/45217779,REBNY,CORC5943806,N,Y,40.7070007,-74.0167564
MLS Listing,,Condo/Co-op,543 W 122nd St Unit 16C,New York,NY,10027,1990000,2,2,Morningside Heights,1243,,2019,39,1601,,Active,,,http://www.redfin.com/NY/New-York/543-W-122nd-St-10027/home/170016049,REBNY,HALS19358126,N,Y,40.8114727,-73.9602154
MLS Listing,,Condo/Co-op,310 W 52nd St Unit 31J,New York,NY,10019,1850000,2,1.5,Middle West Side,919,,2007,40,2013,,Active,,,http://www.redfin.com/NY/New-York/310-W-52nd-St-10019/home/45191465,REBNY,UCOM251565,N,Y,40.7635957,-73.9859404
MLS Listing,,Condo/Co-op,875 Fifth Ave Unit 7E,New York,NY,10065,1995000,2,3,Upper East Side,,,1941,41,,,Active,,,http://www.redfin.com/NY/New-York/875-5th-Ave-10065/home/170003023,REBNY,BHSR19833882,N,Y,40.7701916,-73.9682413
MLS Listing,,Condo/Co-op,450 W 17th St #2201,New York,NY,10011,1895000,1,1,Chelsea,779,,2008,41,2433,,Active,,,http://www.redfin.com/NY/New-York/450-W-17th-St-10011/home/45222115,REBNY,DEGI4039580,N,Y,40.7434891,-74.0063862
MLS Listing,,Condo/Co-op,1 Fifth Ave Unit 3J,New York,NY,10003,1800000,2,2,Greenwich Village,,,1927,42,,,Active,,,http://www.redfin.com/NY/New-York/1-5th-Ave-10003/home/148600932,REBNY,CORC5940822,N,Y,40.7318729,-73.9962943
MLS Listing,,Condo/Co-op,15 E 30th St Unit 33A,New York,NY,10016,1825000,1,1,Middle East Side,942,,,42,1937,,Active,,,http://www.redfin.com/NY/New-York/15-E-30th-St-10016/home/169997259,REBNY,DEGI3944998,N,Y,40.7456749,-73.9852366
MLS Listing,,Condo/Co-op,160 Central Park S Unit 1246/1250,New York,NY,10019,1775000,2,2,Middle West Side,1350,,1930,42,1315,,Active,,,http://www.redfin.com/NY/New-York/160-Central-Park-S-10019/home/45124700,REBNY,SOTH2821901,N,Y,40.7661784,-73.9785246
MLS Listing,,Condo/Co-op,305 W 16th St Unit 5K,New York,NY,10011,1789888,2,2,Chelsea,1004,,,42,1783,,Active,January-19-2020 01:30 PM,January-19-2020 02:30 PM,http://www.redfin.com/NY/New-York/305-W-16th-St-10011/home/45329869,REBNY,MIAM106331,N,Y,40.7414267,-74.001693
MLS Listing,,Condo/Co-op,99 Battery Pl Unit 14G,New York,NY,10280,1875000,2,2,Battery Park City,1202,,1991,47,1560,,Active,,,http://www.redfin.com/NY/New-York/99-Battery-Pl-10280/home/45236545,REBNY,DEGI4035181,N,Y,40.7076052,-74.0166314
MLS Listing,,Condo/Co-op,20 Pine St #1513,New York,NY,10005,1995000,2,2,Financial District,1585,,1928,47,1259,,Active,,,http://www.redfin.com/NY/New-York/20-Pine-St-10005/home/169969843,REBNY,AIBR1483360,N,Y,40.7075665,-74.0096766
MLS Listing,,Condo/Co-op,300 W 14th St #23,New York,NY,10014,2000000,2,1,West Village,,,1907,47,,,Active,,,http://www.redfin.com/NY/New-York/300-W-14th-St-10014/home/169969841,REBNY,RUTE1860786,N,Y,40.7397342,-74.0029971
MLS Listing,,Condo/Co-op,460 W 42nd St Unit 51F,New York,NY,10036,1849000,1,1,Middle West Side,699,,,48,2645,,Active,,,http://www.redfin.com/NY/New-York/460-W-42nd-St-10036/home/115519531,REBNY,KIAN532793,N,Y,40.7590905,-73.9948511
MLS Listing,,Condo/Co-op,75 Wall St Unit 29O,New York,NY,10005,1850000,2,2,Financial District,1411,,1987,49,1311,,Active,,,http://www.redfin.com/NY/New-York/75-Wall-St-10005/home/45219133,REBNY,CORC5934400,N,Y,40.7051691,-74.008024
MLS Listing,,Condo/Co-op,635 W 42nd St Unit 42K,New York,NY,10036,1999000,2,2,Middle West Side,1070,,2007,52,1868,,Active,,,http://www.redfin.com/NY/New-York/635-W-42nd-St-10036/home/45191642,REBNY,UCOM1860371,N,Y,40.7617008,-73.9996228
MLS Listing,,Condo/Co-op,1 Main St Unit 3C,Brooklyn,NY,11201,1825000,1,1.5,Dumbo,1191,,1915,52,1532,,Active,,,http://www.redfin.com/NY/Brooklyn/1-Main-St-11201/home/40681858,REBNY,SOTH2820770,N,Y,40.7036292,-73.9904097
MLS Listing,,Condo/Co-op,561 Pacific St #1002,Brooklyn,NY,11217,1925000,2,2,Boerum Hill,1158,,2019,52,1662,,Active,,,http://www.redfin.com/NY/Brooklyn/561-Pacific-St-11217/home/169921722,REBNY,HALS19357718,N,Y,40.6840869,-73.9791949
MLS Listing,,Condo/Co-op,10 E 70th St Unit 1C,New York,NY,10021,1995000,0,1,Upper East Side,1700,,1963,52,1174,,Active,,,http://www.redfin.com/NY/New-York/10-E-70th-St-10021/home/45325043,REBNY,CORC5928594,N,Y,40.7705461,-73.9670704
MLS Listing,,Condo/Co-op,4 W 16th St Unit 5A,New York,NY,10011,1895000,1,1,Chelsea,1300,,1902,53,1458,,Active,,,http://www.redfin.com/NY/New-York/4-W-16th-St-10011/home/45174850,REBNY,UCOM125871,N,Y,40.7374018,-73.9933561
MLS Listing,,Condo/Co-op,11 Riverside Dr Unit 11NW,New York,NY,10023,1795000,2,2,Upper West Side,1450,,1951,53,1238,,Active,,,http://www.redfin.com/NY/New-York/11-Riverside-Dr-10023/home/45318724,REBNY,DEGI4011292,N,Y,40.7814737,-73.9847935
MLS Listing,,Condo/Co-op,135 E 54th St Unit 15K,New York,NY,10022,1895000,2,2,Middle East Side,1198,,1951,53,1582,,Active,,,http://www.redfin.com/NY/New-York/135-E-54th-St-10022/home/45277994,REBNY,UCOM140362,N,Y,40.7592574,-73.970743
MLS Listing,,Condo/Co-op,415 E 37th St Unit 23L,New York,NY,10016,1799500,2,2,Murray Hill Kips Bay,1525,,1987,53,1180,,Active,,,http://www.redfin.com/NY/New-York/415-E-37th-St-10016/home/45258735,REBNY,LLGI1432393,N,Y,40.7458267,-73.9712829
MLS Listing,,Condo/Co-op,101 W 12th St Unit 3G,New York,NY,10011,1795000,2,2,Central Village,,,1963,53,,,Active,,,http://www.redfin.com/NY/New-York/101-W-12th-St-10011/home/56315405,REBNY,DEGI4022566,N,Y,40.7364731,-73.9978323
MLS Listing,,Condo/Co-op,505 Greenwich St Unit 14F,New York,NY,10013,1790000,1,1,Soho,812,,,54,2204,,Active,,,http://www.redfin.com/NY/New-York/505-Greenwich-St-10013/home/45134470,REBNY,BOND1608246,N,Y,40.7255377,-74.0089421
MLS Listing,,Condo/Co-op,250 E 54th St Unit 20A,New York,NY,10022,1795000,2,2,Middle East Side,1300,,1991,54,1381,,Active,,,http://www.redfin.com/NY/New-York/250-E-54th-St-10022/home/45279757,REBNY,CORC5936116,N,Y,40.7573869,-73.9671432
MLS Listing,,Condo/Co-op,505 W 43rd St Unit 3G,New York,NY,10036,1995000,2,2,Middle West Side,1180,,2019,54,1691,,Active,,,http://www.redfin.com/NY/New-York/505-W-43rd-St-10036/home/169905448,REBNY,REUV1859923,N,Y,40.7606309,-73.9955084
MLS Listing,,Condo/Co-op,47 E 87th St Unit 9B,New York,NY,10128,1800000,1,1,Upper East Side,1014,,1947,54,1775,,Active,,,http://www.redfin.com/NY/New-York/47-E-87th-St-10128/home/52656308,REBNY,CTRE2819893,N,Y,40.7815646,-73.9579122
MLS Listing,,Condo/Co-op,150 W 56th St #6003,New York,NY,10019,1950000,2,2,Middle West Side,1061,,1987,54,1838,,Active,,,http://www.redfin.com/NY/New-York/150-156-W-56th-St-10019/home/45260409,REBNY,CORC5938581,N,Y,40.7642467,-73.9797507
MLS Listing,,Condo/Co-op,254 W 10th St Unit 2B,New York,NY,10014,1975000,2,2.5,West Village,1243,,1988,54,1589,,Active,,,http://www.redfin.com/NY/New-York/254-W-10th-St-10014/home/147301431,REBNY,DEGI4023351,N,Y,40.7336193,-74.0065346
MLS Listing,,Condo/Co-op,55 W 76th St,New York,NY,10023,1850000,2,2,Upper West Side,,,1889,55,,,Active,,,http://www.redfin.com/NY/New-York/55-W-76th-St-10023/home/45129115,REBNY,CHRS2815094,N,Y,40.7799995,-73.9765253
MLS Listing,,Condo/Co-op,301 W 53rd St Unit 12E,New York,NY,10019,1795000,2,2,Middle West Side,1040,,1979,55,1726,,Active,,,http://www.redfin.com/NY/New-York/301-W-53rd-St-10019/home/108580739,REBNY,DEGI4025822,N,Y,40.7644059,-73.9851972
MLS Listing,,Condo/Co-op,130 William St Unit 7E,New York,NY,10038,1985990,2,3,Financial District,1425,,2020,59,1394,,Active,,,http://www.redfin.com/NY/New-York/130-William-St-10038/home/169840345,REBNY,CORC5936775,N,Y,40.7091434,-74.0064461
MLS Listing,,Condo/Co-op,130 William St Unit 18D,New York,NY,10038,1950990,2,2,Financial District,1288,,2020,59,1515,,Active,,,http://www.redfin.com/NY/New-York/130-William-St-10038/home/169838265,REBNY,CORC5936761,N,Y,40.7091434,-74.0064461
MLS Listing,,Condo/Co-op,425 W 50th St Unit 15A,New York,NY,10019,1895000,1,1,Middle West Side,776,,1931,59,2442,,Active,,,http://www.redfin.com/NY/New-York/425-W-50th-St-10019/home/105884849,REBNY,ENGE2817866,N,Y,40.7641461,-73.9901764
MLS Listing,,Condo/Co-op,130 William St Unit 48B,New York,NY,10038,1750990,1,1,Financial District,812,,2020,60,2156,,Active,,,http://www.redfin.com/NY/New-York/130-William-St-10038/home/169829419,REBNY,CORC5936189,N,Y,40.7091434,-74.0064461
MLS Listing,,Condo/Co-op,535 E 86th St Unit 16F,New York,NY,10028,1950000,2,2.5,Upper East Side,,,1961,60,,,Active,,,http://www.redfin.com/NY/New-York/535-E-86th-St-10028/home/45327343,REBNY,BHSR19957074,N,Y,40.775539,-73.945322
MLS Listing,,Condo/Co-op,108 Leonard St Unit 4K,New York,NY,10013,1825000,1,1.5,Tribeca,944,,1928,63,1933,,Active,,,http://www.redfin.com/NY/New-York/108-Leonard-St-10013/home/169777385,REBNY,DEGI3309316,N,Y,40.7163451,-74.0034377
MLS Listing,,Condo/Co-op,333 Rector Pl #1004,New York,NY,10280,1950000,2,2,Battery Park City,1299,,1985,63,1501,,Active,,,http://www.redfin.com/NY/New-York/333-Rector-Pl-10280/home/45330430,REBNY,CHRS2812525,N,Y,40.7096976,-74.0172469
MLS Listing,,Condo/Co-op,334 22nd St Unit 4B,Brooklyn,NY,11232,1750000,2,2,Greenwood,,,2019,66,,,Active,,,http://www.redfin.com/NY/Brooklyn/334-22nd-St-11215/home/169734469,REBNY,CORC5926177,N,Y,40.6584986,-73.9905899
MLS Listing,,Condo/Co-op,334 22nd St Unit 1A,Brooklyn,NY,11232,1750000,2,3,Greenwood,,,2019,66,,,Active,,,http://www.redfin.com/NY/Brooklyn/334-22nd-St-11215/home/169734456,REBNY,CORC5925631,N,Y,40.6584986,-73.9905899
MLS Listing,,Condo/Co-op,26 Beaver St Unit 16THFLOOR,New York,NY,10004,1800000,2,1,Financial District,,,1909,67,,,Active,,,http://www.redfin.com/NY/New-York/26-Beaver-St-10004/home/169731557,REBNY,BHSR19948166,N,Y,40.7047853,-74.0119949
MLS Listing,,Condo/Co-op,60 State St Unit 3B,Brooklyn,NY,11201,1995000,2,2,Brooklyn Heights,1333,,2002,67,1497,,Active,,,http://www.redfin.com/NY/Brooklyn/60-State-St-11201/home/40640489,REBNY,BHSR19947305,N,Y,40.691784,-73.9980039
MLS Listing,,Condo/Co-op,175 E 79th St Unit HEALTHCARE,New York,NY,10075,1825000,0,3,Upper East Side,1600,,1929,67,1141,,Active,,,http://www.redfin.com/NY/New-York/175-E-79th-St-10075/home/169731364,REBNY,CORC5932194,N,Y,40.7748456,-73.9579858
MLS Listing,,Condo/Co-op,130 William St Unit 22C,New York,NY,10038,1975990,2,2,Financial District,1037,,2020,67,1905,,Active,,,http://www.redfin.com/NY/New-York/130-William-St-10038/home/169731059,REBNY,CORC5932110,N,Y,40.7091434,-74.0064461
MLS Listing,,Condo/Co-op,10 Lenox Ave Unit 6E,New York,NY,10026,1750000,2,2,Harlem,1233,,2019,67,1419,,Active,,,http://www.redfin.com/NY/New-York/10-Malcolm-X-Blvd-10026/home/169730342,REBNY,HALS19473645,N,Y,40.7985277,-73.9517335
MLS Listing,,Condo/Co-op,25 Sutton Pl S Unit 16M,New York,NY,10022,1875000,2,2,Middle East Side,1500,,1959,68,1250,,Active,,,http://www.redfin.com/NY/New-York/25-Sutton-Pl-S-10022/home/45211165,REBNY,CORC5922055,N,Y,40.7566436,-73.960951
MLS Listing,,Condo/Co-op,411 W 21st St #1,New York,NY,10011,1750000,2,2,Chelsea,,,1852,68,,,Active,,,http://www.redfin.com/NY/New-York/411-W-21st-St-10011/home/53323081,REBNY,CHRS2812753,N,Y,40.7454579,-74.002471
MLS Listing,,Condo/Co-op,161 Madison Ave Unit FIRSTFLOOR,New York,NY,10016,1875000,0,2,Murray Hill Kips Bay,2000,,1900,68,938,,Active,,,http://www.redfin.com/NY/New-York/161-Madison-Ave-10016/home/45317501,REBNY,HALS19946838,N,Y,40.7467565,-73.9833532
MLS Listing,,Condo/Co-op,350 W 42nd St Unit 38G,New York,NY,10036,1925000,2,2,Middle West Side,1349,,2005,69,1427,,Active,,,http://www.redfin.com/NY/New-York/350-W-42nd-St-10036/home/45190895,REBNY,TRIP1856834,N,Y,40.7578531,-73.9923304
MLS Listing,,Condo/Co-op,540 W 49th St Unit 406N,New York,NY,10019,1800000,2,2,Middle West Side,1157,,2014,69,1556,,Active,,,http://www.redfin.com/NY/New-York/540-W-49th-St-10019/home/105884804,REBNY,RNRE1765,N,Y,40.7646491,-73.9941896
MLS Listing,,Condo/Co-op,17 Orchard St #4,New York,NY,10002,1750000,2,2,Lower East Side,1316,,1900,69,1330,,Active,January-15-2020 05:30 PM,January-15-2020 06:30 PM,http://www.redfin.com/NY/New-York/17-Orchard-St-10002/home/45339869,REBNY,UCOM630226,N,Y,40.7152839,-73.9919492
MLS Listing,,Condo/Co-op,20 Bayard St Unit 16B,Brooklyn,NY,11211,1795000,2,2,Brooklyn,1368,,2007,69,1312,,Active,,,http://www.redfin.com/NY/Brooklyn/20-Bayard-St-11211/unit-16B/home/40671597,HGMLS,5058769,N,Y,40.7186705,-73.951714
MLS Listing,,Condo/Co-op,200 Rector Pl Unit 39E,New York,NY,10280,1915000,2,2,Battery Park City,1225,,1987,70,1563,,Active,,,http://www.redfin.com/NY/New-York/200-Rector-Pl-10280/home/45125535,REBNY,DEGI2581409,N,Y,40.7087736,-74.0161964
MLS Listing,,Condo/Co-op,1136 Fifth Ave Unit 1D,New York,NY,10128,1995000,2,2,Upper East Side,,,1925,70,,,Active,,,http://www.redfin.com/NY/New-York/1136-5th-Ave-10128/home/146129294,REBNY,CORC5928007,N,Y,40.7869137,-73.9561648
MLS Listing,,Condo/Co-op,1 W 72nd St #81,New York,NY,10023,2000000,1,1,Upper West Side,,,1882,72,,,Active,,,http://www.redfin.com/NY/New-York/1-W-72nd-St-10023/home/169640493,REBNY,BHSR19941717,N,Y,40.7769944,-73.9760699
MLS Listing,,Condo/Co-op,15 Broad St #1112,New York,NY,10005,1900000,1,2,Financial District,1809,,1914,73,1050,,Active,,,http://www.redfin.com/NY/New-York/15-Broad-St-10005/home/45188436,REBNY,UCOM1177777,N,Y,40.7065317,-74.0105879
MLS Listing,,Condo/Co-op,46-30 Center Blvd #1502,New York,NY,11109,1798000,2,2,New York,1159,,2008,74,1551,,Active,,,http://www.redfin.com/NY/Long-Island-City/4630-Center-Blvd-11109/unit-1502/home/28684754,HGMLS,5094669,N,Y,40.7466195,-73.9569605
MLS Listing,,Condo/Co-op,561 11th St #1,Brooklyn,NY,11215,1999999,2,2.5,Park Slope,1641,,2009,75,1219,,Active,,,http://www.redfin.com/NY/Brooklyn/561-11th-St-11215/home/52047690,REBNY,UCOM737264,N,Y,40.664908,-73.9805236
MLS Listing,,Condo/Co-op,37 W 12th St Unit 2C,New York,NY,10011,1945000,2,2,Greenwich Village,1600,,1963,75,1216,,Active,,,http://www.redfin.com/NY/New-York/37-W-12th-St-10011/home/156832759,REBNY,UCOM1802147,N,Y,40.7354405,-73.9959959
MLS Listing,,Condo/Co-op,252 Seventh Ave Unit 8B,New York,NY,10001,1795000,1,1,Chelsea,1162,,1907,76,1545,,Active,,,http://www.redfin.com/NY/New-York/252-7th-Ave-10001/home/45314107,REBNY,CORC5926325,N,Y,40.7452249,-73.9950853
MLS Listing,,Condo/Co-op,464 W 44th St Unit 7C,New York,NY,10036,1895000,2,2,Middle West Side,1261,,2007,76,1503,,Active,,,http://www.redfin.com/NY/New-York/464-W-44th-St-10036/home/45206271,REBNY,HALS19857178,N,Y,40.7606792,-73.9941959
MLS Listing,,Condo/Co-op,252 Seventh Ave Unit 7T,New York,NY,10001,1895000,2,2,Chelsea,1140,,1908,77,1662,,Active,,,http://www.redfin.com/NY/New-York/252-7th-Ave-10001/home/45314098,REBNY,BHSR19934190,N,Y,40.7452249,-73.9950853
MLS Listing,,Condo/Co-op,15 Broad St #802,New York,NY,10005,1995000,1,2,Financial District,1785,,1914,77,1118,,Active,,,http://www.redfin.com/NY/New-York/15-Broad-St-10005/home/45188176,REBNY,UCOM408623,N,Y,40.7065317,-74.0105879
MLS Listing,,Condo/Co-op,28 Old Fulton St Unit THD,Brooklyn,NY,11201,1800000,2,2,Brooklyn Heights,2100,,,77,857,,Active,,,http://www.redfin.com/NY/Unknown/28-Old-Fulton-St-11201/home/114723317,REBNY,DEGI4003204,N,Y,40.702334,-73.9937463
MLS Listing,,Condo/Co-op,200 E 69th St Unit 5TU,New York,NY,10021,1985000,2,2.5,Upper East Side,1046,,1991,78,1898,,Active,,,http://www.redfin.com/NY/New-York/200-E-69th-St-10021/home/45286658,REBNY,DEGI4000623,N,Y,40.7672886,-73.9617616
MLS Listing,,Condo/Co-op,422 E 72nd St Unit 21C,New York,NY,10021,1750000,2,2,Upper East Side,1200,,1990,80,1458,,Active,,,http://www.redfin.com/NY/New-York/422-E-72nd-St-10021/home/45289267,REBNY,DEGI4004729,N,Y,40.7669153,-73.9549414
MLS Listing,,Condo/Co-op,425 E 58th St Unit 26B,New York,NY,10022,1950000,2,2.5,Upper East Side,1800,,1974,81,1083,,Active,,,http://www.redfin.com/NY/New-York/425-E-58th-St-10022/home/45326002,REBNY,SOTH2796750,N,Y,40.7586967,-73.9609292
MLS Listing,,Condo/Co-op,108 E 82nd St Unit 4D,New York,NY,10028,1900000,2,2,Upper East Side,,,1916,81,,,Active,,,http://www.redfin.com/NY/New-York/108-E-82nd-St-10028/home/45160972,REBNY,CORC5923426,N,Y,40.7771029,-73.958532
MLS Listing,,Condo/Co-op,28 W 74th St Unit 3C/4C,New York,NY,10023,1975000,2,2.5,Upper West Side,,,1902,81,,,Active,,,http://www.redfin.com/NY/New-York/28-W-74th-St-10023/home/169549385,REBNY,BHSR19896193,N,Y,40.7780072,-73.9765635
MLS Listing,,Condo/Co-op,70 W Little St Unit 32F,New York,NY,10004,1895000,2,2,Battery Park City,1356,,2008,81,1397,,Active,,,http://www.redfin.com/NY/New-York/70-W-Little-St-10004/home/45218051,REBNY,CORC5894678,N,Y,40.7070007,-74.0167564
MLS Listing,,Condo/Co-op,444 W 19th St #405,New York,NY,10011,1995000,2,2,Chelsea,1123,,2004,82,1776,,Active,,,http://www.redfin.com/NY/New-York/444-W-19th-St-10011/home/45189614,REBNY,DEGI4002185,N,Y,40.7446209,-74.0050615
MLS Listing,,Condo/Co-op,225 W 83rd St Unit 8Z,New York,NY,10024,1750000,1,1,Upper West Side,742,,1986,83,2358,,Active,,,http://www.redfin.com/NY/New-York/225-W-83rd-St-10024/home/45274134,REBNY,UCOM722613,N,Y,40.7863054,-73.9772583
MLS Listing,,Condo/Co-op,305 W 86th St Unit 11C,New York,NY,10024,1750000,2,2,Upper West Side,1450,,1926,83,1207,,Active,,,http://www.redfin.com/NY/New-York/305-W-86th-St-10024/home/45152572,REBNY,CORC5900589,N,Y,40.78932,-73.9782509
MLS Listing,,Condo/Co-op,160 Central Park S #3008,New York,NY,10019,1950000,1,1,Middle West Side,800,,1930,83,2438,,Active,,,http://www.redfin.com/NY/New-York/160-Central-Park-S-10019/home/45128079,REBNY,ASHW2806279,N,Y,40.7661784,-73.9785246
MLS Listing,,Condo/Co-op,277 Fifth Ave Unit 20C,New York,NY,10016,1965000,1,1,Middle East Side,828,,2018,83,2373,,Active,,,http://www.redfin.com/NY/New-York/277-5th-Ave-10016/home/169515739,REBNY,CORC5922214,N,Y,40.7456151,-73.9863506
MLS Listing,,Condo/Co-op,25 Charles St Unit 2B,New York,NY,10014,1795000,2,1,West Village,,,1908,83,,,Active,,,http://www.redfin.com/NY/New-York/25-Charles-St-10014/home/102005503,REBNY,DEGI4000350,N,Y,40.7352228,-74.0022566
MLS Listing,,Condo/Co-op,450 E 83rd St Unit 4K,New York,NY,10028,1849000,2,2,Upper East Side,1363,,2005,84,1357,,Active,,,http://www.redfin.com/NY/New-York/450-E-83rd-St-10028/home/45137963,REBNY,UCOM304800,N,Y,40.7739859,-73.9489945
MLS Listing,,Condo/Co-op,161 W 61st St Unit 34C,New York,NY,10023,1995000,2,2,Upper West Side,1209,,1988,85,1650,,Active,,,http://www.redfin.com/NY/New-York/161-W-61st-St-10023/home/45267506,REBNY,BHSR19923144,N,Y,40.7715383,-73.9858725
MLS Listing,,Condo/Co-op,114 E 13th St Unit 2B,New York,NY,10003,1750000,2,1,East Village,1223,,1906,88,1431,,Active,,,http://www.redfin.com/NY/New-York/114-E-13th-St-10003/home/45243734,REBNY,BHSR19910629,N,Y,40.7330327,-73.9891825
MLS Listing,,Condo/Co-op,100 W 39th St Unit PHF,New York,NY,10018,1990000,2,2,Middle West Side,1055,,2006,88,1886,,Active,,,http://www.redfin.com/NY/New-York/100-W-39th-St-10018/home/169451207,REBNY,DEGI3995944,N,Y,40.7528622,-73.9859626
MLS Listing,,Condo/Co-op,123 Washington St Unit 51D,New York,NY,10006,1845000,2,2,Financial District,1023,,2007,88,1804,,Active,,,http://www.redfin.com/NY/New-York/123-Washington-St-10006/home/45330874,REBNY,BHSR19891345,N,Y,40.7092191,-74.0137534
MLS Listing,,Condo/Co-op,110 Charlton St Unit 12F,New York,NY,10014,1755000,1,2,Soho,995,,,88,1764,,Active,,,http://www.redfin.com/NY/New-York/110-Charlton-St-10014/home/169449752,REBNY,CORC5919723,N,Y,40.7273343,-74.0084739
MLS Listing,,Condo/Co-op,315 W 36th St Unit 12A,New York,NY,10018,1895000,2,2.5,Chelsea,1362,,1926,89,1391,,Active,January-13-2020 05:00 PM,January-13-2020 06:30 PM,http://www.redfin.com/NY/New-York/315-W-36th-St-10018/home/45125391,REBNY,SOTH2800281,N,Y,40.754045,-73.9933586
MLS Listing,,Condo/Co-op,10 Nevins St Unit 26C,Brooklyn,NY,11217,1750000,2,2,Downtown Brooklyn,1164,,2019,89,1503,,Active,January-14-2020 12:00 PM,January-14-2020 02:00 PM,http://www.redfin.com/NY/Brooklyn/10-Nevins-St-11217/home/169442088,REBNY,HALS19099395,N,Y,40.6885353,-73.9813632
MLS Listing,,Condo/Co-op,162 S Portland Ave #1,Brooklyn,NY,11217,1795000,2,1.5,Fort Greene,2100,,,89,855,,Active,,,http://www.redfin.com/NY/Unknown/162-S-Portland-Ave-11217/home/146129572,REBNY,DEGI3980203,N,Y,40.6844993,-73.9743137
MLS Listing,,Condo/Co-op,145 Sixth Ave Unit 5C,New York,NY,10013,2000000,1,1.5,Soho,1600,,1920,89,1250,,Active,,,http://www.redfin.com/NY/New-York/145-6th-Ave-10012/home/169437490,REBNY,SOTH2798324,N,Y,40.7251196,-74.0049023
MLS Listing,,Condo/Co-op,108 Leonard St Unit 10R,New York,NY,10013,1750000,1,1.5,Tribeca,851,,1928,90,2056,,Active,,,http://www.redfin.com/NY/New-York/108-Leonard-St-10013/home/145345893,REBNY,DEGI3482436,N,Y,40.7163888,-74.0032737
MLS Listing,,Condo/Co-op,108 Leonard St Unit 9J,New York,NY,10013,1755000,1,1.5,Tribeca,898,,1928,90,1954,,Active,,,http://www.redfin.com/NY/New-York/108-Leonard-St-10013/home/146523914,REBNY,DEGI3482433,N,Y,40.7163888,-74.0032737
MLS Listing,,Condo/Co-op,108 Leonard St Unit 7D,New York,NY,10013,1775000,1,1.5,Tribeca,888,,1928,90,1999,,Active,,,http://www.redfin.com/NY/New-York/108-Leonard-St-10013/home/169430762,REBNY,DEGI3332589,N,Y,40.7163451,-74.0034377
MLS Listing,,Condo/Co-op,30 West St Unit 30B,New York,NY,10004,1970000,2,3,Battery Park City,1404,,2006,90,1403,,Active,,,http://www.redfin.com/NY/New-York/30-W-Little-St-10004/home/45193517,REBNY,CORC5899124,N,Y,40.7063346,-74.0169647
MLS Listing,,Condo/Co-op,127 W 96th St Unit 1/2C,New York,NY,10025,1775000,2,2.5,Upper West Side,1700,,1927,91,1044,,Active,,,http://www.redfin.com/NY/New-York/127-W-96th-St-10025/home/45163897,REBNY,STRI1212021,N,Y,40.7937329,-73.9689989
MLS Listing,,Condo/Co-op,254 W 10th St Unit 2A,New York,NY,10014,1900000,2,2,West Village,950,,1988,94,2000,,Active,,,http://www.redfin.com/NY/New-York/254-W-10th-St-10014/home/169401711,REBNY,DEGI3988792,N,Y,40.7336193,-74.0065346
MLS Listing,,Condo/Co-op,50 W 9th St Unit 2A,New York,NY,10011,1985000,2,1,Greenwich Village,,,1883,95,,,Active,,,http://www.redfin.com/NY/New-York/50-W-9th-St-10011/home/45203518,REBNY,HALS19911517,N,Y,40.7336879,-73.9982985
MLS Listing,,Condo/Co-op,200 W 86th St Unit 11E,New York,NY,10024,1795000,2,2,Upper West Side,,,1932,95,,,Active,,,http://www.redfin.com/NY/New-York/200-W-86th-St-10024/home/102005130,REBNY,SOTH2798866,N,Y,40.7876659,-73.9757026
MLS Listing,,Condo/Co-op,200 Central Park S Unit 8H,New York,NY,10019,1800000,1,1.5,Middle West Side,,,1964,97,,,Active,,,http://www.redfin.com/NY/New-York/200-Central-Park-S-10019/home/168697858,REBNY,UCOM1844535,N,Y,40.7666871,-73.9795594
MLS Listing,,Condo/Co-op,91 Central Park W Unit 1B,New York,NY,10023,1875000,2,2,Upper West Side,1625,,1929,98,1154,,Active,,,http://www.redfin.com/NY/New-York/91-Central-Park-W-10023/home/146130436,REBNY,CORC5902191,N,Y,40.7745928,-73.977631
MLS Listing,,Condo/Co-op,46 -30 Center Blvd #1502,Queens,NY,11109,1798000,2,2,Long Island City,1159,,2008,98,1551,,Active,,,http://www.redfin.com/NY/Queens/46-30-Center-Blvd-11109/home/115486855,REBNY,UCOM1533426,N,Y,40.7449081,-73.9569225
MLS Listing,,Condo/Co-op,26 Beaver St,New York,NY,10004,1795000,2,2,Lower Manhattan,2419,,1909,98,742,,Active,,,http://www.redfin.com/NY/New-York/26-Beaver-St-10004/home/45234465,REBNY,DEGI3947510,N,Y,40.7047853,-74.0119949
MLS Listing,,Condo/Co-op,117 E 57th St Unit 39H,New York,NY,10022,1750000,1,1,Middle East Side,900,,1976,98,1944,,Active,,,http://www.redfin.com/NY/New-York/117-E-57th-St-10022/home/45278137,REBNY,SOTH2797125,N,Y,40.7614678,-73.9698441
MLS Listing,,Condo/Co-op,40 W 24th St Unit 5W,New York,NY,10011,1750000,2,1,Flatiron,1602,,1905,98,1092,,Active,,,http://www.redfin.com/NY/New-York/40-W-24th-St-10010/home/45145197,REBNY,DEGI3982676,N,Y,40.7430445,-73.9915328
MLS Listing,,Condo/Co-op,454 W 54th St Unit 5D,New York,NY,10019,1999999,2,2.5,Middle West Side,1367,,1923,99,1463,,Active,,,http://www.redfin.com/NY/New-York/454-W-54th-St-10019/home/169289549,REBNY,DEGI3981990,N,Y,40.7668859,-73.9896277
MLS Listing,,Condo/Co-op,323 E 52nd St #3,New York,NY,10022,1849000,2,2,Middle East Side,1185,,2017,101,1560,,Active,,,http://www.redfin.com/NY/New-York/323-E-52nd-St-10022/home/145245574,REBNY,ASHW2785287,N,Y,40.7558,-73.9664161
MLS Listing,,Condo/Co-op,77 Greenwich St Unit 26B,New York,NY,10006,1795000,1,1.5,Financial District,842,,2020,101,2132,,Active,,,http://www.redfin.com/NY/New-York/77-Greenwich-St-10006/home/169286422,REBNY,TMDI1852828,N,Y,40.7074175,-74.0135328
MLS Listing,,Condo/Co-op,695 First Ave Unit 30L,New York,NY,10016,1995000,1,2,Middle East Side,1048,,2019,101,1904,,Active,,,http://www.redfin.com/NY/New-York/695-1st-Ave-10016/home/160674516,REBNY,CORC5890707,N,Y,40.7473591,-73.9709181
MLS Listing,,Condo/Co-op,225 W 83rd St Unit 15E,New York,NY,10024,1950000,2,2,Upper West Side,1150,,1985,101,1696,,Active,,,http://www.redfin.com/NY/New-York/225-W-83rd-St-10024/home/45274827,REBNY,DEGI3979592,N,Y,40.7863054,-73.9772583
MLS Listing,,Condo/Co-op,300 Central Park W Unit 7D2,New York,NY,10024,1995000,2,2,Upper West Side,,,1930,102,,,Active,,,http://www.redfin.com/NY/New-York/300-Central-Park-W-10024/home/169274170,REBNY,UCOM1852708,N,Y,40.7882884,-73.9674607
MLS Listing,,Condo/Co-op,35 Sutton Pl Unit PHA,New York,NY,10022,1950000,1,2.5,Middle East Side,,,1961,102,,,Active,January-15-2020 12:30 PM,January-15-2020 02:00 PM,http://www.redfin.com/NY/New-York/414-E-59th-St-10022/home/45156345,REBNY,ASHW1773278,N,Y,40.7590069,-73.9610917
MLS Listing,,Condo/Co-op,50 Bridge St #610,Brooklyn,NY,11201,1900000,2,2,Dumbo,1706,,1904,102,1114,,Active,,,http://www.redfin.com/NY/Brooklyn/50-Bridge-St-11201/home/40638849,REBNY,CORC5893922,N,Y,40.703348,-73.98524
MLS Listing,,Condo/Co-op,69 Fifth Ave Unit 14J,New York,NY,10003,1995000,2,2,Flatiron,,,1961,102,,,Active,,,http://www.redfin.com/NY/New-York/69-5th-Ave-10003/home/169266605,REBNY,ASHW1773376,N,Y,40.7360697,-73.9932183
MLS Listing,,Condo/Co-op,160 Chambers St Unit 3RD,New York,NY,10007,1750000,2,1,Tribeca,1500,,1892,102,1167,,Active,,,http://www.redfin.com/NY/New-York/160-Chambers-St-10007/home/45199286,REBNY,DEGI3978965,N,Y,40.7159669,-74.010573
MLS Listing,,Condo/Co-op,301 W 53rd St Unit 18E,New York,NY,10019,1975000,2,2,Middle West Side,1039,,1979,102,1901,,Active,,,http://www.redfin.com/NY/New-York/301-W-53rd-St-10019/home/108582392,REBNY,KWNY237139,N,Y,40.7644059,-73.9851972
MLS Listing,,Condo/Co-op,100 Riverside Blvd Unit 23A,New York,NY,10069,1795000,2,2,Upper West Side,1156,,2007,103,1553,,Active,,,http://www.redfin.com/NY/New-York/100-Riverside-Blvd-10069/home/45223789,REBNY,UCOM370927,N,Y,40.77577,-73.9895914
MLS Listing,,Condo/Co-op,353 Riverside Dr Unit 1B,New York,NY,10025,1975000,2,2,Upper West Side,,,1925,103,,,Active,,,http://www.redfin.com/NY/New-York/353-Riverside-Dr-10025/home/45164386,REBNY,HDAX1276,N,Y,40.8032164,-73.9691137
MLS Listing,,Condo/Co-op,25 Park Row Unit 12B,New York,NY,10038,1980000,1,1,Financial District,1001,,,103,1978,,Active,,,http://www.redfin.com/NY/New-York/25-Park-Row-10038/home/169256430,REBNY,CORC5663349,N,Y,40.7114529,-74.0074527
MLS Listing,,Condo/Co-op,5 Riverside Dr Unit 4C,New York,NY,10023,1775000,2,2,Upper West Side,,,1936,104,,,Active,,,http://www.redfin.com/NY/New-York/5-Riverside-Dr-10023/home/169252422,REBNY,CORC5883351,N,Y,40.7807768,-73.9851838
MLS Listing,,Condo/Co-op,1 Clinton St Unit 8D,Brooklyn,NY,11201,2000000,2,2,Brooklyn Heights,1198,,2020,104,1669,,Active,,,http://www.redfin.com/NY/Brooklyn/1-Clinton-St-11201/home/169251144,REBNY,CORC5895341,N,Y,40.6960415,-73.9913797
MLS Listing,,Condo/Co-op,400 W End Ave Unit 3C,New York,NY,10024,1995000,2,2,Upper West Side,,,1928,104,,,Active,,,http://www.redfin.com/NY/New-York/400-W-End-Ave-10024/home/63689185,REBNY,BHSR19888187,N,Y,40.7844489,-73.9807532
MLS Listing,,Condo/Co-op,101 W 87th St #207,New York,NY,10024,1990000,2,2,Upper West Side,1159,,1987,105,1717,,Active,,,http://www.redfin.com/NY/New-York/101-W-87th-St-10024/home/105859109,REBNY,UCOM1157444,N,Y,40.7875502,-73.9718248
MLS Listing,,Condo/Co-op,140 E 28th St Unit 10G,New York,NY,10016,1995000,2,2,Middle East Side,1203,,1931,106,1658,,Active,,,http://www.redfin.com/NY/New-York/140-E-28th-St-10016/home/45209893,REBNY,CORC5890539,N,Y,40.742142,-73.9818368
MLS Listing,,Condo/Co-op,1965 Broadway Unit 9D,New York,NY,10023,1949000,2,2,Upper West Side,1145,,1996,107,1702,,Active,,,http://www.redfin.com/NY/New-York/1965-Broadway-10023/home/45268000,REBNY,CORC5896082,N,Y,40.7744322,-73.9825307
MLS Listing,,Condo/Co-op,75 Greene Ave Unit 1B,Brooklyn,NY,11238,1895000,2,2.5,Fort Greene,1917,,1929,108,989,,Active,January-19-2020 01:00 PM,January-19-2020 03:00 PM,http://www.redfin.com/NY/Brooklyn/75-Greene-Ave-11238/home/169225214,REBNY,MNSM1851633,N,Y,40.6863652,-73.9698697
MLS Listing,,Condo/Co-op,171 W 71st St Unit 2C,New York,NY,10023,1925000,2,1.5,Upper West Side,,,1902,108,,,Active,,,http://www.redfin.com/NY/New-York/171-W-71st-St-10023/home/102005459,REBNY,DEGI3948182,N,Y,40.7779733,-73.9815764
MLS Listing,,Condo/Co-op,360 Furman St #404,Brooklyn,NY,11201,1995000,2,2,Brooklyn Heights,1562,,1928,108,1277,,Active,,,http://www.redfin.com/NY/Brooklyn/360-Furman-St-11201/home/40675041,REBNY,CORC5852239,N,Y,40.6935129,-74.000181
MLS Listing,,Condo/Co-op,200 E 21st St Unit 5E,New York,NY,10010,1900000,1,1.5,Gramercy Park,1030,,1920,108,1845,,Active,,,http://www.redfin.com/NY/New-York/200-E-21st-St-10010/home/145345652,REBNY,DEGI3971338,N,Y,40.737309,-73.9838126
MLS Listing,,Condo/Co-op,1485 Fifth Ave Unit 15G,New York,NY,10035,1999000,2,2,Harlem,1287,,2007,109,1553,,Active,,,http://www.redfin.com/NY/New-York/1485-5th-Ave-10035/home/45227589,REBNY,CORC5886582,N,Y,40.8027463,-73.944352
MLS Listing,,Condo/Co-op,1192 Park Ave Unit 10E,New York,NY,10128,1795000,2,2,Upper East Side,,,1926,109,,,Active,,,http://www.redfin.com/NY/New-York/1192-Park-Ave-10128/home/169211862,REBNY,BHSR19755174,N,Y,40.7853826,-73.9542132
MLS Listing,,Condo/Co-op,3 Sheridan Sq Unit 4H,New York,NY,10014,1750000,2,2,Greenwich Village,1179,,1965,109,1484,,Active,,,http://www.redfin.com/NY/New-York/3-Sheridan-Sq-10014/home/169208110,REBNY,UCOM1851277,N,Y,40.7329291,-74.0027905
MLS Listing,,Condo/Co-op,140 Charles St Unit 18A,New York,NY,10014,1950000,1,1,West Village,771,,1987,110,2529,,Active,,,http://www.redfin.com/NY/New-York/140-Charles-St-10014/home/169205950,REBNY,CHRS2770829,N,Y,40.7338968,-74.0079383
MLS Listing,,Condo/Co-op,425 W 53rd St #304,New York,NY,10019,1850000,2,2,Middle West Side,1462,,2010,110,1265,,Active,,,http://www.redfin.com/NY/New-York/425-W-53rd-St-10019/home/45332255,REBNY,BHSR19870174,N,Y,40.7660141,-73.9884279
MLS Listing,,Condo/Co-op,40 W 55th St Unit 8B,New York,NY,10019,1925000,2,2,Middle West Side,1354,,1924,110,1422,,Active,,,http://www.redfin.com/NY/New-York/40-W-55th-St-10019/home/45192121,REBNY,BHSR19862122,N,Y,40.7622732,-73.9767193
MLS Listing,,Condo/Co-op,117 E 57th St Unit 23B,New York,NY,10022,1995000,1,2,Middle East Side,1424,,1976,110,1401,,Active,,,http://www.redfin.com/NY/New-York/117-E-57th-St-10022/home/45278286,REBNY,SOTH2770618,N,Y,40.7614678,-73.9698441
MLS Listing,,Condo/Co-op,611 W 56th St Unit 5B,New York,NY,10019,1830000,1,1.5,Middle West Side,860,,2019,111,2128,,Active,,,http://www.redfin.com/NY/New-York/611-W-56th-St-10019/home/169198779,REBNY,UCOM1850824,N,Y,40.7698651,-73.9923494
MLS Listing,,Condo/Co-op,611 W 56th St Unit 4A,New York,NY,10019,1860000,1,1.5,Middle West Side,869,,2019,111,2140,,Active,,,http://www.redfin.com/NY/New-York/611-W-56th-St-10019/home/169198774,REBNY,UCOM1850823,N,Y,40.7698651,-73.9923494
MLS Listing,,Condo/Co-op,128 W 111th St #2,New York,NY,10026,1945000,2,2,West Harlem,1851,,2008,111,1051,,Active,,,http://www.redfin.com/NY/New-York/128-W-111th-St-10026/home/105885227,REBNY,UCOM567924,N,Y,40.7992205,-73.9535534
MLS Listing,,Condo/Co-op,15 W 61st St Unit 14C,New York,NY,10023,1885000,1,1,Upper West Side,749,,,111,2517,,Active,,,http://www.redfin.com/NY/New-York/15-W-61st-St-10023/home/169197050,REBNY,CORC5882641,N,Y,40.7702499,-73.9827768
MLS Listing,,Condo/Co-op,69 W 9th St Unit 11CDE,New York,NY,10011,1850000,2,3,Greenwich Village,1343,,1957,112,1378,,Active,,,http://www.redfin.com/NY/New-York/69-W-9th-St-10011/home/169195859,REBNY,CCRI1850613,N,Y,40.7343029,-73.9987276
MLS Listing,,Condo/Co-op,200 E 94th St #808,New York,NY,10128,1925000,2,2,Upper East Side,1237,,1987,112,1556,,Active,,,http://www.redfin.com/NY/New-York/200-E-94th-St-10128/home/108582305,REBNY,GARE19882694,N,Y,40.783431,-73.949713
MLS Listing,,Condo/Co-op,315 Seventh Ave Unit PHC,New York,NY,10001,1950000,1,1.5,Chelsea,986,,1926,112,1978,,Active,,,http://www.redfin.com/NY/New-York/408-Eighth-Ave-10001/home/45250423,REBNY,STRI1496419,N,Y,40.7498007,-73.9948128
MLS Listing,,Condo/Co-op,36 Sutton Pl S Unit 16C,New York,NY,10022,1900000,2,2,Middle East Side,,,1949,115,,,Active,,,http://www.redfin.com/NY/New-York/36-Sutton-Pl-S-10022/home/169143841,REBNY,RUTE1828380,N,Y,40.7563196,-73.9618588
MLS Listing,,Condo/Co-op,37 W 12th St Unit 8K,New York,NY,10011,1990000,2,1,Greenwich Village,1170,,1963,115,1701,,Active,,,http://www.redfin.com/NY/New-York/37-W-12th-St-10011/home/169141853,REBNY,UCOM1850300,N,Y,40.7354405,-73.9959959
MLS Listing,,Condo/Co-op,215 E 19th St Unit 5G,New York,NY,10003,1895000,0,1,Gramercy Park,682,,1920,116,2779,,Active,,,http://www.redfin.com/NY/New-York/215-E-19th-St-10003/home/147794793,REBNY,DEGI3960618,N,Y,40.736135,-73.9840399
MLS Listing,,Condo/Co-op,28 E 21st St Unit 2A,New York,NY,10010,1965000,2,2,Flatiron,,,1846,116,,,Active,,,http://www.redfin.com/NY/New-York/28-E-21st-St-10010/home/45145699,REBNY,ASHW2769358,N,Y,40.7393724,-73.9888954
MLS Listing,,Vacant Land,61 Thompson St,Staten Island,NY,10304,1875000,0,,Stapleton,,2500,,116,,,Active,,,http://www.redfin.com/NY/Staten-Island/61-Thompson-St-10304/home/56102936,SIBORMLS,1132366,N,Y,40.626118,-74.0761689
MLS Listing,,Condo/Co-op,2000 Broadway Unit 26D,New York,NY,10023,1995000,2,2,Upper West Side,1165,,,116,1712,,Active,,,http://www.redfin.com/NY/New-York/2000-Broadway-10023/home/45269554,REBNY,BHSR19874649,N,Y,40.7753589,-73.981396
MLS Listing,,Condo/Co-op,140 W 22nd St Unit 10C,New York,NY,10011,1750000,1,1,Chelsea,1115,,1911,116,1570,,Active,,,http://www.redfin.com/NY/New-York/140-W-22nd-St-10011/home/45221926,REBNY,DEGI3959343,N,Y,40.7427833,-73.9950623
MLS Listing,,Condo/Co-op,30 E 29th St Unit 19C,New York,NY,10016,1875000,1,1,Middle East Side,813,,2020,116,2306,,Active,,,http://www.redfin.com/NY/New-York/30-E-29th-St-10016/home/169114055,REBNY,CORE2768556,N,Y,40.7442132,-73.9847706
MLS Listing,,Condo/Co-op,299 W 12th St Unit 5K,New York,NY,10014,1950000,1,1,West Village,,,1929,117,,,Active,,,http://www.redfin.com/NY/New-York/299-W-12th-St-10014/home/45247250,REBNY,BHSR19870730,N,Y,40.7377431,-74.0052925
MLS Listing,,Condo/Co-op,130 William St Unit 37A,New York,NY,10038,1800990,1,1,Financial District,883,,2020,117,2040,,Active,,,http://www.redfin.com/NY/New-York/130-William-St-10038/home/169093447,REBNY,CORC5878420,N,Y,40.7091434,-74.0064461
MLS Listing,,Condo/Co-op,67 Livingston St #10,Brooklyn,NY,11201,1995000,2,2,Brooklyn Heights,1681,,,118,1187,,Active,,,http://www.redfin.com/NY/Unknown/67-Livingston-St-11201/home/146524610,REBNY,DEGI3956827,N,Y,40.6919321,-73.9919232
MLS Listing,,Condo/Co-op,75 Kenmare St Unit 2C,New York,NY,10012,1750000,1,1,Noho,689,,2017,118,2540,,Active,,,http://www.redfin.com/NY/New-York/75-Kenmare-St-10012/home/114485735,REBNY,DEGI3480712,N,Y,40.7212473,-73.9962167
MLS Listing,,Condo/Co-op,225 E 34th St Unit 17E,New York,NY,10016,1899000,2,2,Murray Hill Kips Bay,1438,,2007,119,1321,,Active,,,http://www.redfin.com/NY/New-York/225-E-34th-St-10016/home/45205965,REBNY,UCOM491596,N,Y,40.7453897,-73.976693
MLS Listing,,Condo/Co-op,135 W 52nd St Unit 16C,New York,NY,10019,1825000,1,2,Middle West Side,904,,2016,121,2019,,Active,,,http://www.redfin.com/NY/New-York/135-W-52nd-St-10019/home/108582574,REBNY,DEGI3953420,N,Y,40.7620004,-73.9809354
MLS Listing,,Condo/Co-op,452 W 19th St Unit D1,New York,NY,10011,1995000,2,2,Chelsea,1916,,,122,1041,,Active,,,http://www.redfin.com/NY/New-York/452-W-19th-St-10011/home/45189620,REBNY,DEGI3953294,N,Y,40.7448244,-74.005545
MLS Listing,,Condo/Co-op,44 Remsen St Unit 4/6,Brooklyn,NY,11201,1895000,2,2,Brooklyn Heights,,,,122,,,Active,,,http://www.redfin.com/NY/Brooklyn/44-Remsen-St-11201/home/40647114,REBNY,DEGI3918675,N,Y,40.694585,-73.9969376
MLS Listing,,Condo/Co-op,41 Fifth Ave Unit 6E,New York,NY,10003,1795000,2,2,Greenwich Village,,,1924,122,,,Active,,,http://www.redfin.com/NY/New-York/41-5th-Ave-10003/home/169050575,REBNY,CORC5885216,N,Y,40.7337881,-73.9948252
MLS Listing,,Condo/Co-op,645 W End Ave Unit 4F,New York,NY,10025,1899000,2,2,Upper West Side,1450,,1912,122,1310,,Active,,,http://www.redfin.com/NY/New-York/645-W-End-Ave-10025/home/45153170,REBNY,UCOM192388,N,Y,40.7926408,-73.9754271
MLS Listing,,Condo/Co-op,505 W End Ave Unit 14D,New York,NY,10024,1950000,2,2,Upper West Side,,,1922,123,,,Active,,,http://www.redfin.com/NY/New-York/505-W-End-Ave-10024/home/45153005,REBNY,DEGI3944875,N,Y,40.78784,-73.9791003
MLS Listing,,Condo/Co-op,300 E 40th St Unit 20CD,New York,NY,10016,1890000,2,2,Middle East Side,,,1967,124,,,Active,,,http://www.redfin.com/NY/New-York/300-E-40th-St-10016/home/45176136,REBNY,DEGI3939785,N,Y,40.7480655,-73.972862
MLS Listing,,Condo/Co-op,650 Park Ave Unit 3D,New York,NY,10065,1995000,2,2.5,Upper East Side,,,1963,124,,,Active,,,http://www.redfin.com/NY/New-York/650-Park-Ave-10065/home/168980177,REBNY,SOTH1773372,N,Y,40.767744,-73.9665962
MLS Listing,,Condo/Co-op,160 Central Park S #1834,New York,NY,10019,1920000,1,1.5,Middle West Side,1365,,1930,125,1407,,Active,,,http://www.redfin.com/NY/New-York/160-Central-Park-S-10019/home/45194877,REBNY,UCOM326347,N,Y,40.7661784,-73.9785246
MLS Listing,,Condo/Co-op,148 E 84th St Unit 1D,New York,NY,10028,1795000,2,2,Upper East Side,1710,,1930,125,1050,,Active,,,http://www.redfin.com/NY/New-York/148-E-84th-St-10028/home/45329051,REBNY,DEGI3947757,N,Y,40.7777721,-73.9561648
MLS Listing,,Condo/Co-op,527 W 27th St Unit 5B,New York,NY,10001,1985000,1,1,Chelsea,761,,,125,2608,,Active,,,http://www.redfin.com/NY/New-York/527-W-27th-St-10001/home/168964800,REBNY,DEGI2391549,N,Y,40.7511644,-74.0034332
MLS Listing,,Condo/Co-op,160 W 77th St Unit 7A,New York,NY,10024,1999000,2,2.5,Upper West Side,1650,,1925,125,1212,,Active,,,http://www.redfin.com/NY/New-York/160-W-77th-St-10024/home/168962722,REBNY,DEGI3947390,N,Y,40.7813716,-73.9786411
MLS Listing,,Condo/Co-op,200 E 89th St Unit 44A,New York,NY,10128,1795000,2,2,Upper East Side,1016,,1984,126,1767,,Active,,,http://www.redfin.com/NY/New-York/200-E-89th-St-10128/home/45293227,REBNY,UCOM36830,N,Y,40.7804832,-73.9524453
MLS Listing,,Condo/Co-op,360 Furman St #810,Brooklyn,NY,11201,1795000,2,2,Brooklyn Heights,1434,,1928,127,1252,,Active,,,http://www.redfin.com/NY/Brooklyn/360-Furman-St-11201/home/40674721,REBNY,CORC5875038,N,Y,40.6935129,-74.000181
MLS Listing,,Condo/Co-op,536 E 13th St #1,New York,NY,10009,2000000,2,2,East Village,2094,,2016,130,955,,Active,,,http://www.redfin.com/NY/New-York/536-E-13th-St-10009/home/109654865,REBNY,COLU15348719,N,Y,40.7288725,-73.9794262
MLS Listing,,Condo/Co-op,40 E 78th St Unit 15A,New York,NY,10075,1750000,1,1,Upper East Side,862,,1958,130,2030,,Active,,,http://www.redfin.com/NY/New-York/40-E-78th-St-10075/home/45283891,REBNY,CORC5863016,N,Y,40.7752654,-73.9624098
MLS Listing,,Condo/Co-op,11 E 29th St Unit 24C,New York,NY,10016,1899000,2,2,Middle East Side,1374,,2007,131,1382,,Active,,,http://www.redfin.com/NY/New-York/11-E-29th-St-10016/home/45205748,REBNY,UCOM1846706,N,Y,40.7449921,-73.985602
MLS Listing,,Condo/Co-op,315 W 23rd St Unit 12A,New York,NY,10011,1795000,2,1,Chelsea,1000,,1925,131,1795,,Active,,,http://www.redfin.com/NY/New-York/315-W-23rd-St-10011/home/45202476,REBNY,DEGI3939763,N,Y,40.7458303,-73.9991418
MLS Listing,,Condo/Co-op,40 E -50 10th St Unit 7K,New York,NY,10003,1895000,2,1.5,Greenwich Village,,,1929,131,,,Active,,,http://www.redfin.com/NY/New-York/101-E-10th-St-10003/home/168892600,REBNY,SOTH2762420,N,Y,40.7306461,-73.9886081
MLS Listing,,Condo/Co-op,135 W 52nd St Unit 15C,New York,NY,10019,1795000,1,2,Middle West Side,904,,2016,131,1986,,Active,,,http://www.redfin.com/NY/New-York/135-W-52nd-St-10019/home/108581121,REBNY,DEGI3939153,N,Y,40.7620004,-73.9809354
MLS Listing,,Condo/Co-op,550 Vanderbilt Ave #801,Brooklyn,NY,11238,2000000,2,2.5,Prospect Heights,1523,,2017,131,1313,,Active,,,http://www.redfin.com/NY/Brooklyn/550-Vanderbilt-Ave-11238/home/143610863,REBNY,SEEK1845642,N,Y,40.6807331,-73.9681386
MLS Listing,,Condo/Co-op,960 Fifth Ave Unit 1C,New York,NY,10075,1995000,2,1.5,Upper East Side,,,1927,132,,,Active,,,http://www.redfin.com/NY/New-York/960-5th-Ave-10075/home/143985183,REBNY,ASHW2399972,N,Y,40.7756936,-73.9641285
MLS Listing,,Condo/Co-op,112 W 18th St Unit 2C,New York,NY,10011,1795000,1,2,Chelsea,1300,,,134,1381,,Active,,,http://www.redfin.com/NY/New-York/112-W-18th-St-10011/home/146130323,REBNY,DWRE101854,N,Y,40.7400039,-73.9958467
MLS Listing,,Condo/Co-op,110 Charlton St Unit 18G,New York,NY,10014,1855000,1,1,Soho,890,,,136,2084,,Active,,,http://www.redfin.com/NY/New-York/110-Charlton-St-10014/home/168843105,REBNY,CORC5877156,N,Y,40.7273343,-74.0084739
MLS Listing,,Condo/Co-op,15 Broad St #1712,New York,NY,10005,1790000,1,2,Financial District,1809,,1914,140,989,,Active,,,http://www.redfin.com/NY/New-York/15-Broad-St-10005/home/45188587,REBNY,UCOM1845311,N,Y,40.7065317,-74.0105879
MLS Listing,,Condo/Co-op,385 First Ave Unit 20B,New York,NY,10010,1750000,2,2,Gramercy Park,998,,2002,142,1754,,Active,,,http://www.redfin.com/NY/New-York/385-1st-Ave-10010/home/144132123,REBNY,CORC5871731,N,Y,40.7366485,-73.9789518
MLS Listing,,Condo/Co-op,520 E 72nd St Unit 1718A,New York,NY,10021,1995000,2,2,Upper East Side,1500,,1964,143,1330,,Active,,,http://www.redfin.com/NY/New-York/520-E-72nd-St-10021/home/168723595,REBNY,CORC5837334,N,Y,40.7661227,-73.9527512
MLS Listing,,Condo/Co-op,60 E 8th St Unit 32N,New York,NY,10003,1800000,1,1,Greenwich Village,1000,,1967,144,1800,,Active,,,http://www.redfin.com/NY/New-York/60-E-8th-St-10003/home/45232063,REBNY,TRIP1843038,N,Y,40.7306031,-73.9930165
MLS Listing,,Condo/Co-op,465 Park Ave Unit 27BC,New York,NY,10022,1955000,2,2,Middle West Side,,,1926,145,,,Active,,,http://www.redfin.com/NY/New-York/465-Park-Ave-10022/home/168696052,REBNY,DEGI3917377,N,Y,40.7617486,-73.9703425
MLS Listing,,Condo/Co-op,425 E 58th St Unit 26C,New York,NY,10022,1795000,2,2.5,Upper East Side,1800,,1975,146,997,,Active,,,http://www.redfin.com/NY/New-York/425-E-58th-St-10022/home/105881624,REBNY,DEGI3904623,N,Y,40.7586967,-73.9609292
MLS Listing,,Condo/Co-op,860 United Nations Plz Unit 15B,New York,NY,10017,1900000,2,2,Middle East Side,,,1966,146,,,Active,,,http://www.redfin.com/NY/New-York/860-United-Nations-Plz-10017/home/53324155,REBNY,UCOM1157463,N,Y,40.7526338,-73.9658814
MLS Listing,,Condo/Co-op,222 Park Ave S Unit 10C,New York,NY,10003,1995000,2,2,Flatiron,,,1911,150,,,Active,,,http://www.redfin.com/NY/New-York/222-Park-Ave-S-10003/home/45325811,REBNY,UCOM847320,N,Y,40.7375166,-73.9889544
MLS Listing,,Condo/Co-op,223 W 80th St #1,New York,NY,10024,1895000,2,2.5,Upper West Side,1608,,2005,152,1178,,Active,,,http://www.redfin.com/NY/New-York/223-W-80th-St-10024/home/45192459,REBNY,DEGI3914290,N,Y,40.7845327,-73.9789122
MLS Listing,,Condo/Co-op,425 E 58th St Unit 25C,New York,NY,10022,1795000,2,2.5,Upper East Side,1800,,1975,155,997,,Active,,,http://www.redfin.com/NY/New-York/425-E-58th-St-10022/home/144319719,REBNY,DEGI3906305,N,Y,40.758438,-73.9609158
MLS Listing,,Condo/Co-op,35 Underhill Ave Unit A5G,Brooklyn,NY,11238,1800000,2,2,Prospect Heights,1457,,2005,157,1235,,Active,,,http://www.redfin.com/NY/BROOKLYN/35-UNDERHILL-AVE-11238/home/40668121,REBNY,CITI5850487,N,Y,40.679777,-73.964542
MLS Listing,,Condo/Co-op,860 Fifth Ave Unit 8E,New York,NY,10065,1895000,2,2,Upper East Side,,,1949,157,,,Active,,,http://www.redfin.com/NY/New-York/860-5th-Ave-10065/home/168625302,REBNY,UCOM1842380,N,Y,40.7694918,-73.9687464
MLS Listing,,Condo/Co-op,265 State St #1111,Brooklyn,NY,11201,1900000,2,2,Boerum Hill,1257,,2016,158,1512,,Active,,,http://www.redfin.com/NY/Brooklyn/265-State-St-11201/home/113655060,REBNY,STRI1483006,N,Y,40.6892122,-73.9882785
MLS Listing,,Condo/Co-op,234 E 23rd St Unit 4A,New York,NY,10010,1990000,2,2,Gramercy Park,1080,,2014,159,1843,,Active,,,http://www.redfin.com/NY/New-York/234-E-23rd-St-10010/home/108581703,REBNY,CITI5849050,N,Y,40.7380592,-73.9817859
MLS Listing,,Condo/Co-op,225 W 83rd St Unit 9L,New York,NY,10024,1825000,2,2,Upper West Side,1114,,1985,159,1638,,Active,,,http://www.redfin.com/NY/New-York/225-W-83rd-St-10024/home/45274179,REBNY,BHSR19705976,N,Y,40.7863054,-73.9772583
MLS Listing,,Condo/Co-op,161 W 15th St Unit 2A,New York,NY,10011,1995000,0,2,Chelsea,,,1919,164,,,Active,,,http://www.redfin.com/NY/New-York/161-W-15th-St-10011/home/45211436,REBNY,DEGI3900780,N,Y,40.7393379,-73.9987046
MLS Listing,,Condo/Co-op,115 Fourth Ave Unit 7E,New York,NY,10003,2000000,1,2,Greenwich Village,1236,,1909,165,1618,,Active,,,http://www.redfin.com/NY/New-York/115-4th-Ave-10003/home/45244450,REBNY,UCOM1587903,N,Y,40.7328931,-73.9897661
MLS Listing,,Condo/Co-op,1 Avenue B Unit PHE,New York,NY,10002,1750000,2,2,East Village,,,2005,166,,,Active,,,http://www.redfin.com/NY/New-York/310-E-Houston-St-10002/home/45204780,REBNY,CORC5841622,N,Y,40.7213743,-73.9829466
MLS Listing,,Condo/Co-op,300 E 23rd St Unit 6A,New York,NY,10010,1750000,2,2,Gramercy Park,1168,,2009,168,1498,,Active,,,http://www.redfin.com/NY/New-York/300-E-23rd-St-10010/home/45340047,REBNY,SEEK1840031,N,Y,40.7375213,-73.980868
MLS Listing,,Condo/Co-op,591 Third Ave Unit 3C,New York,NY,10016,1850000,2,2,Murray Hill Kips Bay,1111,,2018,174,1665,,Active,,,http://www.redfin.com/NY/New-York/591-3rd-Ave-10016/home/142394252,REBNY,UCOM1678233,N,Y,40.74848,-73.975698
MLS Listing,,Condo/Co-op,301 W 53rd St Unit 5A,New York,NY,10019,1795000,2,2,Middle West Side,1039,,1979,174,1728,,Active,,,http://www.redfin.com/NY/New-York/301-W-53rd-St-10019/home/109654349,REBNY,DEGI3883658,N,Y,40.7644059,-73.9851972
MLS Listing,,Condo/Co-op,75 E End Ave Unit 15F,New York,NY,10028,1750000,2,2,Upper East Side,,,1960,175,,,Active,,,http://www.redfin.com/NY/New-York/75-E-End-Ave-10028/home/45185932,REBNY,FOXR1423812,N,Y,40.7724422,-73.946223
MLS Listing,,Single Family Residential,1997 E 22nd St,Brooklyn,NY,11229,1800000,2,1,Brooklyn,1272,4000,1920,180,1415,,Active,,,http://www.redfin.com/NY/Brooklyn/1997-E-22nd-St-11229/home/40860296,MLSLI,3148205,N,Y,40.6026307,-73.9497819
MLS Listing,,Condo/Co-op,125 W 22nd St Unit 2B,New York,NY,10011,1995000,2,2.5,Chelsea,1572,,2007,180,1269,,Active,,,http://www.redfin.com/NY/New-York/125-W-22nd-St-10011/home/45205367,REBNY,TRIP1837825,N,Y,40.7428417,-73.9942169
MLS Listing,,Condo/Co-op,350 W 71st St Unit 3D,New York,NY,10023,1835000,2,2,Upper West Side,1012,,1920,180,1813,,Active,,,http://www.redfin.com/NY/New-York/350-W-71st-St-10023/home/146127653,REBNY,STRI1754485,N,Y,40.7797089,-73.986914
MLS Listing,,Condo/Co-op,350 W 71st St Unit 6A,New York,NY,10023,1920000,2,2,Upper West Side,1000,,1920,181,1920,,Active,,,http://www.redfin.com/NY/New-York/350-W-71st-St-10023/home/166902113,REBNY,STRI1827636,N,Y,40.7797089,-73.986914
MLS Listing,,Condo/Co-op,47 Walker St Unit 4B,New York,NY,10013,1895000,0,1,Tribeca,1370,,1918,181,1383,,Active,,,http://www.redfin.com/NY/New-York/47-Walker-St-10013/home/115783462,REBNY,STRI1616235,N,Y,40.71891,-74.0037316
MLS Listing,,Condo/Co-op,150 Rivington St Unit 3G,New York,NY,10002,1995000,2,2,Lower East Side,1029,,2016,181,1939,,Active,,,http://www.redfin.com/NY/New-York/150-Rivington-St-10002/home/147154203,REBNY,STRI1773196,N,Y,40.7193816,-73.9856457
MLS Listing,,Condo/Co-op,120 E 75th St Unit 5A,New York,NY,10021,1900000,2,2,Upper East Side,,,1923,181,,,Active,,,http://www.redfin.com/NY/New-York/120-E-75th-St-10021/home/45333922,REBNY,STRI913950,N,Y,40.7724635,-73.9615603
MLS Listing,,Condo/Co-op,755 W End Ave Unit 12C,New York,NY,10025,1885000,2,2.5,Upper West Side,,,1920,181,,,Active,,,http://www.redfin.com/NY/New-York/755-W-End-Ave-10025/home/45164123,REBNY,STRI27997,N,Y,40.7958402,-73.9731084
MLS Listing,,Condo/Co-op,236 W 26th St Unit 5SW,New York,NY,10001,1895000,2,1,Chelsea,,,1926,181,,,Active,,,http://www.redfin.com/NY/New-York/236-W-26th-St-10001/home/45144960,REBNY,STRI1829758,N,Y,40.7464981,-73.9960928
MLS Listing,,Condo/Co-op,252 W 30th St Unit 4B,New York,NY,10001,1995000,2,2,Chelsea,1800,,1927,181,1108,,Active,,,http://www.redfin.com/NY/New-York/252-W-30th-St-10001/home/45249986,REBNY,DEGI3865582,N,Y,40.7493068,-73.9948252
MLS Listing,,Condo/Co-op,60 E 55th St Unit 16A,New York,NY,10022,1850000,1,1,Middle West Side,900,,2006,184,2056,,Active,,,http://www.redfin.com/NY/New-York/60-E-55th-St-10022/home/45192246,REBNY,DEGI3869933,N,Y,40.7605481,-73.9727654
MLS Listing,,Condo/Co-op,635 W 42nd St Unit 32F,New York,NY,10036,1825000,2,2,Middle West Side,1050,,2007,186,1738,,Active,January-13-2020 10:00 AM,January-13-2020 06:45 PM,http://www.redfin.com/NY/New-York/635-W-42nd-St-10036/home/45191821,REBNY,R2RR19743926,N,Y,40.7617008,-73.9996228
MLS Listing,,Townhouse,3094 Richmond Rd,Staten Island,NY,10306,1750000,2,2,New Dorp,720,15000,1925,279,2431,,Active,,,http://www.redfin.com/NY/Staten-Island/3094-Richmond-Rd-10306/home/92333438,SIBORMLS,1127811,N,Y,40.575251,-74.124814
Local rules require that we limit downloads to 250 results from REBNY.,,,,,,,,,,,,,,,,,,,,,,,,,,
