SALE TYPE,SOLD DATE,PROPERTY TYPE,ADDRESS,CITY,STATE OR PROVINCE,ZIP OR POSTAL CODE,PRICE,BEDS,BATHS,LOCATION,SQUARE FEET,LOT SIZE,YEAR BUILT,DAYS ON MARKET,$/SQUARE FEET,HOA/MONTH,STATUS,NEXT OPEN HOUSE START TIME,NEXT OPEN HOUSE END TIME,URL (SEE http://www.redfin.com/buy-a-home/comparative-market-analysis FOR INFO ON PRICING),SOURCE,MLS#,FAVORITE,INTERESTED,LATITUDE,LONGITUDE
MLS Listing,,Condo/Co-op,61 E 86th St #64,New York,NY,10028,2000000,3,2,Upper East Side,,,1899,2,,,Active,,,http://www.redfin.com/NY/New-York/61-E-86th-St-10028/home/160756525,REBNY,SEEK1164975,N,Y,40.7807591,-73.9579098
MLS Listing,,Condo/Co-op,310 W 113th St #302,New York,NY,10026,1865000,3,2.5,West Harlem,1459,,2019,3,1278,,Active,,,http://www.redfin.com/NY/New-York/310-W-113th-St-10026/home/169770964,REBNY,UCOM1865283,N,Y,40.802638,-73.9575642
MLS Listing,,Multi-Family (2-4 Unit),378 Ralph Ave,Brooklyn,NY,11213,2000000,4,2.75,Brooklyn,4400,1770,1920,4,455,,Active,,,http://www.redfin.com/NY/Brooklyn/378-Ralph-Ave-11233/home/167135115,BNYMLS,435819,N,Y,40.6758979,-73.9221239
MLS Listing,,Condo/Co-op,230 Riverside Dr Unit 17D,New York,NY,10025,1999000,3,2,Upper West Side,,,1931,4,,,Active,,,http://www.redfin.com/NY/New-York/230-Riverside-Dr-10025/home/45195742,REBNY,CORC5951638,N,Y,40.7954592,-73.9753123
MLS Listing,,Condo/Co-op,325 Riverside Dr #42,New York,NY,10025,1750000,3,2,Upper West Side,,,1920,5,,,Active,,,http://www.redfin.com/NY/New-York/325-Riverside-Dr-10025/home/45164406,REBNY,CORC5957402,N,Y,40.8013016,-73.9705478
MLS Listing,,Single Family Residential,15 Chipperfield Ct,Staten Island,NY,10304,1999000,5,6,Todt Hill,4992,9984,2005,5,400,,Active,,,http://www.redfin.com/NY/Staten-Island/15-Chipperfield-Ct-10301/home/56109283,SIBORMLS,1134719,N,Y,40.6041346,-74.1090159
MLS Listing,,Multi-Family (2-4 Unit),230 Utica Ave,Brooklyn,NY,11213,2000000,4,2.5,Brooklyn,3135,1520,1928,6,638,,Active,,,http://www.redfin.com/NY/Brooklyn/230-Utica-Ave-11213/home/167135114,BNYMLS,435778,N,Y,40.6709234,-73.9311485
MLS Listing,,Single Family Residential,2348 Royce St,Brooklyn,NY,11234,1998000,5,3.5,Brooklyn,4860,6000,1999,7,411,,Active,,,http://www.redfin.com/NY/Brooklyn/2348-Royce-St-11234/home/40900451,BNYMLS,435718,N,Y,40.6173396,-73.9001348
MLS Listing,,Single Family Residential,701 Johnston Ter,Staten Island,NY,10309,1800000,3,5,Princes Bay,4000,8000,2015,7,450,,Active,,,http://www.redfin.com/NY/Staten-Island/701-Johnston-Ter-10309/home/77401555,SIBORMLS,1134618,N,Y,40.512958,-74.2048294
MLS Listing,,Multi-Family (2-4 Unit),63-06 138th St,Flushing,NY,11367,1860000,4,2.5,Flushing,,6000,1950,7,,,Active,,,http://www.redfin.com/NY/Flushing/63-06-138th-St-11367/home/20828824,MLSLI,3189526,N,Y,40.739765,-73.8284819
MLS Listing,,Multi-Family (2-4 Unit),405 E 2 St,Brooklyn,NY,11218,1799000,3,3,Brooklyn,2595,3250,,7,693,,Active,,,http://www.redfin.com/NY/Brooklyn/405-E-2nd-St-11218/home/40794063,BNYMLS,435685,N,Y,40.641456,-73.9777479
MLS Listing,,Condo/Co-op,613 E 11th St Unit TH3,New York,NY,10009,1870000,3,2,East Village,1261,,2001,10,1483,,Active,,,http://www.redfin.com/NY/New-York/613-E-11th-St-10009/home/170207530,REBNY,CHRS2863280,N,Y,40.7284375,-73.9817863
MLS Listing,,Multi-Family (2-4 Unit),90-39 Corona Ave,Elmhurst,NY,11373,1750000,5,2.5,Elmhurst,,1700,1931,11,,,Active,,,http://www.redfin.com/NY/Flushing/90-39-Corona-Ave-11373/home/170196413,MLSLI,3188832,N,Y,40.7422309,-73.874396
MLS Listing,,Condo/Co-op,133-47 Sanford Ave Unit 13C,Flushing,NY,11355,1888000,5,4,Sanford Tower,2656,,2001,11,711,1150,Active,,,http://www.redfin.com/NY/Flushing/13347-Sanford-Ave-11355/unit-13C/home/20668317,MLSLI,3188810,N,Y,40.7566562,-73.8295038
MLS Listing,,Condo/Co-op,402 E 74th St Unit 3E,New York,NY,10021,1895000,3,3,Upper East Side,,,1937,11,,,Active,,,http://www.redfin.com/NY/New-York/402-E-74th-St-10021/home/170194883,REBNY,UCOM1864085,N,Y,40.7686208,-73.9544906
MLS Listing,,Condo/Co-op,105 W 72nd St Unit 5A,New York,NY,10023,1850000,3,2,Upper West Side,1250,,1912,11,1480,,Active,,,http://www.redfin.com/NY/New-York/105-W-72nd-St-10023/home/45269847,REBNY,LUXE20004135,N,Y,40.7777946,-73.9791232
MLS Listing,,Single Family Residential,3212 Farragut Rd,Brooklyn,NY,11210,1999000,5,4,Brooklyn,2059,3500,1920,14,971,,Active,,,http://www.redfin.com/NY/Brooklyn/3212-Farragut-Rd-11210/home/40783868,BNYMLS,435573,N,Y,40.636188,-73.9456919
MLS Listing,,Condo/Co-op,2 Grace Ct Unit 3CD,Brooklyn,NY,11201,1800000,3,2,Brooklyn Heights,,,1923,18,,,Active,,,http://www.redfin.com/NY/Brooklyn/2-Grace-Ct-11201/home/170152260,REBNY,UCOM1863435,N,Y,40.6940503,-73.9979641
MLS Listing,,Multi-Family (2-4 Unit),629 45 St,Brooklyn,NY,11220,1998800,3,3,Brooklyn,2960,2003,1910,20,675,,Active,January-19-2020 11:00 AM,January-19-2020 01:00 PM,http://www.redfin.com/NY/Brooklyn/629-45th-St-11220/home/40691099,BNYMLS,435511,N,Y,40.6462359,-74.0042447
MLS Listing,,Single Family Residential,3135 Netherland Ave,Bronx,NY,10463,1800000,4,2.5,Spuyten Duyvil,,,,21,,,Active,,,http://www.redfin.com/NY/The-Bronx/3135-Netherland-Ave-10463/home/44752258,REBNY,BACH19997624,N,Y,40.883541,-73.912064
MLS Listing,,Multi-Family (2-4 Unit),772 53 St,Brooklyn,NY,11220,1798000,4,2,Brooklyn,,2003,1920,25,,,Active,,,http://www.redfin.com/NY/Brooklyn/772-53rd-St-11220/home/40694274,MLSLI,3186979,N,Y,40.639534,-74.006057
MLS Listing,,Multi-Family (2-4 Unit),25-64 34th St,Astoria,NY,11103,1900000,5,2,Astoria,,2910,1930,28,,,Active,,,http://www.redfin.com/NY/Long-Island-City/25-64-34th-St-11103/home/20957565,MLSLI,3186445,N,Y,40.768144,-73.917363
MLS Listing,,Condo/Co-op,11 Hoyt St Unit 16J,Brooklyn,NY,11201,1935000,3,2,Downtown Brooklyn,1369,,,31,1413,,Active,January-15-2020 12:00 PM,January-15-2020 03:00 PM,http://www.redfin.com/NY/Brooklyn/11-Hoyt-St-11201/home/170101829,REBNY,CORC5950081,N,Y,40.6899456,-73.9850466
MLS Listing,,Condo/Co-op,11 Hoyt St Unit 9F,Brooklyn,NY,11201,2000000,3,3,Downtown Brooklyn,1536,,,31,1302,,Active,January-15-2020 12:00 PM,January-15-2020 03:00 PM,http://www.redfin.com/NY/Brooklyn/11-Hoyt-St-11201/home/170101826,REBNY,CORC5950068,N,Y,40.6899456,-73.9850466
MLS Listing,,Condo/Co-op,330 E 57th St #5,New York,NY,10022,2000000,3,2.5,Middle East Side,1891,,2005,32,1058,,Active,,,http://www.redfin.com/NY/New-York/330-E-57th-St-10022/home/45207469,REBNY,DEGI4049001,N,Y,40.7585967,-73.9643403
MLS Listing,,Condo/Co-op,425 Main St Unit 16H,Roosevelt Island,NY,10044,1795000,3,2.5,Roosevelt Island,1398,,2007,35,1284,,Active,,,http://www.redfin.com/NY/New-York/425-Main-St-10044/home/45207450,REBNY,UPSR1862020,N,Y,40.7586628,-73.9530929
MLS Listing,,Condo/Co-op,6 E 76th St Unit 3RF,New York,NY,10021,1999000,3,2,Upper East Side,,,1896,38,,,Active,,,http://www.redfin.com/NY/New-York/6-E-76th-St-10021/home/170023611,REBNY,TRIP1861289,N,Y,40.7745873,-73.9646221
MLS Listing,,Single Family Residential,2102 Bath Ave,Brooklyn,NY,11214,1880000,3,3,Brooklyn,1900,1140,,38,989,,Active,,,http://www.redfin.com/NY/Brooklyn/2102-Bath-Ave-11214/home/160371446,BNYMLS,435197,N,Y,40.5997837,-73.99948
MLS Listing,,Townhouse,641 A Baltic St,Brooklyn,NY,11217,1800000,4,4,Brooklyn,,1408,1901,39,,,Active,,,http://www.redfin.com/NY/Brooklyn/641A-Baltic-St-11217/home/170015933,MLSLI,3184474,N,Y,40.680211,-73.979353
MLS Listing,,Multi-Family (2-4 Unit),2651 Mill Rd,Brooklyn,NY,11214,1899000,5,2.25,Brooklyn,1398,4250,1930,40,1358,,Active,,,http://www.redfin.com/NY/Brooklyn/2651-Mill-Rd-11214/home/40849475,BNYMLS,435164,N,Y,40.589659,-73.989581
MLS Listing,,Multi-Family (2-4 Unit),169 Franklin St,Brooklyn,NY,11222,1999000,3,2.5,Brooklyn,2058,1718,1901,41,971,,Active,,,http://www.redfin.com/NY/Brooklyn/169-Franklin-St-11222/home/40738809,BNYMLS,435126,N,Y,40.732307,-73.958295
MLS Listing,,Multi-Family (2-4 Unit),6814 20 Ave,Brooklyn,NY,11204,1988000,3,2.5,Brooklyn,3560,1600,,41,558,,Active,,,http://www.redfin.com/NY/Brooklyn/6814-20th-Ave-11204/home/166756587,BNYMLS,435118,N,Y,40.6146193,-73.9881681
MLS Listing,,Single Family Residential,91-03 169 St,Jamaica,NY,11432,1890000,5,,Jamaica,,5000,1920,41,,,Active,,,http://www.redfin.com/NY/Jamaica/91-03-169th-St-11432/home/20761538,MLSLI,3183930,N,Y,40.707628,-73.790839
MLS Listing,,Multi-Family (2-4 Unit),110 15th St,Brooklyn,NY,11215,1899000,5,3,Brooklyn,2394,2034,1899,41,793,,Active,,,http://www.redfin.com/NY/Brooklyn/110-15th-St-11215/home/40702069,BNYMLS,435106,N,Y,40.6672613,-73.9932298
MLS Listing,,Single Family Residential,2823 Avenue M,Brooklyn,NY,11210,1950000,5,3.75,Brooklyn,2154,3250,1930,42,905,,Active,,,http://www.redfin.com/NY/Brooklyn/2823-Avenue-M-11210/home/40872082,BNYMLS,435090,N,Y,40.619691,-73.946718
MLS Listing,,Single Family Residential,7616 Bay Pkwy,Brooklyn,NY,11214,1899000,5,4,Brooklyn,2400,3200,1993,42,791,,Active,,,http://www.redfin.com/NY/Brooklyn/7616-Bay-Pkwy-11214/home/40825878,BNYMLS,435079,N,Y,40.6073977,-73.9885354
MLS Listing,,Multi-Family (2-4 Unit),42-23 Judge St,Elmhurst,NY,11373,1750000,4,2,Elmhurst,2082,2500,1925,43,841,,Active,,,http://www.redfin.com/NY/Flushing/42-23-Judge-St-11373/home/20931291,MLSLI,3183458,N,Y,40.744445,-73.880219
MLS Listing,,Multi-Family (2-4 Unit),1025 86 St,Brooklyn,NY,11228,1998000,4,3.5,Brooklyn,3787,4000,1945,46,528,,Active,,,http://www.redfin.com/NY/Brooklyn/1025-86th-St-11228/home/40818470,BNYMLS,435044,N,Y,40.6178296,-74.0195693
MLS Listing,,Condo/Co-op,41 Eastern Pkwy Unit 4A,Brooklyn,NY,11238,1875000,3,2,Brooklyn,,,1926,53,,,Active,,,http://www.redfin.com/NY/Brooklyn/41-Eastern-Pkwy-11238/unit-4A/home/40649026,HGMLS,5121246,N,Y,40.6731627,-73.9670704
MLS Listing,,Condo/Co-op,600 W 111th St Unit 5C,New York,NY,10025,1999000,3,2,Morningside Heights,,,1925,53,,,Active,,,http://www.redfin.com/NY/New-York/600-W-111th-St-10025/home/168980262,REBNY,LLGI2766485,N,Y,40.8048821,-73.966726
MLS Listing,,Single Family Residential,193-26 Keno Ave,Holliswood,NY,11423,1780000,5,3.5,Holliswood,,9400,1950,56,,,Active,,,http://www.redfin.com/NY/Jamaica/193-26-Keno-Ave-11423/home/20754277,MLSLI,3181300,N,Y,40.720079,-73.770508
MLS Listing,,Single Family Residential,1449 Roosevelt & Shore Drive Ave,call Listing Agent,NY,10803,1970000,3,3,call Listing Agent,3000,26745,1960,57,657,,Active,,,http://www.redfin.com/NY/Pelham/1449-Roosevelt-Ave-10803/home/44654455,HGMLS,5120552,N,Y,40.883639,-73.794824
MLS Listing,,Multi-Family (2-4 Unit),773 E 183rd St,call Listing Agent,NY,10460,1800000,5,4,call Listing Agent,3402,,1931,59,529,,Active,,,http://www.redfin.com/NY/The-Bronx/773-E-183rd-St-10460/home/44804585,HGMLS,5120333,N,Y,40.8515399,-73.8831817
MLS Listing,,Multi-Family (2-4 Unit),46-39 Parsons Blvd,Flushing,NY,11354,1750000,4,4,Flushing,,5664,2008,60,,,Active,,,http://www.redfin.com/NY/Flushing/46-39-Parsons-Blvd-11355/home/20845605,MLSLI,3180463,N,Y,40.753202,-73.81254
MLS Listing,,Condo/Co-op,460 E 79th St Unit 17E,New York,NY,10075,1999000,3,3,Upper East Side,1442,,1960,61,1386,,Active,,,http://www.redfin.com/NY/New-York/460-E-79th-St-10075/home/45290022,REBNY,DIGS1859007,N,Y,40.7712538,-73.950858
MLS Listing,,Multi-Family (2-4 Unit),,Corona,NY,11368,1980000,5,5,Corona,,2500,2019,63,,,Active,,,http://www.redfin.com/NY/Corona/Undisclosed-address-11368/home/146241727,MLSLI,3179692,N,Y,40.750295,-73.856684
MLS Listing,,Townhouse,32-04 171st St,Flushing,NY,11358,1800000,5,3,Flushing,2160,8560,1930,67,833,,Active,,,http://www.redfin.com/NY/Flushing/32-04-171st-St-11358/home/20855755,MLSLI,3178958,N,Y,40.768445,-73.7946429
MLS Listing,,Multi-Family (2-4 Unit),201-02 32 Ave,Bayside,NY,11361,1880000,5,5,Bayside,,3800,2019,67,,,Active,,,http://www.redfin.com/NY/Flushing/201-02-32nd-Ave-11361/home/20588399,MLSLI,3178758,N,Y,40.769786,-73.788169
MLS Listing,,Multi-Family (2-4 Unit),45-60 162 St,Flushing,NY,11358,1950000,5,6,Flushing,,2000,2004,68,,,Active,,,http://www.redfin.com/NY/Flushing/45-60-162nd-St-11358/home/20845657,MLSLI,3178618,N,Y,40.7547293,-73.8049964
MLS Listing,,Condo/Co-op,163 E 81st St Unit 5A,New York,NY,10028,1885000,3,2.5,Upper East Side,,,1927,69,,,Active,,,http://www.redfin.com/NY/New-York/163-E-81st-St-10028/home/169653221,REBNY,SOTH2813182,N,Y,40.7760419,-73.9567859
MLS Listing,,Condo/Co-op,1399 Park Ave Unit 14D,New York,NY,10029,1995000,3,3,East Harlem,1633,,2018,69,1222,,Active,,,http://www.redfin.com/NY/New-York/1399-Park-Ave-10029/home/114729547,REBNY,CORC5929183,N,Y,40.7915069,-73.9486777
MLS Listing,,Condo/Co-op,1399 Park Ave Unit 9D,New York,NY,10029,1750000,3,3,East Harlem,,,2018,69,,,Active,,,http://www.redfin.com/NY/New-York/1399-Park-Ave-10029/home/130555943,REBNY,CORC5929181,N,Y,40.7915069,-73.9486777
MLS Listing,,Condo/Co-op,45 Oceana Dr E Ph 2A,Brooklyn,NY,11235,1779000,3,1.5,Brooklyn,2150,,2003,70,827,,Active,,,http://www.redfin.com/NY/Brooklyn/45-Oceana-Dr-E-11235/unit-2A/home/40643301,BNYMLS,434491,N,Y,40.5775549,-73.9577088
MLS Listing,,Condo/Co-op,333 E 68th St Unit 6C,New York,NY,10065,1950000,4,3,Upper East Side,,,1928,70,,,Active,January-18-2020 12:00 PM,January-18-2020 01:30 PM,http://www.redfin.com/NY/New-York/333-E-68th-St-10065/home/145283009,REBNY,BHSR19936527,N,Y,40.765956,-73.958884
MLS Listing,,Condo/Co-op,694 Degraw St #2,Brooklyn,NY,11217,1795000,3,2,Park Slope,1450,,1901,71,1238,,Active,,,http://www.redfin.com/NY/Brooklyn/694-Degraw-St-11217/home/40670003,REBNY,UCOM438966,N,Y,40.6779463,-73.9808969
MLS Listing,,Single Family Residential,41-58 Glenwood St,Little Neck,NY,11363,1975000,5,4,Little Neck,,3800,1960,72,,,Active,,,http://www.redfin.com/NY/Little-Neck/4158-Glenwood-St-11363/home/20798399,MLSLI,3177658,N,Y,40.773506,-73.736578
MLS Listing,,Condo/Co-op,251 W 89th St Unit 4A,New York,NY,10024,1950000,3,2.5,Upper West Side,,,1910,73,,,Active,,,http://www.redfin.com/NY/New-York/251-W-89th-St-10024/home/45274873,REBNY,BHSR19940107,N,Y,40.7905084,-73.9753466
MLS Listing,,Condo/Co-op,307 E 8th St Unit 5C6C,New York,NY,10009,1999000,3,2,East Village,1370,,1900,74,1459,,Active,January-19-2020 12:00 PM,January-19-2020 01:00 PM,http://www.redfin.com/NY/New-York/307-E-8th-St-10009/home/169626328,REBNY,ASHW2767097,N,Y,40.7256106,-73.9798624
MLS Listing,,Single Family Residential,104 Richmond Rd,Douglaston,NY,11363,1988000,5,3.5,Douglaston,2860,8000,1925,74,695,,Active,,,http://www.redfin.com/NY/Flushing/1-04-Richmond-Rd-11363/home/20802249,MLSLI,3177037,N,Y,40.779012,-73.752191
MLS Listing,,Condo/Co-op,185 18th St #511,Brooklyn,NY,11215,1750000,3,2,Greenwood,1295,,2019,75,1351,,Active,January-14-2020 02:00 PM,January-14-2020 04:00 PM,http://www.redfin.com/NY/Brooklyn/185-18th-St-11215/home/160295396,REBNY,HALS19936242,N,Y,40.6642688,-73.9932729
MLS Listing,,Condo/Co-op,336 Saint Marks Ave Unit PHA,Brooklyn,NY,11238,1799000,3,2,Prospect Heights,1268,,,76,1419,,Active,January-19-2020 01:00 PM,January-19-2020 02:30 PM,http://www.redfin.com/NY/Brooklyn/336-Saint-Marks-Ave-11238/home/169595227,REBNY,CORC5926314,N,Y,40.6774252,-73.9645679
MLS Listing,,Multi-Family (2-4 Unit),3274 Griswold Ave,Bronx,NY,10465,1950000,5,3,Bronx,2450,4700,1934,76,796,,Active,January-18-2020 12:00 PM,January-18-2020 02:00 PM,http://www.redfin.com/NY/The-Bronx/3274-Griswold-Ave-10465/home/44749863,HGMLS,5115692,N,Y,40.8446039,-73.817699
MLS Listing,,Single Family Residential,86-27 Avon St,Jamaica,NY,11432,1750000,3,2,Jamaica,,10560,1945,77,,,Active,,,http://www.redfin.com/NY/Jamaica/86-27-Avon-St-11432/home/20759656,MLSLI,3176015,N,Y,40.715374,-73.781227
MLS Listing,,Multi-Family (2-4 Unit),1323-1325 66 St,Brooklyn,NY,11219,1790000,5,2.5,Brooklyn,2140,4000,1915,78,836,,Active,,,http://www.redfin.com/NY/Brooklyn/1323-66th-St-11219/home/166917644,BNYMLS,434312,N,Y,40.6251559,-74.001322
MLS Listing,,Single Family Residential,417 Wales Ave,Bronx,NY,10455,1990000,4,2,Bronx,3306,4726,1920,80,602,,Active,,,http://www.redfin.com/NY/The-Bronx/417-Wales-Ave-10455/home/169566825,HGMLS,5113195,N,Y,40.8094079,-73.9086322
MLS Listing,,Condo/Co-op,1890 Adam Clayton Powell Unit 2B,New York,NY,10026,1875000,3,2,West Harlem,1909,,1920,82,982,,Active,,,http://www.redfin.com/NY/New-York/1890-Adam-Clayton-Powell-Jr-Blvd-10026/home/105855141,REBNY,HALS19908859,N,Y,40.8024601,-73.9534152
MLS Listing,,Single Family Residential,41 Richmond St,Brooklyn,NY,11208,1798000,4,2,Brooklyn,,7500,1920,83,,,Active,,,http://www.redfin.com/NY/Brooklyn/41-Richmond-St-11208/home/40762190,MLSLI,3174588,N,Y,40.6865625,-73.8773968
MLS Listing,,Multi-Family (2-4 Unit),181A Norman Ave,Brooklyn,NY,11222,1995000,4,3,Greenpoint,2592,1520,1930,85,770,,Active,,,http://www.redfin.com/NY/Brooklyn/181A-Norman-Ave-11222/home/169488046,MLSLI,3174095,N,Y,40.7271265,-73.9469799
MLS Listing,,Condo/Co-op,98 Front St Unit 5T,Brooklyn,NY,11201,1825000,3,2,Dumbo,,,2020,87,,,Active,January-13-2020 12:00 PM,January-13-2020 05:30 PM,http://www.redfin.com/NY/Brooklyn/98-Front-St-11201/home/169469856,REBNY,TPGR1855188,N,Y,40.701994,-73.9890574
MLS Listing,,Single Family Residential,172-08 67 Ave,Fresh Meadows,NY,11365,1850000,5,6,Fresh Meadows,3000,600,2015,87,617,,Active,,,http://www.redfin.com/NY/Fresh-Meadows/172-8-67th-Ave-11365/home/20820580,MLSLI,3173870,N,Y,40.734399,-73.797216
MLS Listing,,Condo/Co-op,48 Box St,Brooklyn,NY,11222,1995000,3,2,Green Point,1465,,2007,88,1362,,Active,,,http://www.redfin.com/NY/Brooklyn/48-Box-St-11222/home/59294708,REBNY,UCOM1148144,N,Y,40.7372112,-73.9547385
MLS Listing,,Condo/Co-op,129 E 82nd St Unit 6B,New York,NY,10028,1895000,3,2,Upper East Side,1379,,1916,90,1374,,Active,,,http://www.redfin.com/NY/New-York/129-E-82nd-St-10028/home/45184480,REBNY,CORC5902090,N,Y,40.7771228,-73.9576478
MLS Listing,,Condo/Co-op,300 W 109th St Unit 2JK,New York,NY,10025,1950000,3,2,Upper West Side,1700,,1904,90,1147,,Active,,,http://www.redfin.com/NY/New-York/300-W-109th-St-10025/home/105883754,REBNY,DEGI3988520,N,Y,40.8034437,-73.9672006
MLS Listing,,Multi-Family (2-4 Unit),25-33 21st St,Astoria,NY,11102,1799999,5,4.5,Astoria,,1736,2018,90,,,Active,,,http://www.redfin.com/NY/Long-Island-City/25-33-21st-St-11102/home/20945757,MLSLI,3172756,N,Y,40.773608,-73.924452
MLS Listing,,Single Family Residential,2182 We St,Brooklyn,NY,11223,1950000,3,2,Brooklyn,2100,2500,1945,94,929,,Active,,,http://www.redfin.com/NY/Brooklyn/2182-West-St-11223/home/40855036,BNYMLS,433972,N,Y,40.5952345,-73.9713294
MLS Listing,,Condo/Co-op,439 E 51st St Unit 5A,New York,NY,10022,1999900,3,3,Middle East Side,2200,,1925,95,909,,Active,,,http://www.redfin.com/NY/New-York/439-E-51st-St-10022/home/169391589,REBNY,ASHW2796721,N,Y,40.7540619,-73.9641139
MLS Listing,,Multi-Family (2-4 Unit),285A Kingsland Ave Unit Greenpoint,Brooklyn,NY,11222,1799000,3,3,Brooklyn,2376,1892,1901,95,757,,Active,,,http://www.redfin.com/NY/Brooklyn/285A-Kingsland-Ave-11222/unit-Greenpoint/home/169384427,MLSLI,3171655,N,Y,40.7264266,-73.9419298
MLS Listing,,Single Family Residential,70 Marshall Ave,Staten Island,NY,10314,1880000,4,4,Lower Todt Hill,4010,13000,1996,97,469,,Active,,,http://www.redfin.com/NY/Staten-Island/70-Marshall-Ave-10314/home/56075965,SIBORMLS,1132858,N,Y,40.6009766,-74.1169764
MLS Listing,,Condo/Co-op,161 12th St,Brooklyn,NY,11216,1989000,3,2,Gowanus,1644,,2019,97,1210,,Active,,,http://www.redfin.com/NY/Brooklyn/161-12th-St-11215/home/169115784,REBNY,HALS19907241,N,Y,40.6697038,-73.9922394
MLS Listing,,Condo/Co-op,205 E 63rd St Unit 2CD,New York,NY,10065,1995000,4,3,Upper East Side,2372,,1961,98,841,,Active,,,http://www.redfin.com/NY/New-York/205-E-63rd-St-10065/home/169291958,REBNY,UCOM1853228,N,Y,40.7640501,-73.964336
MLS Listing,,Single Family Residential,28-32 210 Pl,Bayside,NY,11360,1888000,4,3,Bay Terrace,3000,5950,2000,98,629,,Active,,,http://www.redfin.com/NY/Flushing/28-32-210th-Pl-11360/home/20668239,MLSLI,3170802,N,Y,40.774924,-73.779233
MLS Listing,,Condo/Co-op,541 8th St Unit 4R,Brooklyn,NY,11215,1750000,3,1,Park Slope,,,,98,,,Active,,,http://www.redfin.com/NY/Brooklyn/541-8th-St-11215/home/108525842,REBNY,ACCE104050,N,Y,40.6659555,-73.9773672
MLS Listing,,Condo/Co-op,308 W 97th St #42,New York,NY,10025,1875000,3,2,Upper West Side,1250,,1920,99,1500,,Active,,,http://www.redfin.com/NY/New-York/308-W-97th-St-10025/home/45227798,REBNY,TIME1829282,N,Y,40.7960094,-73.973521
MLS Listing,,Condo/Co-op,1175 York Ave Unit 11J,New York,NY,10065,1795000,3,3,Upper East Side,1800,,1960,102,997,,Active,,,http://www.redfin.com/NY/New-York/1175-York-Ave-10065/home/114494050,REBNY,NEXT16288514,N,Y,40.7615369,-73.9579786
MLS Listing,,Condo/Co-op,303 W 66th St Unit 16EE,New York,NY,10023,1850000,3,2,Upper West Side,,,1962,103,,,Active,,,http://www.redfin.com/NY/New-York/303-W-66th-St-10023/home/45151032,REBNY,DEGI3977417,N,Y,40.7761564,-73.9871839
MLS Listing,,Single Family Residential,347 Flagg Pl,Staten Island,NY,10304,1775000,4,4,Todt Hill,2968,16562,1960,103,598,,Active,,,http://www.redfin.com/NY/Staten-Island/347-Flagg-Pl-10304/home/56050952,SIBORMLS,1132690,N,Y,40.5839509,-74.1094747
MLS Listing,,Single Family Residential,83-24 Abingdon Rd,Kew Gardens,NY,11415,1800000,4,4.5,Kew Gardens,2726,5500,1905,103,660,,Active,,,http://www.redfin.com/NY/Jamaica/83-24-Abingdon-Rd-11415/home/20884590,MLSLI,3169401,N,Y,40.7072519,-73.833481
MLS Listing,,Condo/Co-op,418 E 59th St Unit 17B,New York,NY,10022,1780000,3,3,Middle East Side,1800,,1988,110,989,,Active,,,http://www.redfin.com/NY/New-York/418-E-59th-St-10022/home/45181499,REBNY,YORE1036,N,Y,40.7590132,-73.9612618
MLS Listing,,Condo/Co-op,155 E 91st St Unit 5AB,New York,NY,10128,1995000,3,3,Upper East Side,1900,,1929,110,1050,,Active,,,http://www.redfin.com/NY/New-York/155-E-91st-St-10128/home/45169439,REBNY,UCOM173653,N,Y,40.7826243,-73.9525831
MLS Listing,,Condo/Co-op,42 E 73rd St Unit 1AB,New York,NY,10021,1750000,3,3,Upper East Side,,,1920,110,,,Active,,,http://www.redfin.com/NY/New-York/42-E-73rd-St-10021/home/169206173,REBNY,STRI1851171,N,Y,40.7720678,-73.9645173
MLS Listing,,Condo/Co-op,5 -33 48th Ave Unit 6I,Queens,NY,11101,1840000,3,3,Long Island City,1346,,1931,110,1367,,Active,,,http://www.redfin.com/NY/Long-Island-City/5-25-48th-Ave-11101/home/169200584,REBNY,MOSP1851009,N,Y,40.744686,-73.954978
MLS Listing,,Condo/Co-op,343 E 74th St Ph 1D,New York,NY,10021,1850000,3,3.5,Upper East Side,1862,,1987,110,994,,Active,,,http://www.redfin.com/NY/New-York/343-E-74th-St-10021/home/45233007,REBNY,UCOM1814953,N,Y,40.7696861,-73.9557104
MLS Listing,,Condo/Co-op,Withheld Withheld Est Ph 1C,Brooklyn,NY,11235,1950000,3,2.5,Brooklyn,1981,,2004,111,984,,Active,,,http://www.redfin.com/NY/Brooklyn/Undisclosed-address-11235/home/169197307,BNYMLS,433465,N,Y,40.5860069,-73.9418603
MLS Listing,,Single Family Residential,158-24 85th St,Howard Beach,NY,11414,1849000,4,4,Howard Beach,3800,5000,2004,114,487,,Active,,,http://www.redfin.com/NY/Jamaica/158-24-85th-St-11414/home/20684084,MLSLI,3166560,N,Y,40.65901,-73.847817
MLS Listing,,Condo/Co-op,2628 Broadway Unit 5C,New York,NY,10025,2000000,3,2,Manhattan Valley,2006,,2006,115,997,,Active,,,http://www.redfin.com/NY/New-York/2628-Broadway-10025/home/45209313,REBNY,CORE2769563,N,Y,40.7967552,-73.9696417
MLS Listing,,Condo/Co-op,433 E 51st St Unit 3CD,New York,NY,10022,1795000,3,3,Middle East Side,1905,,1936,115,942,,Active,,,http://www.redfin.com/NY/New-York/433-E-51st-St-10022/home/147794972,REBNY,UCOM1786864,N,Y,40.7542088,-73.9643842
MLS Listing,,Single Family Residential,63 Flagg Ct,Staten Island,NY,10304,1999999,3,3,Todt Hill,4095,12349,1986,116,488,200,Active,,,http://www.redfin.com/NY/Staten-Island/63-Flagg-Ct-10304/home/56113358,SIBORMLS,1132367,N,Y,40.5886813,-74.1075935
MLS Listing,,Single Family Residential,108-17 67th Ave,Forest Hills,NY,11375,1999888,5,3.5,Forest Hills,,4000,1945,117,,,Active,,,http://www.redfin.com/NY/Flushing/108-17-67th-Ave-11375/home/20913968,MLSLI,3165368,N,Y,40.7293499,-73.846974
MLS Listing,,Condo/Co-op,17 Convent Ave Unit PHA,New York,NY,10027,1995000,3,2,Harlem,1795,,2019,118,1111,,Active,,,http://www.redfin.com/NY/New-York/17-Convent-Ave-10027/home/147364367,REBNY,HALS19873106,N,Y,40.8132608,-73.9530355
MLS Listing,,Condo/Co-op,302 E 96th St #503,New York,NY,10128,1995000,3,3,Upper East Side,1417,,2012,118,1408,,Active,,,http://www.redfin.com/NY/New-York/302-E-96th-St-10128/home/115403290,REBNY,UCOM1672890,N,Y,40.783707,-73.946774
MLS Listing,,Condo/Co-op,76 Schermerhorn St Unit 3D,Brooklyn,NY,11201,1775000,3,2,Brooklyn Heights,1307,,2019,118,1358,,Active,,,http://www.redfin.com/NY/Brooklyn/76-Schermerhorn-St-11201/home/169088874,REBNY,STRI1849471,N,Y,40.6905194,-73.9909678
MLS Listing,,Single Family Residential,6806 18 Ave,Brooklyn,NY,11204,1800000,3,1.5,Brooklyn,4300,1750,1931,121,419,,Active,,,http://www.redfin.com/NY/Brooklyn/6806-18th-Ave-11204/home/169057415,BNYMLS,433249,N,Y,40.6173475,-73.9923346
MLS Listing,,Condo/Co-op,42 -60 Crescent St Unit 7A,Queens,NY,11101,1875000,3,2,Long Island City,1317,,2016,123,1424,,Active,,,http://www.redfin.com/NY/Long-Island-City/42-Crescent-St-11101/home/169038163,REBNY,CORC5879325,N,Y,40.7504388,-73.9407134
MLS Listing,,Condo/Co-op,145 E 15th St Unit 16T,New York,NY,10003,2000000,3,2,Gramercy Park,,,1960,124,,,Active,,,http://www.redfin.com/NY/New-York/145-E-15th-St-10003/home/53323416,REBNY,ASHW2764520,N,Y,40.7343053,-73.9869055
MLS Listing,,Condo/Co-op,316 W 116th St Unit 5A,New York,NY,10026,1995000,3,2.5,Harlem,2051,,1900,126,973,,Active,,,http://www.redfin.com/NY/New-York/316-W-116th-St-10026/home/45139056,REBNY,HALS19836986,N,Y,40.804622,-73.956559
MLS Listing,,Multi-Family (2-4 Unit),23-57 31st St Unit Ditmars/Steinway,Astoria,NY,11105,1999998,3,2,Astoria,,2250,1910,126,,,Active,,,http://www.redfin.com/NY/Long-Island-City/23-57-31st-St-11105/unit-Ditmars-Steinway/home/168955184,MLSLI,3162795,N,Y,40.772908,-73.914125
MLS Listing,,Condo/Co-op,2218 Jackson Ave #413,Queens,NY,11101,1795000,3,2.5,Long Island City,1498,,2018,129,1198,,Active,January-15-2020 12:00 PM,January-15-2020 04:00 PM,http://www.redfin.com/NY/Long-Island-City/2218-Jackson-Ave-11101/home/168935132,REBNY,HALS19067758,N,Y,40.7452362,-73.946935
MLS Listing,,Multi-Family (2-4 Unit),431 Greene Ave,Brooklyn,NY,11216,1899000,5,3,Brooklyn,3360,2000,1899,129,565,,Active,,,http://www.redfin.com/NY/Brooklyn/431-Greene-Ave-11216/home/40726558,BNYMLS,432991,N,Y,40.6882966,-73.9536407
MLS Listing,,Single Family Residential,110-04 15th Ave,College Point,NY,11356,1899000,3,2,College Point,2115,5000,1930,129,898,,Active,,,http://www.redfin.com/NY/Flushing/110-04-15th-Ave-11356/home/20868245,MLSLI,3162187,N,Y,40.783473,-73.856436
MLS Listing,,Condo/Co-op,11 Riverside Dr Unit 1STE,New York,NY,10023,1899000,3,2,Upper West Side,,,1950,129,,,Active,,,http://www.redfin.com/NY/New-York/11-Riverside-Dr-10023/home/168928145,REBNY,HALS19849338,N,Y,40.7814737,-73.9847935
MLS Listing,,Single Family Residential,933 Edgegrove Ave,Staten Island,NY,10309,1999999,4,5,Princes Bay,4850,15562,1980,132,412,,Active,,,http://www.redfin.com/NY/Staten-Island/933-Edgegrove-Ave-10309/home/56019905,SIBORMLS,1131902,N,Y,40.535164,-74.2025473
MLS Listing,,Condo/Co-op,254 W 123rd St Unit GARDEN,New York,NY,10027,1949500,3,3,Harlem,2114,,1910,132,922,,Active,,,http://www.redfin.com/NY/New-York/254-W-123rd-St-10027/home/168865097,REBNY,CORE1431791,N,Y,40.8082832,-73.9512628
MLS Listing,,Condo/Co-op,155 E 34th St Unit 16MN,New York,NY,10016,1900000,3,3,Middle East Side,1800,,1961,135,1056,,Active,,,http://www.redfin.com/NY/New-York/155-E-34th-St-10016/home/168853082,REBNY,DEGI3932681,N,Y,40.746232,-73.978689
MLS Listing,,Condo/Co-op,380 Riverside Dr Unit 8MN,New York,NY,10025,1875000,3,2,Morningside Heights,,,1907,139,,,Active,,,http://www.redfin.com/NY/New-York/380-Riverside-Dr-10025/home/115705953,REBNY,DEGI3930828,N,Y,40.8050797,-73.9674377
MLS Listing,,Multi-Family (2-4 Unit),24-30 160 St,Flushing,NY,11355,1799000,4,3,Flushing,,4750,1960,143,,,Active,,,http://www.redfin.com/NY/Flushing/24-30-160th-St-11357/home/20859657,MLSLI,3158580,N,Y,40.7754689,-73.8040658
MLS Listing,,Multi-Family (2-4 Unit),6817 20 Ave,Brooklyn,NY,11204,1975000,4,,Brooklyn,,2000,1931,145,,,Active,,,http://www.redfin.com/NY/Brooklyn/6817-20th-Ave-11204/home/168697586,BNYMLS,432698,N,Y,40.6142722,-73.9878352
MLS Listing,,Multi-Family (2-4 Unit),1326 59th St,Brooklyn,NY,11219,1899000,3,2,Brooklyn,1568,4007,1925,145,1211,,Active,,,http://www.redfin.com/NY/Brooklyn/1326-59th-St-11219/home/40807716,BNYMLS,432692,N,Y,40.628808,-73.997375
MLS Listing,,Multi-Family (2-4 Unit),154 Van Buren St,Brooklyn,NY,11221,1999000,5,3.5,Brooklyn,2715,1520,1899,145,736,,Active,,,http://www.redfin.com/NY/Brooklyn/154-Van-Buren-St-11221/home/40726401,MLSLI,3157899,N,Y,40.690252,-73.9398063
MLS Listing,,Multi-Family (2-4 Unit),141 W 129th St,New York,NY,10027,1800000,4,3,Harlem,3068,,,146,587,,Active,,,http://www.redfin.com/NY/New-York/141-W-129th-St-10027/home/45305658,REBNY,HALS19725681,N,Y,40.811134,-73.944986
MLS Listing,,Condo/Co-op,100 W 57th St Unit PHA,New York,NY,10019,1999000,3,3,Middle West Side,,,1962,150,,,Active,January-15-2020 12:00 PM,January-15-2020 01:30 PM,http://www.redfin.com/NY/New-York/100-W-57th-St-10019/home/45148320,REBNY,CORC5859967,N,Y,40.7641081,-73.9776418
MLS Listing,,Single Family Residential,1787 Stillwell Ave,Brooklyn,NY,11223,1899900,3,1,Brooklyn,2600,2778,,152,731,,Active,,,http://www.redfin.com/NY/Brooklyn/1787-Stillwell-Ave-11223/home/168658849,BNYMLS,432440,N,Y,40.6030285,-73.986102
MLS Listing,,Single Family Residential,29-11/13 213 St,Bayside,NY,11360,1888000,5,6,Bayside,,5000,2019,152,,,Active,,,http://www.redfin.com/NY/Bayside/29-11-13-213-ST-11360/home/168666162,MLSLI,3155937,N,Y,40.7779482,-73.7801447
MLS Listing,,Multi-Family (2-4 Unit),780 4 Ave,Brooklyn,NY,11232,1900000,4,2,Brooklyn,2400,1240,,152,792,,Active,,,http://www.redfin.com/NY/Unknown/780-4th-Ave-11232/home/146451898,BNYMLS,432497,N,Y,40.6599009,-73.9990489
MLS Listing,,Condo/Co-op,653 Bergen St #2,Brooklyn,NY,11238,1995000,3,2.5,Prospect Heights,2008,,2019,154,994,,Active,,,http://www.redfin.com/NY/Brooklyn/653-Bergen-St-11238/home/168645959,REBNY,UCOM1842821,N,Y,40.679529,-73.967589
MLS Listing,,Condo/Co-op,500 Waverly Ave Unit 6A,Brooklyn,NY,11238,1850000,3,2.5,Clinton Hill,1650,,2015,159,1121,,Active,,,http://www.redfin.com/NY/Brooklyn/500-Waverly-Ave-11238/home/115229698,REBNY,STRI1799046,N,Y,40.6830991,-73.9660566
MLS Listing,,Single Family Residential,30 Tricia Way,Staten Island,NY,10307,1799000,5,4,Tottenville,5150,12100,1996,160,349,,Active,,,http://www.redfin.com/NY/Staten-Island/30-Tricia-Way-10307/home/77420666,SIBORMLS,1131230,N,Y,40.5022978,-74.2323995
MLS Listing,,Condo/Co-op,490 W End Ave Unit 10C,New York,NY,10024,1950000,3,2,Upper West Side,,,1912,162,,,Active,,,http://www.redfin.com/NY/New-York/490-W-End-Ave-10024/home/168289538,REBNY,CITY1838926,N,Y,40.7869618,-73.9787559
MLS Listing,,Single Family Residential,3371 Bedford Ave,Brooklyn,NY,11210,1799000,4,2,Brooklyn,2684,5000,1920,165,670,,Active,,,http://www.redfin.com/NY/Brooklyn/3371-Bedford-Ave-11210/home/40871656,BNYMLS,432201,N,Y,40.6202071,-73.9501493
MLS Listing,,Condo/Co-op,365 Bridge St Unit 6P,Brooklyn,NY,11201,2000000,3,2.5,Downtown Brooklyn,1800,,1928,166,1111,,Active,,,http://www.redfin.com/NY/Brooklyn/365-Bridge-St-11201/home/40668427,REBNY,BHSR19788909,N,Y,40.6925905,-73.9849373
MLS Listing,,Condo/Co-op,425 E 58th St Unit 15A,New York,NY,10022,1995000,3,3.5,Middle East Side,2400,,1974,167,831,,Active,,,http://www.redfin.com/NY/New-York/425-E-58th-St-10022/home/168014758,REBNY,IZSA19786195,N,Y,40.7586967,-73.9609292
MLS Listing,,Single Family Residential,168 Beach 149th St,Neponsit,NY,11694,1975000,4,4,Neponsit,,6000,2001,167,,,Active,,,http://www.redfin.com/NY/Far-Rockaway/1-68-Beach-149th-St-11694/home/20669249,MLSLI,3151649,N,Y,40.5684342,-73.8633045
MLS Listing,,Single Family Residential,2064 Hering Ave,Bronx,NY,10461,1849000,5,4.5,Bronx,7215,11242,1930,168,256,,Active,,,http://www.redfin.com/NY/The-Bronx/2064-Hering-Ave-10461/home/44744806,HGMLS,5007586,N,Y,40.8564654,-73.8533467
MLS Listing,,Condo/Co-op,136-46 41 Ave Unit 7B,Flushing,NY,11355,1995000,3,3,Hua Yuan Development Llc,1890,,2019,174,1056,843,Active,,,http://www.redfin.com/NY/Flushing/13646-41st-Ave-11355/unit-7B/home/167880029,MLSLI,3149661,N,Y,40.7587546,-73.8277085
MLS Listing,,Condo/Co-op,19 Grace Court Aly Unit 2A,Brooklyn,NY,11201,1999000,3,3,Brooklyn Heights,,,1926,177,,,Active,,,http://www.redfin.com/NY/Brooklyn/19-Grace-Court-Aly-11201/home/167744416,REBNY,CORC5830588,N,Y,40.6938196,-73.9952929
MLS Listing,,Single Family Residential,312 London Rd,Staten Island,NY,10306,1999000,4,5,Lighthouse Hill,4400,6250,2018,180,454,,Active,,,http://www.redfin.com/NY/Staten-Island/312-London-Rd-10306/home/56134894,SIBORMLS,1130696,N,Y,40.5776467,-74.138195
MLS Listing,,Multi-Family (2-4 Unit),7304 12th Ave,Brooklyn,NY,11228,1788000,4,3,Dyker Heights,2720,2000,1925,180,657,,Active,,,http://www.redfin.com/NY/Brooklyn/7304-12th-Ave-11228/home/40823422,SIBORMLS,1130681,N,Y,40.6228098,-74.00877
MLS Listing,,Multi-Family (2-4 Unit),458 Bay Ridge Pkwy,Brooklyn,NY,11209,1850000,4,2.25,Brooklyn,,2000,,180,,,Active,,,http://www.redfin.com/NY/Brooklyn/458-Bay-Ridge-Pkwy-11209/home/167559891,BNYMLS,431747,N,Y,40.6298395,-74.0237122
MLS Listing,,Condo/Co-op,107-24 71 Rd Unit 14C,Forest Hills,NY,11375,1750000,3,3,Windsor Of Forest Hills,1500,,2005,182,1167,1680,Active,,,http://www.redfin.com/NY/Forest-Hills/107-24-71st-Rd-11375/unit-14C/home/20663368,MLSLI,3147478,N,Y,40.7202676,-73.84307
MLS Listing,,Multi-Family (2-4 Unit),2156 76 St,Brooklyn,NY,11214,1990000,4,3,Brooklyn,2480,2500,1920,182,802,,Active,,,http://www.redfin.com/NY/Brooklyn/2156-76th-St-11214/home/40825844,BNYMLS,431692,N,Y,40.607877,-73.988916
MLS Listing,,Single Family Residential,197 Granada St,Atlantic Beach,NY,11509,1999000,5,4.5,Village,,8979,1955,189,,,Active,,,http://www.redfin.com/NY/Atlantic-Beach/197-Granada-Ln-11509/home/20253875,MLSLI,3145311,N,Y,40.5925722,-73.7424763
MLS Listing,,Multi-Family (2-4 Unit),28 19th St #3,New York,NY,11105,1788000,5,3.5,New York,3000,,,195,596,,Active,,,http://www.redfin.com/NY/Astoria/35-28-19th-Ave-11105/unit-3/home/167170696,HGMLS,4944416,N,Y,40.779609,-73.9016506
MLS Listing,,Condo/Co-op,419 E 57th St Unit 12C,New York,NY,10022,1995000,3,2,Middle East Side,,,1927,199,,,Active,,,http://www.redfin.com/NY/New-York/419-E-57th-St-10022/home/45203335,REBNY,UCOM471127,N,Y,40.7581624,-73.9619276
MLS Listing,,Condo/Co-op,418 E 59th St Unit 16B,New York,NY,10022,1900000,3,3,Middle East Side,1800,,1988,202,1056,,Active,,,http://www.redfin.com/NY/New-York/418-E-59th-St-10022/home/45156503,REBNY,DEGI3845185,N,Y,40.7590132,-73.9612618
MLS Listing,,Multi-Family (2-4 Unit),1036 Bergen St,Brooklyn,NY,11216,1800000,5,3,Brooklyn,,2469,1910,209,,,Active,,,http://www.redfin.com/NY/Brooklyn/1036-Bergen-St-11216/home/40708194,MLSLI,3139392,N,Y,40.6760215,-73.9519057
MLS Listing,,Condo/Co-op,1035 Fifth Ave Unit 10E,New York,NY,10028,1995000,3,3,Upper East Side,,,1925,210,,,Active,,,http://www.redfin.com/NY/New-York/1035-5th-Ave-10028/home/45232624,REBNY,ASHW1402684,N,Y,40.780604,-73.9608315
MLS Listing,,Condo/Co-op,303 E 57th St Unit 35G,New York,NY,10022,1975000,4,3,Middle East Side,3400,,1967,213,581,,Active,,,http://www.redfin.com/NY/New-York/303-E-57th-St-10022/home/45324759,REBNY,HALS19684415,N,Y,40.7595774,-73.964779
MLS Listing,,Condo/Co-op,311 W 97th St Unit 5W,New York,NY,10025,1895000,3,2,Upper West Side,,,1915,214,,,Active,,,http://www.redfin.com/NY/New-York/311-W-97th-St-10025/home/166906671,REBNY,WMLU1011,N,Y,40.7964578,-73.9733839
MLS Listing,,Condo/Co-op,150 Myrtle Ave Ph 3007,Brooklyn,NY,11201,1896000,3,3,Downtown Brooklyn,1451,,2009,217,1307,,Active,,,http://www.redfin.com/NY/Brooklyn/150-Myrtle-Ave-11201/home/40676989,REBNY,UCOM1828391,N,Y,40.6931988,-73.9827067
MLS Listing,,Condo/Co-op,112 E 83rd St Unit 4C,New York,NY,10028,1825000,3,2.5,Upper East Side,,,1929,217,,,Active,January-18-2020 01:30 PM,January-18-2020 02:30 PM,http://www.redfin.com/NY/New-York/112-E-83rd-St-10028/home/45161054,REBNY,FOXR777940,N,Y,40.7776476,-73.9580016
MLS Listing,,Single Family Residential,21015 Union Tpke,Bayside,NY,11364,1880000,4,3.5,Bayside,,5789,2019,221,,,Active,,,http://www.redfin.com/NY/Flushing/210-15-Union-Tpke-11364/home/20806717,MLSLI,3136016,N,Y,40.7336392,-73.7602343
MLS Listing,,Condo/Co-op,211 Madison Ave Unit 14B,New York,NY,10016,1990000,3,3,Murray Hill Kips Bay,2100,,1985,222,948,,Active,,,http://www.redfin.com/NY/New-York/211-Madison-Ave-10016/home/45251814,REBNY,CORC5757839,N,Y,40.7486775,-73.9819284
MLS Listing,,Condo/Co-op,46 -20 11th St Unit 7B,Queens,NY,11101,1860000,3,2,Long Island City,1390,,2019,222,1338,,Active,,,http://www.redfin.com/NY/Long-Island-City/44-46-11th-St-11101/home/167039157,REBNY,MOSP1827569,N,Y,40.748998,-73.949842
MLS Listing,,Multi-Family (2-4 Unit),1160 82 St,Brooklyn,NY,11228,1799999,4,2.75,Brooklyn,2995,4000,1950,226,601,,Active,,,http://www.redfin.com/NY/Brooklyn/1160-82nd-St-11228/home/40828026,BNYMLS,430474,N,Y,40.6179146,-74.0147034
MLS Listing,,Multi-Family (2-4 Unit),7317 13 Ave,Brooklyn,NY,11228,1899000,3,3.25,Brooklyn,,2000,1931,228,,,Active,,,http://www.redfin.com/NY/Brooklyn/7317-13th-Ave-11228/home/166901336,BNYMLS,430433,N,Y,40.6209244,-74.0065205
MLS Listing,,Single Family Residential,100 Whitman Dr,Brooklyn,NY,11234,1899000,4,3,Brooklyn,3882,5392,2006,234,489,,Active,,,http://www.redfin.com/NY/Brooklyn/100-Whitman-Dr-11234/home/40905173,BNYMLS,430267,N,Y,40.6109077,-73.9035798
MLS Listing,,Condo/Co-op,308 W 97th St #34,New York,NY,10025,1850000,3,2,Upper West Side,1225,,1920,234,1510,,Active,,,http://www.redfin.com/NY/New-York/308-W-97th-St-10025/home/45227799,REBNY,TIME1814375,N,Y,40.7960094,-73.973521
MLS Listing,,Condo/Co-op,310 W 85th St Unit 6B,New York,NY,10024,1795000,3,2,Upper West Side,1500,,1923,234,1197,,Active,,,http://www.redfin.com/NY/New-York/310-W-85th-St-10024/home/45326185,REBNY,DEGI3799694,N,Y,40.7883189,-73.9790773
MLS Listing,,Condo/Co-op,52 Convent Ave Unit 1C,New York,NY,10027,1975000,3,3.5,Harlem,2472,,2019,242,799,,Active,,,http://www.redfin.com/NY/New-York/52-Convent-Ave-10027/home/166690275,REBNY,HALS18110900,N,Y,40.8151269,-73.9533741
MLS Listing,,Multi-Family (2-4 Unit),226 Utica Ave,Brooklyn,NY,11213,1998000,4,2,Brooklyn,3300,2000,,244,605,,Active,,,http://www.redfin.com/NY/Unknown/226-Utica-Ave-11213/home/144271984,BNYMLS,429952,N,Y,40.6710462,-73.9311143
MLS Listing,,Condo/Co-op,130 E 67th St Unit 5A,New York,NY,10065,1796000,3,3,Upper East Side,1800,,1908,251,998,,Active,,,http://www.redfin.com/NY/New-York/130-E-67th-St-10065/home/165444401,REBNY,HALS19569908,N,Y,40.7669938,-73.9643263
MLS Listing,,Single Family Residential,214 93 St,Brooklyn,NY,11209,1850000,4,3.5,Brooklyn,3060,2500,1925,251,605,,Active,,,http://www.redfin.com/NY/Brooklyn/214-93rd-St-11209/home/40820355,BNYMLS,429708,N,Y,40.618932,-74.03528
MLS Listing,,Single Family Residential,35 Grymes Hill Rd,Staten Island,NY,10301,1850000,4,4,Grymes Hill,4500,12000,1935,254,411,,Active,,,http://www.redfin.com/NY/Staten-Island/35-Grymes-Hill-Rd-10301/home/56119338,SIBORMLS,1128614,N,Y,40.6236106,-74.0898359
MLS Listing,,Single Family Residential,208 Brehaut Ave,Staten Island,NY,10307,1849999,4,5,Tottenville,6824,8250,2006,258,271,,Active,,,http://www.redfin.com/NY/Staten-Island/208-Brehaut-Ave-10307/home/56092353,SIBORMLS,1128440,N,Y,40.5141081,-74.2408847
MLS Listing,,Condo/Co-op,175 E 79th St Unit 14A,New York,NY,10065,1995000,3,3,Upper East Side,,,1928,258,,,Active,,,http://www.redfin.com/NY/New-York/175-E-79th-St-10075/home/164426994,REBNY,BHSR19572651,N,Y,40.7748456,-73.9579858
MLS Listing,,Condo/Co-op,129 Columbia Hts #57,Brooklyn,NY,11201,1840000,3,2,Brooklyn Heights,,,1900,265,,,Active,,,http://www.redfin.com/NY/Brooklyn/129-Columbia-Hts-11201/home/40662558,REBNY,BHSR19567213,N,Y,40.6983009,-73.9961367
MLS Listing,,Single Family Residential,6310 Strickland Ave,Brooklyn,NY,11234,1799000,5,3,Brooklyn,972,4500,2019,267,1851,,Active,,,http://www.redfin.com/NY/Brooklyn/6310-Strickland-Ave-11234/home/40905295,BNYMLS,429185,N,Y,40.6143403,-73.9108369
MLS Listing,,Condo/Co-op,444 E 52nd St Unit 7A/8AB,New York,NY,10022,1900000,3,3.5,Middle East Side,1900,,1929,270,1000,,Active,,,http://www.redfin.com/NY/New-York/444-E-52nd-St-10022/home/162614212,REBNY,RUTE1784365,N,Y,40.754143,-73.963502
MLS Listing,,Single Family Residential,150-05 Sullivan Dr,Whitestone,NY,11357,1998000,4,3.5,Bridges At Whitestone,,4400,2019,270,,,Active,January-19-2020 02:00 PM,January-19-2020 04:00 PM,http://www.redfin.com/NY/Whitestone/15005-Sullivan-Dr-11357/home/147015500,MLSLI,3120414,N,Y,40.7850656,-73.8124984
MLS Listing,,Single Family Residential,150-67 6th Ave,Whitestone,NY,11357,1848000,3,3.5,Bridges At Whitestone,,5000,2019,270,,,Active,January-19-2020 02:00 PM,January-19-2020 04:00 PM,http://www.redfin.com/NY/Unknown/15067-6th-Ave-11357/home/104307032,MLSLI,3120411,N,Y,40.7965828,-73.8151518
MLS Listing,,Single Family Residential,150-63 6th Ave,Whitestone,NY,11357,1888000,4,3.5,Bridges At Whitestone,,5000,2019,270,,,Active,January-19-2020 02:00 PM,January-19-2020 04:00 PM,http://www.redfin.com/NY/Unknown/15063-6th-Ave-11357/home/104307033,MLSLI,3120402,N,Y,40.7965688,-73.8151827
MLS Listing,,Single Family Residential,150-03 6 Ave,Whitestone,NY,11357,1888000,4,3.5,Bridges At Whitestone,,5000,2019,270,,,Active,January-19-2020 02:00 PM,January-19-2020 04:00 PM,http://www.redfin.com/NY/Whitestone/150-3-6th-Ave-11357/home/20868926,MLSLI,3120387,N,Y,40.796025,-73.816728
MLS Listing,,Condo/Co-op,805 Washington Ave Unit 2D,Brooklyn,NY,11238,1925000,3,2.5,Prospect Heights,1580,,,278,1218,,Active,,,http://www.redfin.com/NY/Brooklyn/805-Washington-Ave-11238/home/161473773,REBNY,DEGI3644197,N,Y,40.6723549,-73.9624954
MLS Listing,,Condo/Co-op,147 Hope St Ph 6D,Brooklyn,NY,11211,1995000,3,2,Williamsburg,1397,,2018,283,1428,,Active,,,http://www.redfin.com/NY/Brooklyn/147-Hope-St-11211/home/161168907,REBNY,CORC5573263,N,Y,40.7119605,-73.9523403
MLS Listing,,Single Family Residential,120 Milden Ave,Staten Island,NY,10301,1799000,5,6,Todt Hill,7200,20000,2000,284,250,,Active,,,http://www.redfin.com/NY/Staten-Island/120-Milden-Ave-10301/home/56074091,SIBORMLS,1127667,N,Y,40.6079329,-74.097499
MLS Listing,,Condo/Co-op,119 N 11th St Unit 3A,Brooklyn,NY,11211,1995000,3,2,Williamsburg,1400,,1928,285,1425,,Active,,,http://www.redfin.com/NY/Brooklyn/119-N-11th-St-11249/home/161028236,REBNY,UCOM903604,N,Y,40.720748,-73.9562222
MLS Listing,,Multi-Family (2-4 Unit),216-19 Linden Blvd,Cambria Heights,NY,11411,1900000,5,4,Cambria Heights,,2000,1931,287,,,Active,,,http://www.redfin.com/NY/Jamaica/216-19-Linden-Blvd-11411/home/21677952,MLSLI,3114489,N,Y,40.696215,-73.742758
MLS Listing,,Multi-Family (2-4 Unit),2246 National Dr,Brooklyn,NY,11234,1799000,5,4.5,Brooklyn,3424,3240,,292,525,,Active,,,http://www.redfin.com/NY/Brooklyn/2246-National-Dr-11234/home/40904125,BNYMLS,428448,N,Y,40.605937,-73.9153839
MLS Listing,,Condo/Co-op,220 E 65th St Unit 6C,New York,NY,10021,1875000,3,3,Upper East Side,1259,,1978,293,1489,,Active,,,http://www.redfin.com/NY/New-York/220-E-65th-St-10065/home/45286445,REBNY,CORC5689235,N,Y,40.7644847,-73.9624624
MLS Listing,,Condo/Co-op,11 Hoyt St Unit 16C,Brooklyn,NY,11201,1945000,3,2,Downtown Brooklyn,1383,,,297,1406,,Active,January-15-2020 12:00 PM,January-15-2020 03:00 PM,http://www.redfin.com/NY/Brooklyn/11-Hoyt-St-11201/home/160725828,REBNY,CORC5704684,N,Y,40.6899456,-73.9850466
MLS Listing,,Condo/Co-op,3333 W Henry Hudson Pkwy W Unit PHP,Bronx,NY,10463,1850000,4,4.5,Riverdale,2600,,1965,303,712,,Active,,,http://www.redfin.com/NY/The-Bronx/3333-Henry-Hudson-Pkwy-10463/unit-PHP/home/44764874,HGMLS,4914536,N,Y,40.8855822,-73.9143371
MLS Listing,,Condo/Co-op,29 W 65th St Unit 5HJ,New York,NY,10023,1995000,3,3,Upper West Side,,,1939,304,,,Active,,,http://www.redfin.com/NY/New-York/29-W-65th-St-10023/home/160697357,REBNY,CORC5690161,N,Y,40.7727634,-73.9809139
MLS Listing,,Single Family Residential,39-62 222nd St,Bayside,NY,11361,1988000,5,5,Bayside,3200,5878,2015,309,621,,Active,,,http://www.redfin.com/NY/Bayside/3962-222nd-St-11361/home/20829262,MLSLI,3107717,N,Y,40.765079,-73.761527
MLS Listing,,Condo/Co-op,5 -25 47th Rd Ph 4B,Queens,NY,11101,1985000,3,2,Long Island City,1587,,,314,1251,,Active,,,http://www.redfin.com/NY/Long-Island-City/5-17-47th-Rd-11101/home/160601696,REBNY,DEGI3703241,N,Y,40.745461,-73.955077
MLS Listing,,Single Family Residential,2230 E 65 St,Brooklyn,NY,11234,1995000,4,5,Brooklyn,2300,5000,1955,318,867,,Active,,,http://www.redfin.com/NY/Brooklyn/2230-E-65th-St-11234/home/40905256,BNYMLS,427681,N,Y,40.6145628,-73.9094131
MLS Listing,,Single Family Residential,4704 Delafield Ave,Bronx,NY,10471,1895000,4,3.5,Fieldston,,,,332,,,Active,,,http://www.redfin.com/NY/The-Bronx/4704-Delafield-Ave-10471/home/44769137,REBNY,BACH19447371,N,Y,40.8965003,-73.9067491
MLS Listing,,Condo/Co-op,455 E 51st St Unit 3DE,New York,NY,10022,1995000,3,2,Middle East Side,,,1924,332,,,Active,,,http://www.redfin.com/NY/New-York/455-E-51st-St-10022/home/160470937,REBNY,HALS19445255,N,Y,40.7540096,-73.9637466
MLS Listing,,Multi-Family (2-4 Unit),42-20 162nd St,Flushing,NY,11358,1938000,5,2,Flushing,,3800,1930,333,,,Active,,,http://www.redfin.com/NY/Flushing/42-20-162nd-St-11358/home/20849191,MLSLI,3101110,N,Y,40.7596149,-73.804366
MLS Listing,,Condo/Co-op,300 E 59th St #605,New York,NY,10022,1799999,3,3,Middle East Side,2000,,1971,333,900,,Active,,,http://www.redfin.com/NY/New-York/300-E-59th-St-10022/home/160465322,REBNY,UCOM1805589,N,Y,40.7602859,-73.9640752
MLS Listing,,Condo/Co-op,891 Park Ave Unit 7FL,New York,NY,10075,1995000,3,2,Upper East Side,,,1931,336,,,Active,January-14-2020 11:30 AM,January-14-2020 01:00 PM,http://www.redfin.com/NY/New-York/891-Park-Ave-10075/home/114513556,REBNY,BHSR19425748,N,Y,40.775084,-73.960412
MLS Listing,,Condo/Co-op,135 Oceana Dr E Ph 1A,Brooklyn,NY,11235,1849000,3,2.5,Brooklyn,1860,,2005,341,994,,Active,,,http://www.redfin.com/NY/Brooklyn/135-Oceana-Dr-E-11235/unit-1A/home/40662164,BNYMLS,427073,N,Y,40.5757866,-73.9570596
MLS Listing,,Condo/Co-op,3 E 85th St Unit 5AB,New York,NY,10028,1849000,3,2.5,Upper East Side,1500,,,348,1233,,Active,,,http://www.redfin.com/NY/New-York/3-E-85th-St-10028/home/45159842,REBNY,RENY85357,N,Y,40.7807835,-73.9602516
MLS Listing,,Condo/Co-op,21 -30 44th Dr Unit 6H,Queens,NY,11101,1975000,3,3,Queens ( Other),1428,,2019,350,1383,,Active,,,http://www.redfin.com/NY/Long-Island-City/21-47-44th-Dr-11101/home/160320943,REBNY,MOSP1801190,N,Y,40.747999,-73.945466
MLS Listing,,Condo/Co-op,415 E 54th St Unit 20G,New York,NY,10022,1985000,3,2,Middle East Side,1956,,1982,367,1015,,Active,,,http://www.redfin.com/NY/New-York/415-E-54th-St-10022/home/45282244,REBNY,DEGI3575686,N,Y,40.7561323,-73.9633677
MLS Listing,,Condo/Co-op,1170 Fifth Ave Unit 11C,New York,NY,10029,1800000,3,3,Upper East Side,,,1926,430,,,Active,,,http://www.redfin.com/NY/New-York/1170-5th-Ave-10029/home/45163458,REBNY,CORC5597638,N,Y,40.7891765,-73.9543309
MLS Listing,,Condo/Co-op,100 W 93rd St Unit 29F,New York,NY,10025,1999999,3,2,Upper West Side,1351,,1973,448,1480,,Active,,,http://www.redfin.com/NY/New-York/100-W-93rd-St-10025/home/45192096,REBNY,DEGI3506041,N,Y,40.7908018,-73.9696904
MLS Listing,,Single Family Residential,4617 Waldo Ave,Bronx,NY,10471,1750000,4,3,Fieldston,,,,453,,,Active,,,http://www.redfin.com/NY/The-Bronx/4617-Waldo-Ave-10471/home/44605721,REBNY,BACH19123903,N,Y,40.8940849,-73.90131
MLS Listing,,Condo/Co-op,425 E 58th St Unit 9D,New York,NY,10022,1899000,4,3.5,Upper East Side,2400,,1974,455,791,,Active,,,http://www.redfin.com/NY/New-York/425-E-58th-St-10022/home/147610748,REBNY,HALS19021010,N,Y,40.7587717,-73.9611761
MLS Listing,,Single Family Residential,1 N Lake Rd,Great Neck,NY,11020,1999000,5,3,Lake Success,,41456,1963,459,,,Active,,,http://www.redfin.com/NY/Great-Neck/1-Lake-Rd-N-11020/home/19995606,MLSLI,3072475,N,Y,40.7622,-73.7128089
MLS Listing,,Single Family Residential,112-13/15 39th Ave,Corona,NY,11368,1790000,5,2,Corona,,6250,1915,523,,,Active,,,http://www.redfin.com/NY/Flushing/112-13-39th-Ave-11368/home/20921889,MLSLI,3055494,N,Y,40.7531589,-73.854547
MLS Listing,,Condo/Co-op,2218 Jackson Ave #501,Queens,NY,11101,1905000,3,2.5,Long Island City,1497,,2018,579,1273,,Active,January-15-2020 12:00 PM,January-15-2020 04:00 PM,http://www.redfin.com/NY/Unknown/2218-Jackson-Ave-11101/home/146042123,REBNY,HALS18640065,N,Y,40.7452362,-73.946935
MLS Listing,,Single Family Residential,2256 National Dr,Brooklyn,NY,11234,1779000,5,4.5,Brooklyn,3651,3240,2010,593,487,,Active,,,http://www.redfin.com/NY/Brooklyn/2256-National-Dr-11234/home/40904153,BNYMLS,415846,N,Y,40.6057983,-73.9152118
MLS Listing,,Multi-Family (2-4 Unit),1003 Hampton Ave,Brooklyn,NY,11235,1850000,5,3,Brooklyn,2450,4000,,613,755,,Active,,,http://www.redfin.com/NY/Brooklyn/1003-Hampton-Ave-11235/home/40907655,BNYMLS,420096,N,Y,40.5803581,-73.9447305
MLS Listing,,Condo/Co-op,440 Kent Ave Unit 5B,Brooklyn,NY,11249,1987000,3,2,Williamsburg,1460,,2005,635,1361,,Active,,,http://www.redfin.com/NY/Brooklyn/440-Kent-Ave-11249/home/40655704,REBNY,UCOM327207,N,Y,40.7092689,-73.969376
MLS Listing,,Condo/Co-op,425 E 58th St Unit 41D,New York,NY,10022,1900000,3,3.5,Upper East Side,2400,,1974,697,792,,Active,,,http://www.redfin.com/NY/New-York/425-E-58th-St-10022/home/144879999,REBNY,SLOA323632,N,Y,40.758438,-73.9609158
MLS Listing,,Condo/Co-op,201 E 62nd St Unit 14D,New York,NY,10065,1750000,3,3.5,Upper East Side,,,1963,950,,,Active,January-14-2020 12:00 PM,January-14-2020 01:30 PM,http://www.redfin.com/NY/New-York/201-E-62nd-St-10065/home/45157731,REBNY,KLEI14819906,N,Y,40.7634085,-73.9647959
MLS Listing,,Condo/Co-op,252 W 85th St Unit 2B,New York,NY,10024,1750000,4,2,Upper West Side,,,1914,950,,,Active,,,http://www.redfin.com/NY/New-York/252-W-85th-St-10024/home/108532235,REBNY,HALS14340726,N,Y,40.7877636,-73.9778835
MLS Listing,,Condo/Co-op,635 W 42nd St Unit 32K,New York,NY,10036,2000000,3,2,Middle West Side,1050,,2007,950,1905,,Active,January-13-2020 10:00 AM,January-13-2020 06:45 PM,http://www.redfin.com/NY/New-York/635-W-42nd-St-10036/home/45191635,REBNY,R2RR2066718,N,Y,40.7617008,-73.9996228
MLS Listing,,Condo/Co-op,635 W 42nd St Unit 2L,New York,NY,10036,1800000,3,3,Middle West Side,,,2007,950,,,Active,January-13-2020 10:00 AM,January-13-2020 06:45 PM,http://www.redfin.com/NY/New-York/635-W-42nd-St-10036/home/45195459,REBNY,R2RR14880565,N,Y,40.7617008,-73.9996228
MLS Listing,,Condo/Co-op,370 Central Park W #108,New York,NY,10025,1750000,3,2,Upper West Side,,,1918,951,,,Active,,,http://www.redfin.com/NY/New-York/370-Central-Park-W-10025/home/108532198,REBNY,HALS14516687,N,Y,40.7923007,-73.9644183
MLS Listing,,Townhouse,161 Boardwalk Ave,Staten Island,NY,10312,1989000,4,5,S.E. Annadale,6536,10261,1989,1460,304,,Active,,,http://www.redfin.com/NY/Staten-Island/161-Boardwalk-Ave-10312/home/77401534,SIBORMLS,1100843,N,Y,40.52498,-74.167287
For-Sale-by-Owner Listing,,Multi-Family (2-4 Unit),569 Jefferson Ave,Brooklyn,NY,11221,1995000,5,2,Brooklyn,2875,1975,1910,160,694,,Active,,,http://www.redfin.com/NY/Brooklyn/569-Jefferson-Ave-11221/home/40721806,Fizber.com,5026286,N,Y,40.6851692,-73.9352416
