SALE TYPE,SOLD DATE,PROPERTY TYPE,ADDRESS,CITY,STATE OR PROVINCE,ZIP OR POSTAL CODE,PRICE,BEDS,BATHS,LOCATION,SQUARE FEET,LOT SIZE,YEAR BUILT,DAYS ON MARKET,$/SQUARE FEET,HOA/MONTH,STATUS,NEXT OPEN HOUSE START TIME,NEXT OPEN HOUSE END TIME,URL (SEE http://www.redfin.com/buy-a-home/comparative-market-analysis FOR INFO ON PRICING),SOURCE,MLS#,FAVORITE,INTERESTED,LATITUDE,LONGITUDE
MLS Listing,,Condo/Co-op,196-45 73 Ave Unit 2FL,Fresh Meadows,NY,11366,223800,1,1,Meadowlark Garden,,,1955,1,,,Active,January-11-2020 01:00 PM,January-11-2020 03:00 PM,http://www.redfin.com/NY/Fresh-Meadows/196-45-73rd-Ave-11365/unit-2FL/home/170231360,MLSLI,3190250,N,Y,40.7361175,-73.7759735
MLS Listing,,Condo/Co-op,86-55 Springfield Blvd,Queens Village,NY,11427,224000,2,1,Bell Park Manor Terrace,,,1955,1,,,Active,,,http://www.redfin.com/NY/Queens-Village/86-55-Springfield-Blvd-11427/Lowr/home/169222556,MLSLI,3190208,N,Y,40.7313087,-73.745907
MLS Listing,,Condo/Co-op,Unit at 87 -40 Francis Lewis Blvd,Queens,NY,11427,175000,1,1,Holliswood,,,,1,,,Active,,,http://www.redfin.com/NY/Jamaica/87-87-Francis-Lewis-Blvd-11427/home/170227827,REBNY,AKAM1863880,N,Y,40.7214667,-73.7594153
MLS Listing,,Condo/Co-op,229-10 Hillside Ave,Queens Village,NY,11427,215000,2,1,Bell Park Manor Terrace,,,1955,1,,,Active,,,http://www.redfin.com/NY/Queens-Village/229-10-Hillside-Ave-11427/Lowr/home/28659514,MLSLI,3190087,N,Y,40.7321134,-73.7390833
MLS Listing,,Condo/Co-op,87-40 Francis Lewis Blvd Unit B42,Queens Village,NY,11427,175000,1,1,Hilltop Village,,,1950,1,,,Active,,,http://www.redfin.com/NY/Queens-Village/87-40-Francis-Lewis-Blvd-11427/unit-B-42/home/148125040,MLSLI,3189863,N,Y,40.7224173,-73.7616979
MLS Listing,,Condo/Co-op,211-02 75th Ave Unit 3M,Oakland Gardens,NY,11364,220000,1,1,Windsor Park,,,1958,2,,,Active,,,http://www.redfin.com/NY/Oakland-Gardens/211-02-75th-Ave-11364/unit-3M/home/20631296,MLSLI,3189656,N,Y,40.7372482,-73.7610909
MLS Listing,,Condo/Co-op,10 E 43 St Unit 6J,Brooklyn,NY,11203,199900,1,1,Brooklyn,750,,,2,267,,Active,,,http://www.redfin.com/NY/Brooklyn/10-E-43rd-St-11203/unit-6J/home/166767177,BNYMLS,435714,N,Y,40.6558337,-73.9377792
MLS Listing,,Condo/Co-op,118-18 Union Tpke Unit 10J,Kew Gardens,NY,11415,179000,0,1,Park Lane South,,,1974,2,,,Active,January-12-2020 01:00 PM,January-12-2020 02:30 PM,http://www.redfin.com/NY/Kew-Gardens/118-18-Union-Tpke-11415/unit-10J/home/20629469,MLSLI,3189580,N,Y,40.7124154,-73.8339574
MLS Listing,,Condo/Co-op,1480 Thieriot Ave Unit 3H,Bronx,NY,10460,200000,2,1,Bronx,900,,1953,2,222,,Active,,,http://www.redfin.com/NY/The-Bronx/1480-Thieriot-Ave-10460/unit-3H/home/170216725,HGMLS,5122316,N,Y,40.8373634,-73.8651998
MLS Listing,,Condo/Co-op,1563 Metropolitan Ave Unit 7E,Bronx,NY,10462,179000,1,1,Bronx,586,,1950,3,305,694,Active,January-12-2020 03:00 PM,January-12-2020 05:00 PM,http://www.redfin.com/NY/The-Bronx/1563-Metropolitan-Ave-10462/unit-7E/home/44745309,HGMLS,6001501,N,Y,40.840226,-73.859844
MLS Listing,,Condo/Co-op,12399 Flatlands Ave Unit 7A,Brooklyn,NY,11207,199999,0,1,Meadow Wood At Gateway,349,,1995,3,573,229,Active,January-11-2020 12:00 PM,January-11-2020 02:00 PM,http://www.redfin.com/NY/Brooklyn/12399-Flatlands-Ave-11207/unit-7A/home/168206634,MLSLI,3189352,N,Y,40.657135,-73.8771225
MLS Listing,,Single Family Residential,114-17 N 147 St,call Listing Agent,NY,11436,199000,2,1,Jamaica,996,1999,1930,4,200,,Active,,,http://www.redfin.com/NY/Jamaica/114-17-147th-St-11436/home/20715191,HGMLS,6001230,N,Y,40.685134,-73.795788
MLS Listing,,Condo/Co-op,2055 Saint Raymond Ave Unit 2G,Bronx,NY,10462,195000,1,1,Bronx,650,,1920,4,300,,Active,January-11-2020 01:30 PM,January-11-2020 03:30 PM,http://www.redfin.com/NY/The-Bronx/2055-St-Raymond-Ave-10462/unit-2G/home/44793856,HGMLS,6001188,N,Y,40.8378324,-73.8566872
MLS Listing,,Condo/Co-op,1610 Metropolitan Ave Unit MD,Bronx,NY,10462,195000,1,1,Bronx,613,,1940,5,318,659,Active,,,http://www.redfin.com/NY/The-Bronx/1610-Metropolitan-Ave-10462/unit-MD/home/44792804,HGMLS,6000874,N,Y,40.8394552,-73.8562338
MLS Listing,,Condo/Co-op,3235 Emmons Ave #314,Brooklyn,NY,11235,221999,1,1,Brooklyn,550,,,5,404,,Active,,,http://www.redfin.com/NY/Brooklyn/3235-Emmons-Ave-11235/unit-314/home/40661927,BNYMLS,435636,N,Y,40.5844399,-73.9316116
MLS Listing,,Condo/Co-op,1380 Virginia Ave Unit 7D,Bronx,NY,10462,180000,1,1,Bronx,613,,1945,5,294,705,Active,,,http://www.redfin.com/NY/The-Bronx/1380-Virginia-Ave-10462/unit-7D/home/44722767,HGMLS,6000689,N,Y,40.8353871,-73.8616687
MLS Listing,,Condo/Co-op,Unit at 676 St Nicholas Ave,New York,NY,10030,225000,2,1,Harlem,,,,6,,,Active,,,http://www.redfin.com/NY/New-York/676-Saint-Nicholas-Ave-10030/home/170195292,REBNY,CORC5957416,N,Y,40.8231348,-73.9449168
MLS Listing,,Condo/Co-op,2062 E 58 St Unit 135A,Brooklyn,NY,11234,199000,1,1,Brooklyn,700,,1955,6,284,,Active,,,http://www.redfin.com/NY/Unknown/2062-E-58th-St-11234/unit-135-A/home/144954391,BNYMLS,435626,N,Y,40.6139542,-73.9175126
MLS Listing,,Condo/Co-op,Unit at 819 Trinity Ave,Bronx,NY,10456,209000,2,1.5,The Bronx ( Other),,,,6,,,Active,,,http://www.redfin.com/NY/The-Bronx/819-Trinity-Ave-10456/home/170195018,REBNY,ENGE2863154,N,Y,40.8209019,-73.9076618
MLS Listing,,Condo/Co-op,175-20 Wexford Ter Unit 1R,Jamaica,NY,11432,185000,1,1,Queens,,,1961,6,,,Active,,,http://www.redfin.com/NY/Jamaica/175-20-Wexford-Ter-11432/unit-1R/home/20642811,MLSLI,3188707,N,Y,40.7123926,-73.7875442
MLS Listing,,Condo/Co-op,20 Cliff St Unit 3r,Staten Island,NY,10305,175000,0,1,Fort Wadsworth,617,617,1965,6,284,534,Active,,,http://www.redfin.com/NY/Staten-Island/20-Cliff-St-10305/unit-3R/home/77417705,SIBORMLS,1134527,N,Y,40.6109595,-74.060351
MLS Listing,,Condo/Co-op,34-40 78th St Unit 1B,Jackson Heights,NY,11372,215000,0,1,Jackson Heights,,,1930,7,,,Active,,,http://www.redfin.com/NY/Jackson-Heights/34-40-78th-St-11372/unit-1B/home/170193069,MLSLI,3188423,N,Y,40.7519742,-73.8886506
MLS Listing,,Condo/Co-op,113-15 34th Ave Unit 5C,Corona,NY,11368,185000,2,1,Dorie Miller Housing Co.,850,,1953,8,218,,Active,,,http://www.redfin.com/NY/Corona/11315-34th-Ave-11368/unit-5C/home/58804796,MLSLI,3188342,N,Y,40.757602,-73.856235
MLS Listing,,Condo/Co-op,137-05 Franklin Ave Unit 3L,Flushing,NY,11355,219000,0,1,13705Franklin Owners Inc,,,1965,8,,,Active,,,http://www.redfin.com/NY/Flushing/137-05-Franklin-Ave-11355/unit-3L/home/20654344,MLSLI,3188282,N,Y,40.7550391,-73.827069
MLS Listing,,Condo/Co-op,1504 Metropolitan Ave Unit 1F,Bronx,NY,10462,197160,1,1,Bronx,573,,1945,8,344,,Active,,,http://www.redfin.com/NY/The-Bronx/1504-Metropolitan-Ave-10462/unit-1F/home/44742956,HGMLS,5130373,N,Y,40.8378709,-73.8586394
MLS Listing,,Condo/Co-op,Unit at 37 -20 87th St,Queens,NY,11372,178500,0,1,Jackson Heights,,,,8,,,Active,,,http://www.redfin.com/NY/Flushing/37-51-87th-St-11372/home/170186114,REBNY,CORE2863227,N,Y,40.748774,-73.879079
MLS Listing,,Condo/Co-op,69-37 213th St Unit A,Bayside,NY,11364,200000,1,1,Hollis Court,,,1950,9,,,Active,,,http://www.redfin.com/NY/Oakland-Gardens/69-37-213th-St-11364/unit-A/home/170176959,MLSLI,3188215,N,Y,40.740616,-73.7607572
MLS Listing,,Condo/Co-op,2059 Mcgraw Ave Unit 4D,Bronx,NY,10462,215000,1,1,Bronx,613,,1940,9,351,587,Active,,,http://www.redfin.com/NY/The-Bronx/2059-McGraw-Ave-10462/unit-4D/home/44744434,HGMLS,5130205,N,Y,40.835724,-73.856095
MLS Listing,,Condo/Co-op,215-47 47th Ave Unit 2B,Bayside,NY,11361,199888,2,1,Jeffrey Gardens,,,1950,9,,,Active,,,http://www.redfin.com/NY/Bayside/215-47-47th-Ave-11361/unit-2B/home/20652414,MLSLI,3188198,N,Y,40.7575351,-73.7652961
MLS Listing,,Condo/Co-op,108-50 62nd Dr Unit 6G,Forest Hills,NY,11375,218888,0,1,Oakwood,600,,1963,9,365,,Active,,,http://www.redfin.com/NY/Flushing/108-50-62nd-Dr-11375/unit-6G/home/170175670,MLSLI,3188129,N,Y,40.736005,-73.849174
MLS Listing,,Condo/Co-op,1440 East Ave Unit 4C,Bronx,NY,10462,210000,1,1,Bronx,613,,1940,10,343,,Active,,,http://www.redfin.com/NY/The-Bronx/1440-East-Ave-10462/unit-4C/home/44792208,HGMLS,5129959,N,Y,40.83473,-73.86062
MLS Listing,,Condo/Co-op,246 Cornelia St,Brooklyn,NY,11221,225000,1,1,Llc Holdings,,,1950,11,,,Active,,,http://www.redfin.com/NY/Brooklyn/246-Cornelia-St-11221/unit-D7/home/21452696,MLSLI,3187967,N,Y,40.6933281,-73.912077
MLS Listing,,Condo/Co-op,61-15 98th St Unit 11 A,Rego Park,NY,11374,219888,0,1,Park City Estates,550,,1960,12,400,,Active,,,http://www.redfin.com/NY/Flushing/61-15-98th-St-11374/unit-11A/home/40008155,MLSLI,3187912,N,Y,40.7346339,-73.8602384
MLS Listing,,Condo/Co-op,105-37 64 Ave Unit 1C,Forest Hills,NY,11375,225000,0,1,Aero Owners Inc.,,,1950,12,,,Active,,,http://www.redfin.com/NY/Forest-Hills/105-37-64th-Ave-11375/unit-1C/home/160358009,MLSLI,3187781,N,Y,40.733035,-73.8504522
MLS Listing,,Condo/Co-op,762 Brady Ave #323,Bronx,NY,10462,178000,1,1,Bronx,800,,1932,12,223,,Active,,,http://www.redfin.com/NY/The-Bronx/762-Brady-Ave-10462/unit-323/home/109966971,HGMLS,5129329,N,Y,40.8522312,-73.8652655
MLS Listing,,Condo/Co-op,46 Edgewater Park Unit A,Bronx,NY,10465,199000,1,1,Bronx,900,,1960,12,221,,Active,,,http://www.redfin.com/NY/The-Bronx/46-Edgewater-Park-10465/unit-A/home/169246884,HGMLS,5129383,N,Y,40.8225149,-73.8111172
MLS Listing,,Condo/Co-op,Unit at 50 Shore Blvd,Brooklyn,NY,11235,180000,0,1,Manhattan Beach,,,,13,,,Active,,,http://www.redfin.com/NY/Brooklyn/50-Shore-Blvd-11235/home/170164746,REBNY,CITI5955582,N,Y,40.581932,-73.9543051
MLS Listing,,Vacant Land,91-11 Holland Ave,Rockaway Beach,NY,11693,209000,,,Rockaway Beach,,1007,,13,,,Active,,,http://www.redfin.com/NY/Far-Rockaway/91-11-Holland-Ave-11693/home/23109765,MLSLI,3187686,N,Y,40.585378,-73.814154
MLS Listing,,Condo/Co-op,69-09 108 St #109,Forest Hills,NY,11375,185000,0,1,The Bradlee,500,,1939,13,370,,Active,,,http://www.redfin.com/NY/Forest-Hills/6909-108th-St-11375/unit-109/home/20643086,MLSLI,3187668,N,Y,40.7249599,-73.84549
MLS Listing,,Condo/Co-op,175-45 88th Ave Unit 2s,Jamaica,NY,11432,200000,1,1,Compton Houses,,,1960,13,,542,Active,,,http://www.redfin.com/NY/Jamaica/175-45-88th-Ave-11432/unit-2S/home/168691730,MLSLI,3187619,N,Y,40.7115879,-73.7857059
MLS Listing,,Condo/Co-op,249-28 60th Ave #411,Little Neck,NY,11362,219000,1,1,Deepdale Gardens,800,,1952,15,274,,Active,,,http://www.redfin.com/NY/Little-Neck/24928-60th-Ave-11362/unit-411/home/20652619,MLSLI,3187567,N,Y,40.7583399,-73.7306
MLS Listing,,Condo/Co-op,7520 Ridge Blvd Unit 2B,Brooklyn,NY,11209,218000,0,1,Brooklyn,550,,1956,19,396,,Active,,,http://www.redfin.com/NY/Brooklyn/7520-Ridge-Blvd-11209/unit-2B/home/40663980,BNYMLS,435484,N,Y,40.6316484,-74.0309762
MLS Listing,,Single Family Residential,603 Harding Park,Bronx,NY,10473,195000,2,2,Bronx,1024,1742,1945,20,190,19,Active,,,http://www.redfin.com/NY/The-Bronx/603-Harding-Park-10473/home/44768114,HGMLS,5128040,N,Y,40.80651,-73.8578828
MLS Listing,,Single Family Residential,,Bronx,NY,10472,225000,3,1,Unionport,1088,2266,1940,20,207,,Active,,,http://www.redfin.com/NY/The-Bronx/Undisclosed-address-10472/home/44723615,MLSLI,3187013,N,Y,40.829631,-73.855198
MLS Listing,,Condo/Co-op,57-89 246 Cres Unit E2,Douglaston,NY,11362,204900,1,1,Beech Hills,,,1953,21,,,Active,,,http://www.redfin.com/NY/Little-Neck/57-89-246th-Cres-11362/unit-E2/home/20649303,MLSLI,3186944,N,Y,40.7589994,-73.7333282
MLS Listing,,Vacant Land,210 Gordon St,Staten Island,NY,10304,175000,0,,Stapleton,,3000,,21,,,Active,,,http://www.redfin.com/NY/Staten-Island/210-Gordon-St-10304/home/170129387,SIBORMLS,1134376,N,Y,40.6223184,-74.0832371
MLS Listing,,Condo/Co-op,3850 Hudson Manor Ter Unit 1EW,Bronx,NY,10463,179000,1,1,Riverdale,750,,1956,22,239,,Active,,,http://www.redfin.com/NY/The-Bronx/3850-Hudson-Manor-Ter-10463/unit-1EW/home/53615127,HGMLS,5127290,N,Y,40.88954,-73.9152547
MLS Listing,,Condo/Co-op,340 E Mosholu Pkwy S Unit 2-J,Bronx,NY,10458,219000,2,1,Bronx,820,,1937,22,267,,Active,,,http://www.redfin.com/NY/Bronx/340-E-Mosholu-Pkwy-S-10458/unit-2-J/home/145072604,HGMLS,5127496,N,Y,40.8704816,-73.8823104
MLS Listing,,Condo/Co-op,1585 Odell St Unit 4F,BRONX,NY,10462,200000,1,1,Parkchester S. Condos,,,1941,22,,,Active,,,http://www.redfin.com/NY/The-Bronx/1585-Odell-St-10462/unit-4F/home/44600290,MLSLI,3186735,N,Y,40.8390805,-73.8552515
MLS Listing,,Condo/Co-op,679 W 239th St Unit 5E,Bronx,NY,10463,224900,1,1,Riverdale,800,,1960,22,281,,Active,January-12-2020 12:00 PM,January-12-2020 02:00 PM,http://www.redfin.com/NY/The-Bronx/679-W-239th-St-10463/unit-5E/home/55548387,HGMLS,5127412,N,Y,40.8901764,-73.9146261
MLS Listing,,Condo/Co-op,159-16 16 Ave,Whitestone,NY,11357,220000,1,1,Clearview Gardens,,,1950,22,,,Active,,,http://www.redfin.com/NY/Whitestone/159-16-16th-Ave-11357/unit-RESD/home/20654762,MLSLI,3186608,N,Y,40.7845644,-73.8029001
MLS Listing,,Condo/Co-op,2251 Knapp St Unit 4B,Brooklyn,NY,11229,198000,2,1,Brooklyn,1100,,,22,180,,Active,,,http://www.redfin.com/NY/Brooklyn/2251-Knapp-St-11229/unit-4B/home/170120763,BNYMLS,435416,N,Y,40.598354,-73.9335111
MLS Listing,,Condo/Co-op,142-20 84 Dr Unit 4F,Briarwood,NY,11435,180000,0,1,Sherry Plaza,,,1959,22,,,Active,,,http://www.redfin.com/NY/Unknown/142-20-84th-Dr-11435/unit-4F/home/108546997,MLSLI,3186598,N,Y,40.710665,-73.814272
MLS Listing,,Condo/Co-op,Unit at 854 Intervale Ave,Bronx,NY,10459,175000,2,1,Longwood,,,,23,,,Active,,,http://www.redfin.com/NY/The-Bronx/854-Intervale-Ave-10459/home/113006321,REBNY,CORC5951029,N,Y,40.8181114,-73.8953878
MLS Listing,,Condo/Co-op,64-34 102 St Unit 11Y,Rego Park,NY,11374,208800,0,1,Carol House,,,1955,23,,,Active,January-9-2020 05:00 PM,January-9-2020 07:00 PM,http://www.redfin.com/NY/Flushing/64-34-102nd-St-11374/unit-11Y/home/40479670,MLSLI,3186405,N,Y,40.7307101,-73.853121
MLS Listing,,Condo/Co-op,16-05 160 St Unit 6-275,Whitestone,NY,11357,219888,1,1,Clearview Gardens,,,1955,26,,,Active,,,http://www.redfin.com/NY/Whitestone/1605-160th-St-11357/unit-6-275/home/21689324,MLSLI,3186223,N,Y,40.7844579,-73.8022276
MLS Listing,,Condo/Co-op,69-17 213th St Unit A,Oakland Gardens,NY,11364,200000,1,1,Hollis Court,,,1950,26,,,Active,,,http://www.redfin.com/NY/Oakland-Gardens/69-17-213th-St-11364/unit-A/home/170086580,MLSLI,3186167,N,Y,40.7409398,-73.7610656
MLS Listing,,Condo/Co-op,89-100 170 St Unit 3M,Jamaica,NY,11432,209000,1,1,Avalon Terrace,,,1950,26,,,Active,,,http://www.redfin.com/NY/Jamaica/89-0-170th-St-11432/unit-3M/home/160670284,MLSLI,3186142,N,Y,40.7092149,-73.79123
MLS Listing,,Vacant Land,599 Ashford St,Brooklyn,NY,11207,195000,,,Brooklyn,,1800,,27,,,Active,,,http://www.redfin.com/NY/Brooklyn/599-Ashford-St-11207/home/160669551,BNYMLS,435338,N,Y,40.667296,-73.883174
MLS Listing,,Vacant Land,724 E 235 St,Brooklyn,NY,10466,195000,,,Brooklyn,,2511,,27,,,Active,,,http://www.redfin.com/NY/The-Bronx/724-E-235th-St-10466/home/109539293,BNYMLS,435337,N,Y,40.8944047,-73.8556372
MLS Listing,,Condo/Co-op,1855 East 12 St Unit 4F,Brooklyn,NY,11229,214000,0,1,Brooklyn,500,,,27,428,,Active,,,http://www.redfin.com/NY/Brooklyn/1855-E-12th-St-11229/unit-4F/home/170068243,BNYMLS,435324,N,Y,40.6041775,-73.9603087
MLS Listing,,Condo/Co-op,2280 Burnett St Unit 1G,Brooklyn,NY,11229,215000,1,1,Brooklyn,750,,,27,287,,Active,,,http://www.redfin.com/NY/Brooklyn/2280-Burnett-St-11229/unit-1G/home/40654567,BNYMLS,435321,N,Y,40.6011442,-73.9321383
MLS Listing,,Condo/Co-op,2727 Palisade Ave Unit 3M,Bronx,NY,10463,200000,1,1,Riverdale,800,,1955,27,250,,Active,,,http://www.redfin.com/NY/The-Bronx/2727-Palisade-Ave-10463/unit-3M/home/170067010,HGMLS,5126303,N,Y,40.8830657,-73.9206428
MLS Listing,,Condo/Co-op,210-15 23rd Ave Unit 3B,Bayside,NY,11360,199888,1,1,Bay Terrace Section 10,,,1954,28,,,Active,,,http://www.redfin.com/NY/Bayside/210-15-23rd-Ave-11360/unit-3B/home/148353065,MLSLI,3185784,N,Y,40.7795237,-73.7810994
MLS Listing,,Condo/Co-op,2140 Knapp St Unit 3E,Brooklyn,NY,11229,180000,2,1,Brooklyn,950,,,28,189,,Active,,,http://www.redfin.com/NY/Brooklyn/2140-Knapp-St-11229/unit-3E/home/170057078,BNYMLS,435291,N,Y,40.6002044,-73.9344149
MLS Listing,,Condo/Co-op,175-45 88th Ave Unit 7R,Jamaica Hills,NY,11432,189000,1,1,Compton House,,,1963,29,,,Active,,,http://www.redfin.com/NY/Jamaica/175-45-88th-Ave-11432/unit-7R/home/20642467,MLSLI,3185466,N,Y,40.7115879,-73.7857059
MLS Listing,,Condo/Co-op,2711 Avenue X Unit 6B,Brooklyn,NY,11235,205000,1,1,Brooklyn,900,,1961,29,228,,Active,,,http://www.redfin.com/NY/Unknown/2711-Avenue-X-11235/unit-6B/home/147072634,BNYMLS,435281,N,Y,40.5937293,-73.9431003
MLS Listing,,Condo/Co-op,103-25 68 Ave Unit 6J,Forest Hills,NY,11375,200000,0,1,Presidential,500,,1955,30,400,,Active,,,http://www.redfin.com/NY/Flushing/103-25-68th-Ave-11375/unit-6J/home/28605901,MLSLI,3185285,N,Y,40.726147,-73.850004
MLS Listing,,Condo/Co-op,141-10 25 Rd Unit 5A,Flushing,NY,11354,199000,1,1,Mitchell Gardens #3,,,1955,30,,,Active,,,http://www.redfin.com/NY/Flushing/141-10-25th-Rd-11354/unit-5A/home/167021918,MLSLI,3185275,N,Y,40.7756964,-73.8274744
MLS Listing,,Condo/Co-op,821 Underhill Ave Unit 4C,Bronx,NY,10473,197800,2,1.5,Bronx,936,35479,1988,33,211,523,Active,,,http://www.redfin.com/NY/The-Bronx/821-Underhill-Ave-10473/unit-4C/home/44723258,HGMLS,5117480,N,Y,40.8221346,-73.8604111
MLS Listing,,Condo/Co-op,83-20 98 St Unit 3B,Woodhaven,NY,11421,200000,1,1,Forest Park Co-Ops,,,1955,33,,,Active,,,http://www.redfin.com/NY/Woodhaven/8320-98th-St-11421/unit-3B/home/28645389,MLSLI,3184728,N,Y,40.6993852,-73.8517383
MLS Listing,,Condo/Co-op,1170 Ocean Pkwy Unit 9L,Brooklyn,NY,11230,219500,1,1,Brooklyn,800,,1965,33,274,,Active,January-12-2020 01:00 PM,January-12-2020 03:00 PM,http://www.redfin.com/NY/Brooklyn/1170-Ocean-Pkwy-11230/unit-9L/home/40660008,BNYMLS,435202,N,Y,40.6201214,-73.9704227
MLS Listing,,Condo/Co-op,71-08 252 St Unit 73B,Bellerose,NY,11426,200000,1,1,Parkwood Estates,,,1950,33,,,Active,,,http://www.redfin.com/NY/Queens/7108-252nd-St-11426/unit-73B/home/113706726,MLSLI,3184685,N,Y,40.7516812,-73.7224389
MLS Listing,,Condo/Co-op,Unit at 759 E 10th St,Brooklyn,NY,11230,225000,0,1,Midwood,,,,33,,,Active,,,http://www.redfin.com/NY/Brooklyn/759-E-10th-St-11230/home/63688178,REBNY,UCOM1340632,N,Y,40.6305464,-73.9669786
MLS Listing,,Condo/Co-op,1199 E 53 St Unit 5N,Brooklyn,NY,11234,199000,2,1,Brooklyn,900,,,34,221,,Active,,,http://www.redfin.com/NY/Brooklyn/1199-E-53rd-St-11234/unit-5N/home/166690353,BNYMLS,435155,N,Y,40.6296957,-73.9249407
MLS Listing,,Condo/Co-op,Unit at 2 E 55th St,New York,NY,10022,190000,2,2,Middle East Side,,,,34,,,Active,,,http://www.redfin.com/NY/New-York/2-E-55th-St-10022/home/114815985,REBNY,UCOM781859,N,Y,40.7613979,-73.9746128
MLS Listing,,Condo/Co-op,Unit at 40 E 43rd St,Brooklyn,NY,11203,175000,1,1,East Flatbush,,,,34,,,Active,,,http://www.redfin.com/NY/Unknown/40-E-43rd-St-11203/home/147153597,REBNY,UCOM1775574,N,Y,40.6554262,-73.9379352
MLS Listing,,Single Family Residential,112-11 204th St,Jamaica,NY,11412,189000,3,2.5,Jamaica,,1782,1935,35,,,Active,,,http://www.redfin.com/NY/Jamaica/112-11-204th-St-11412/home/20743162,MLSLI,3184303,N,Y,40.703342,-73.751897
MLS Listing,,Condo/Co-op,5900 Arlington Ave Unit 7P,Bronx,NY,10471,195000,0,1,Bronx,457,,1962,35,427,,Active,,,http://www.redfin.com/NY/The-Bronx/5900-Arlington-Ave-10471/unit-7P/home/92224802,HGMLS,5124041,N,Y,40.9092281,-73.9056859
MLS Listing,,Condo/Co-op,4380 Vireo Ave Unit 5A,Bronx,NY,10470,199000,2,1,Bronx,900,,1968,36,221,,Active,,,http://www.redfin.com/NY/The-Bronx/4380-Vireo-Ave-10470/unit-5A/home/44753217,HGMLS,5124003,N,Y,40.9010173,-73.8627684
MLS Listing,,Condo/Co-op,Unit at 8105 Fourth Ave,Brooklyn,NY,11209,209000,0,1,Bay Ridge,,,,36,,,Active,,,http://www.redfin.com/NY/Brooklyn/8105-4th-Ave-11209/home/40651442,REBNY,CITI5944319,N,Y,40.625945,-74.0267532
MLS Listing,,Condo/Co-op,50 Shore Blvd Unit 3A,Brooklyn,NY,11235,210000,0,1,Brooklyn,550,,,36,382,,Active,,,http://www.redfin.com/NY/Brooklyn/50-Shore-Blvd-11235/unit-3a/home/170002321,BNYMLS,435110,N,Y,40.581932,-73.9543051
MLS Listing,,Condo/Co-op,67-12 Yellowstone Blvd Unit C3,Forest Hills,NY,11375,225000,0,1,Colorado,680,,1951,36,331,,Active,,,http://www.redfin.com/NY/Forest-Hills/6712-Yellowstone-Blvd-11375/unit-C3/home/112928037,MLSLI,3183901,N,Y,40.7284499,-73.8492399
MLS Listing,,Condo/Co-op,2860 Bailey Ave Unit 7H,Bronx,NY,10463,215000,2,1,Bronx,1000,,1955,36,215,,Active,,,http://www.redfin.com/NY/Bronx/2860-Bailey-Ave-10463/unit-7H/home/144791462,HGMLS,5123901,N,Y,40.874843,-73.9042206
MLS Listing,,Single Family Residential,1 Metropolitan Oval,Bronx,NY,10462,225000,,,Parkchester,,,,37,,,Active,,,http://www.redfin.com/NY/The-Bronx/1-Metropolitan-Oval-10462/home/44599908,REBNY,CITI5943205,N,Y,40.83904,-73.8604773
MLS Listing,,Single Family Residential,84 MARSHALL St,Elizabeth City,NJ,07206-1637,185000,2,1,Elizabeth City,,3049,,38,,,Active,,,http://www.redfin.com/NJ/Elizabeth/84-Marshall-St-07206/home/37840100,GSMLS,3603470,N,Y,40.6464822,-74.1899698
MLS Listing,,Condo/Co-op,3500 Snyder Ave Unit 2A,Brooklyn,NY,11203,179000,1,1,Brooklyn,700,,1950,44,256,,Active,,,http://www.redfin.com/NY/Brooklyn/3500-Snyder-Ave-11203/unit-2A/home/169942021,BNYMLS,434983,N,Y,40.648922,-73.9440808
MLS Listing,,Condo/Co-op,875 Morrison Ave Unit 17M,Bronx,NY,10473,200000,1,1,Bronx,750,,1962,44,267,,Active,,,http://www.redfin.com/NY/The-Bronx/875-Morrison-Ave-10473/unit-17M/home/44805275,HGMLS,5122178,N,Y,40.8216704,-73.873469
MLS Listing,,Condo/Co-op,2547 W 2 St Unit 1C,Brooklyn,NY,11223,205000,1,1,Brooklyn,800,,,44,256,,Active,January-12-2020 12:00 PM,January-12-2020 01:30 PM,http://www.redfin.com/NY/Brooklyn/2547-W-2nd-St-11223/unit-1C/home/169940289,BNYMLS,434935,N,Y,40.5871568,-73.9709274
MLS Listing,,Condo/Co-op,3850 Hudson Manor Ter Unit EW,Bronx,NY,10463,219900,1,1,Bronx,750,,1960,44,293,,Active,,,http://www.redfin.com/NY/The-Bronx/3850-Hudson-Manor-Ter-10463/unit-EW/home/44764347,HGMLS,5122176,N,Y,40.889502,-73.914831
MLS Listing,,Condo/Co-op,Unit at 665 Thwaites Pl,New York,NY,10467,209900,1,1,Inwood,,,,45,,,Active,,,http://www.redfin.com/NY/The-Bronx/665-Thwaites-Pl-10467/home/169937026,REBNY,HGLR3390,N,Y,40.8589791,-73.8689782
MLS Listing,,Condo/Co-op,Unit at 3875 Waldo Ave,Bronx,NY,10463,175000,1,1,Riverdale,,,,46,,,Active,,,http://www.redfin.com/NY/The-Bronx/3875-Waldo-Ave-10463/home/169932649,REBNY,BACH19970088,N,Y,40.8890553,-73.9033819
MLS Listing,,Condo/Co-op,Unit at 825 Walton Ave,Bronx,NY,10451,225000,1,1,The Bronx ( Other),,,,47,,,Active,,,http://www.redfin.com/NY/The-Bronx/825-Walton-Ave-10451/home/59302322,REBNY,BOND1601378,N,Y,40.8259888,-73.9251666
MLS Listing,,Condo/Co-op,71-11 Yellowstone Blvd,Forest Hills,NY,11375,219990,0,1,The Kentucky,,,1952,47,,,Active,January-11-2020 12:00 PM,January-11-2020 02:00 PM,http://www.redfin.com/NY/Flushing/71-11-Yellowstone-Blvd-11375/home/20891175,MLSLI,3182421,N,Y,40.721645,-73.853695
MLS Listing,,Condo/Co-op,601 Kappock St Unit 6F,Bronx,NY,10463,175000,1,1,Riverdale,800,,1963,47,219,,Active,January-12-2020 01:30 PM,January-12-2020 02:30 PM,http://www.redfin.com/NY/The-Bronx/601-Kappock-St-10463/unit-6F/home/169918453,HGMLS,5121234,N,Y,40.8790063,-73.9161022
MLS Listing,,Condo/Co-op,221-27 Braddock Ave,Queens Village,NY,11427,219000,2,1,Bell Park Manor,,,1950,48,,,Active,,,http://www.redfin.com/NY/Queens-Village/221-27-Braddock-Ave-11427/Uppr/home/20631247,MLSLI,3182153,N,Y,40.7297464,-73.740317
MLS Listing,,Condo/Co-op,Unit at 4 Fordham Hill Oval,Bronx,NY,10468,205000,1,1,University Heights,,,,48,,,Active,,,http://www.redfin.com/NY/The-Bronx/4-Fordham-Hill-Oval-10468/home/44753124,REBNY,LLGI2818071,N,Y,40.8652278,-73.9079607
MLS Listing,,Condo/Co-op,Unit at 3245 Perry Ave,Bronx,NY,10467,199000,2,1,Norwood,,,,48,,,Active,,,http://www.redfin.com/NY/The-Bronx/3245-Perry-Ave-10467/home/169911347,REBNY,CITI5939994,N,Y,40.8758111,-73.8765929
MLS Listing,,Condo/Co-op,99-40 63rd Rd Unit 11H,Rego Park,NY,11374,199888,0,1,Anita Terrace,,,1960,48,,,Active,,,http://www.redfin.com/NY/Unknown/99-40-63rd-Rd-11374/unit-11H/home/147285208,MLSLI,3181990,N,Y,40.7323372,-73.855552
MLS Listing,,Condo/Co-op,180 Van Cortlandt Park South Unit 2b,Bronx,NY,10463,224999,1,1,Bronx,746,,1956,49,302,,Active,,,http://www.redfin.com/NY/The-Bronx/180-Van-Cortlandt-Park-S-10463/unit-2B/home/44801772,HGMLS,5119486,N,Y,40.886021,-73.899405
MLS Listing,,Condo/Co-op,39-35 51st St Unit 2-E,Woodside,NY,11377,218000,0,1,Sunny Hills,425,,1951,49,513,,Active,,,http://www.redfin.com/NY/Woodside/39-35-51st-St-11377/unit-2-E/home/169905091,MLSLI,3181826,N,Y,40.7475435,-73.9127937
MLS Listing,,Condo/Co-op,61-15 251st St #1099,Little Neck,NY,11362,189000,1,1,Deepdale Gardens,600,,1950,49,315,,Active,,,http://www.redfin.com/NY/Little-Neck/6115-251st-St-11362/unit-1099/home/169903770,MLSLI,3181761,N,Y,40.7573899,-73.7277399
MLS Listing,,Condo/Co-op,5800 Arlington Ave Unit 16N,Bronx,NY,10471,175000,0,1,Riverdale,500,,1960,49,350,,Active,January-12-2020 01:00 PM,January-12-2020 02:00 PM,http://www.redfin.com/NY/The-Bronx/5800-Arlington-Ave-10471/unit-16N/home/44763495,HGMLS,5121011,N,Y,40.9080135,-73.9055787
MLS Listing,,Condo/Co-op,5612 Avenue T Unit 61C,Brooklyn,NY,11236,215000,2,1,Brooklyn,850,,,50,253,,Active,,,http://www.redfin.com/NY/Brooklyn/5612-Avenue-T-11234/unit-61C/home/169896486,BNYMLS,434878,N,Y,40.613826,-73.9204017
MLS Listing,,Condo/Co-op,83-64 Talbot St Unit 6A,Kew Gardens,NY,11415,209880,1,1,Talbot,,,1931,50,,,Active,,,http://www.redfin.com/NY/Kew-Gardens/83-64-Talbot-St-11415/unit-6A/home/20654826,MLSLI,3181557,N,Y,40.7084091,-73.8276432
MLS Listing,,Condo/Co-op,2251 Plumb 1st Spg Unit 4A,Brooklyn,NY,11229,219000,2,1,Brooklyn,795,,,50,275,,Active,,,http://www.redfin.com/NY/Brooklyn/2251-Plumb-1st-St-11229/unit-4A/home/40654699,BNYMLS,434871,N,Y,40.5988027,-73.9323382
MLS Listing,,Condo/Co-op,89-21 Shore Pkwy #2,Howard Beach,NY,11414,179000,1,1,Vineyard,,,1960,50,,,Active,,,http://www.redfin.com/NY/Howard-Beach/8921-Shore-Pkwy-11414/unit-2/home/169895508,MLSLI,3181514,N,Y,40.6649746,-73.8454336
MLS Listing,,Condo/Co-op,724 E 221 St Unit 3A,Bronx,NY,10467,225000,2,1,Bronx,682,,2005,50,330,259,Active,,,http://www.redfin.com/NY/The-Bronx/724-E-221st-St-10467/unit-3A/home/44800118,HGMLS,5120871,N,Y,40.8845587,-73.8611791
MLS Listing,,Condo/Co-op,1040 Neilson St Unit 5 M,Far Rockaway,NY,11691,195000,3,2,Max Properties,,,1960,53,,,Active,,,http://www.redfin.com/NY/Far-Rockaway/1040-Neilson-St-11691/unit-5M/home/21689258,MLSLI,3181033,N,Y,40.6043757,-73.7475099
MLS Listing,,Condo/Co-op,67-12 Yellowstone Blvd Unit E3,Forest Hills,NY,11375,219000,1,1,The Colorado,650,,1960,54,337,,Active,,,http://www.redfin.com/NY/Forest-Hills/6712-Yellowstone-Blvd-11375/unit-E3/home/20622671,MLSLI,3180693,N,Y,40.7284499,-73.8492399
MLS Listing,,Condo/Co-op,25 Burns St Unit 1C,Forest Hills,NY,11375,215000,0,1,Garden Arms,,,1925,54,,,Active,,,http://www.redfin.com/NY/Flushing/25-Burns-St-11375/unit-1C/home/20658348,MLSLI,3180674,N,Y,40.7189036,-73.8441653
MLS Listing,,Condo/Co-op,96-11 65 Rd #412,Rego Park,NY,11374,218000,0,1,Heart Of Rego Park,,,1939,55,,,Active,,,http://www.redfin.com/NY/Rego-Park/9611-65th-Rd-11374/unit-412/home/20637404,MLSLI,3180594,N,Y,40.7271099,-73.859
MLS Listing,,Condo/Co-op,3080 Voorhies Ave Unit 1h,Brooklyn,NY,11235,215000,1,1,Sheepshead Bay,750,750,1950,56,287,522,Active,,,http://www.redfin.com/NY/Brooklyn/3080-Voorhies-Ave-11235/unit-1H/home/113968594,SIBORMLS,1133792,N,Y,40.587582,-73.933105
MLS Listing,,Condo/Co-op,2265 Gerritsen Ave Unit 4R,Brooklyn,NY,11229,225000,1,1,Brooklyn,800,,1960,56,281,,Active,January-12-2020 01:00 PM,January-12-2020 03:00 PM,http://www.redfin.com/NY/Brooklyn/2265-Gerritsen-Ave-11229/unit-4R/home/163842957,BNYMLS,434709,N,Y,40.600681,-73.933424
MLS Listing,,Condo/Co-op,97-52 75th St Unit B24,Ozone Park,NY,11416,199000,1,1,Kaybern Court Condos,,13500,1927,56,,,Active,,,http://www.redfin.com/NY/Jamaica/9752-75th-St-11416/unit-B24/home/20785829,MLSLI,3180184,N,Y,40.6797558,-73.8627453
MLS Listing,,Condo/Co-op,144-01 78th Rd,Flushing,NY,11367,199000,1,1,Kew Gardens Hills,600,,1945,57,332,,Active,January-8-2020 06:30 PM,January-8-2020 08:00 PM,http://www.redfin.com/NY/Flushing/14401-78th-Rd-11367/unit-3C/home/20640265,MLSLI,3179800,N,Y,40.71999,-73.81715
MLS Listing,,Condo/Co-op,99-72 66 Rd Unit 5F,Rego Park,NY,11374,198000,0,1,Howard Building,450,,1950,58,440,,Active,,,http://www.redfin.com/NY/Rego-Park/9972-66th-Rd-11374/unit-5F/home/169773392,MLSLI,3179596,N,Y,40.7276142,-73.8546583
MLS Listing,,Condo/Co-op,2962 Decatur Ave Unit 3-D,Bronx,NY,10468,189900,1,1,Bronx,822,,1939,58,231,,Active,,,http://www.redfin.com/NY/Bronx/2962-Decatur-AVE-10468/unit-3-D/home/169771023,HGMLS,5118507,N,Y,40.8687887,-73.8977693
MLS Listing,,Condo/Co-op,601 Pelham Pkwy N #505,Bronx,NY,10467,199900,1,1,Bronx,730,,1937,58,274,,Active,,,http://www.redfin.com/NY/Bronx/601-Pelham-Pkwy-N-10467/unit-505/home/53614087,HGMLS,5113077,N,Y,40.8577513,-73.8706667
MLS Listing,,Condo/Co-op,125 Bronx River Rd Unit 6-L,Yonkers,NY,10704,195000,1,1,Yonkers,1000,,1965,59,195,,Active,,,http://www.redfin.com/NY/Yonkers/125-Bronx-River-Rd-10704/unit-6-L/home/169770238,HGMLS,5119064,N,Y,40.9056542,-73.8586761
MLS Listing,,Condo/Co-op,,Briarwood,NY,11432,219000,1,1,Berkshire Owners Inc.,,,1950,60,,,Active,,,http://www.redfin.com/NY/Jamaica/Undisclosed-address-11435/home/20648936,MLSLI,3179329,N,Y,40.713024,-73.822992
MLS Listing,,Condo/Co-op,3475 Greystone Ave Unit 5E,Bronx,NY,10463,179000,1,1,Riverdale,910,,1960,61,197,,Active,,,http://www.redfin.com/NY/The-Bronx/3475-Greystone-Ave-10463/unit-5E/home/169735316,HGMLS,5118850,N,Y,40.8850075,-73.9070017
MLS Listing,,Condo/Co-op,172 Arlo Rd Unit B,Staten Island,NY,10301,214900,1,1,Grymes Hill,650,650,1951,62,331,680,Active,,,http://www.redfin.com/NY/Staten-Island/172-Arlo-Rd-10301/unit-B/home/77421765,SIBORMLS,1133635,N,Y,40.6190179,-74.0958129
MLS Listing,,Condo/Co-op,Unit at 300 Eighth Ave,Brooklyn,NY,11215,200000,0,1,Park Slope,,,,63,,,Active,,,http://www.redfin.com/NY/Brooklyn/300-8th-Ave-11215/home/169682036,REBNY,GARF105413,N,Y,40.669315,-73.9766659
MLS Listing,,Condo/Co-op,86-10 151 Ave Unit 4H,Howard Beach,NY,11414,189888,1,1,Greenwood Arms,,,1960,64,,,Active,,,http://www.redfin.com/NY/Jamaica/86-10-151st-Ave-11414/unit-4H/home/20647879,MLSLI,3178304,N,Y,40.667896,-73.848862
MLS Listing,,Condo/Co-op,212-16 36 Ave Unit 2A,Bayside,NY,11361,195000,1,1,Bell Court,,,1945,64,,,Active,,,http://www.redfin.com/NY/Bayside/212-16-36th-Ave-11361/unit-2A/home/20649964,MLSLI,3178078,N,Y,40.7675944,-73.7744014
MLS Listing,,Condo/Co-op,2270 Plumb 1 St Unit 2G,Brooklyn,NY,11229,180000,2,1,Brooklyn,900,,,65,200,,Active,,,http://www.redfin.com/NY/Brooklyn/2270-Plumb-1st-St-11229/unit-2G/home/169645255,BNYMLS,434486,N,Y,40.5979678,-73.9327784
MLS Listing,,Condo/Co-op,89-00 170 St Unit 3 K,Jamaica,NY,11432,219000,1,1,Avalon Terrace,,,1957,65,,,Active,,,http://www.redfin.com/NY/Jamaica/89-00-170th-St-11432/unit-3K/home/20640523,MLSLI,3177766,N,Y,40.7092156,-73.7912209
MLS Listing,,Condo/Co-op,113-15 34th Ave Unit 1F,Corona,NY,11368,189000,2,1,Dorie Miller,,,1953,68,,,Active,,,http://www.redfin.com/NY/Corona/11315-34th-Ave-11368/unit-1F/home/21505864,MLSLI,3177531,N,Y,40.757602,-73.856235
MLS Listing,,Condo/Co-op,Unit at 2420 Morris Ave,Bronx,NY,10468,200000,2,1,Fordham,,,,68,,,Active,,,http://www.redfin.com/NY/The-Bronx/2420-Morris-Ave-10468/home/169632401,REBNY,CITI5927896,N,Y,40.8609075,-73.90002
MLS Listing,,Condo/Co-op,90-11 Northern Blvd #607,Jackson Heights,NY,11372,222000,1,1,Northridge Section 2,,,1953,69,,,Active,,,http://www.redfin.com/NY/Jackson-Heights/9011-Northern-Blvd-11372/unit-607/home/169195293,MLSLI,3177201,N,Y,40.7563399,-73.87792
MLS Listing,,Condo/Co-op,9975 Shore Rd Unit 10A,Brooklyn,NY,11209,200000,0,1,Brooklyn,400,,1983,69,500,,Active,,,http://www.redfin.com/NY/Brooklyn/9975-Shore-Rd-11209/unit-10A/home/40652245,BNYMLS,434231,N,Y,40.6121903,-74.0354196
MLS Listing,,Condo/Co-op,160-25 16 Ave,Whitestone,NY,11357,213800,1,1,Clearview Gardens,650,,1960,70,329,,Active,,,http://www.redfin.com/NY/Whitestone/160-25-16th-Ave-11357/unit-6249/home/20638263,MLSLI,3176845,N,Y,40.7848755,-73.8010247
MLS Listing,,Condo/Co-op,99-72 66 Rd Unit 1A,Rego Park,NY,11374,199000,0,1,The Howard,,,1952,70,,,Active,January-12-2020 12:30 PM,January-12-2020 02:00 PM,http://www.redfin.com/NY/Rego-Park/9972-66th-Rd-11374/unit-1A/home/20655681,MLSLI,3176686,N,Y,40.7276142,-73.8546583
MLS Listing,,Condo/Co-op,86-16 60th Ave Unit 6G,Elmhurst,NY,11373,209000,1,1,Caroline Gardens,,,1963,70,,,Active,,,http://www.redfin.com/NY/Elmhurst/86-16-60th-Ave-11373/unit-6G/home/20656589,MLSLI,3176680,N,Y,40.7306154,-73.8731934
MLS Listing,,Condo/Co-op,55 E 190 St #53,Bronx,NY,10468,219900,1,1,Bronx,925,,1941,70,238,,Active,,,http://www.redfin.com/NY/Bronx/55-E-190th-St-10468/unit-53/home/80142099,HGMLS,5113100,N,Y,40.8634176,-73.8989817
MLS Listing,,Condo/Co-op,Unit at 50 Kenilworth Pl,Brooklyn,NY,11210,199000,1,1,Flatbush,,,,71,,,Active,,,http://www.redfin.com/NY/Brooklyn/50-Kenilworth-Pl-11210/home/40649950,REBNY,UCOM1856636,N,Y,40.6344763,-73.9510906
MLS Listing,,Condo/Co-op,Unit at 39 -75 56th St,Queens,NY,11377,200000,0,1,Woodside,,,,73,,,Active,,,http://www.redfin.com/NY/Flushing/39-62-56th-St-11377/home/169584988,REBNY,ALLA1100,N,Y,40.746729,-73.90818
MLS Listing,,Condo/Co-op,39-75 56th St Unit 2J,Woodside,NY,11377,200000,0,1,Woodside,,,1928,73,,,Active,,,http://www.redfin.com/NY/Flushing/39-75-56th-St-11377/unit-2J/home/20661671,MLSLI,3175945,N,Y,40.7462764,-73.9078279
MLS Listing,,Condo/Co-op,29-13 Foster Ave Unit 1D,Brooklyn,NY,11210,225000,1,1,Co-Op,,,1931,74,,,Active,,,http://www.redfin.com/NY/Brooklyn/2913-Foster-Ave-11210/unit-1D/home/40650177,MLSLI,3175832,N,Y,40.6387484,-73.9486565
MLS Listing,,Condo/Co-op,255-31 61st Ave,Little Neck,NY,11362,199000,1,1,Deepdale Gardens,650,,1950,75,306,,Active,,,http://www.redfin.com/NY/Little-Neck/255-31-61st-Ave-11362/Uppr/home/168682108,MLSLI,3175636,N,Y,40.758647,-73.72308
MLS Listing,,Condo/Co-op,2190 Bringham St Unit 6G,Brooklyn,NY,11229,209000,2,1,Brooklyn,895,,,75,234,,Active,,,http://www.redfin.com/NY/Brooklyn/2190-Brigham-St-11229/unit-6G/home/169565730,BNYMLS,434291,N,Y,40.5993383,-73.9352014
MLS Listing,,Condo/Co-op,269 W 153rd St #12,New York,NY,10037,225000,4,1,New York,,,1920,75,,,Active,,,http://www.redfin.com/NY/New-York/269-W-153rd-St-10039/unit-12/home/169565622,HGMLS,5112522,N,Y,40.8278328,-73.9375665
MLS Listing,,Condo/Co-op,83-75 Woodhaven Blvd Unit 5H,Woodhaven,NY,11421,190000,1,1,Forest Park Coop,,,1954,75,,,Active,,,http://www.redfin.com/NY/Jamaica/83-75-Woodhaven-Blvd-11421/unit-5H/home/169565417,MLSLI,3175473,N,Y,40.6996832,-73.8528872
MLS Listing,,Condo/Co-op,3200 Netherland Ave Unit 6H,Bronx,NY,10463,209000,1,1,Riverdale,775,,1957,76,270,,Active,,,http://www.redfin.com/NY/The-Bronx/3200-Netherland-Ave-10463/unit-6H/home/169562347,HGMLS,5110556,N,Y,40.8839299,-73.9113192
MLS Listing,,Condo/Co-op,Unit at 2251 Knapp St,Brooklyn,NY,11229,175000,2,1,Sheepshead Bay,,,,76,,,Active,,,http://www.redfin.com/NY/Brooklyn/2251-Knapp-St-11229/home/148750929,REBNY,DEGI4003377,N,Y,40.598354,-73.9335111
MLS Listing,,Condo/Co-op,143-50 Hoover Ave #418,Briarwood,NY,11435,185000,0,1,Betsy Ross,500,,1952,77,370,,Active,,,http://www.redfin.com/NY/Jamaica/14350-Hoover-Ave-11435/unit-418/home/21700742,MLSLI,3174949,N,Y,40.7142299,-73.8152
MLS Listing,,Condo/Co-op,Unit at 880 Boynton Ave,Bronx,NY,10473,180000,1,1,Soundview,,,,79,,,Active,,,http://www.redfin.com/NY/The-Bronx/880-Boynton-Ave-10473/home/44805141,REBNY,HALS19923270,N,Y,40.8214086,-73.8759497
MLS Listing,,Condo/Co-op,2265 Gerritsen Ave Unit 6H,Brooklyn,NY,11229,201591,1,1,Brooklyn,730,,1960,81,276,,Active,January-12-2020 01:00 PM,January-12-2020 03:00 PM,http://www.redfin.com/NY/Brooklyn/2265-Gerritsen-Ave-11229/unit-6H/home/169478794,BNYMLS,434148,N,Y,40.600681,-73.933424
MLS Listing,,Condo/Co-op,210-15 23rd Ave Unit 1J,Bayside,NY,11360,219000,2,1,Bay Terrace Section X,,,1955,84,,,Active,,,http://www.redfin.com/NY/Bayside/21015-23rd-Ave-11361/unit-1J/home/144519714,MLSLI,3173107,N,Y,40.7798022,-73.7806961
MLS Listing,,Condo/Co-op,Unit at 157 W 123rd St,New York,NY,10027,225000,1,1,Mt. Morris Park,,,,85,,,Active,,,http://www.redfin.com/NY/New-York/157-W-123rd-St-10027/home/164440343,REBNY,UCOM1821157,N,Y,40.8076433,-73.9487626
MLS Listing,,Condo/Co-op,Unit at 3671 Hudson Manor Ter,Bronx,NY,10463,194500,0,1,Riverdale,,,,85,,,Active,,,http://www.redfin.com/NY/The-Bronx/3671-Hudson-Manor-Ter-10463/home/44766045,REBNY,HALS19917450,N,Y,40.8881345,-73.9162336
MLS Listing,,Condo/Co-op,144-11 Sanford Ave Unit 4L,Flushing,NY,11355,185000,0,1,Coral Gardens,450,,1951,85,411,448,Active,,,http://www.redfin.com/NY/Flushing/144-11-Sanford-Ave-11355/unit-4L/home/57260201,MLSLI,3172811,N,Y,40.7592939,-73.8203855
MLS Listing,,Condo/Co-op,18-50 211 St Unit 6B,Bayside,NY,11360,218500,1,1,Bay Terrace Section X,,,1958,89,,,Active,,,http://www.redfin.com/NY/Unknown/18-50-211th-St-11360/unit-6B/home/146452557,MLSLI,3172083,N,Y,40.7806856,-73.7823182
MLS Listing,,Condo/Co-op,8105 4 Ave Unit 5I,Brooklyn,NY,11209,199000,0,1,Brooklyn,450,,1954,90,442,,Active,,,http://www.redfin.com/NY/Brooklyn/8105-4th-Ave-11209/unit-5I/home/40920385,BNYMLS,433955,N,Y,40.625945,-74.0267532
MLS Listing,,Condo/Co-op,4380 Vireo Ave Unit 2H,Bronx,NY,10470,215000,2,1,Bronx,850,,1968,90,253,,Active,,,http://www.redfin.com/NY/The-Bronx/4380-Vireo-Ave-10470/unit-2H/home/44805983,HGMLS,5097990,N,Y,40.9010173,-73.8627684
MLS Listing,,Condo/Co-op,5613 Avenue T Unit 49C,Brooklyn,NY,11234,195000,2,1,Brooklyn,825,,1955,90,236,,Active,,,http://www.redfin.com/NY/Brooklyn/5613-Avenue-T-11234/unit-49C/home/169385627,BNYMLS,433937,N,Y,40.6143866,-73.9201383
MLS Listing,,Condo/Co-op,Unit at 83 -60 118th St,Queens,NY,11415,190000,1,1,Kew Gardens,,,,91,,,Active,,,http://www.redfin.com/NY/Jamaica/83-96-118th-St-11415/home/169380556,REBNY,NYLS98504,N,Y,40.7043213,-73.8340493
MLS Listing,,Vacant Land,2324 43rd St,Astoria,NY,11105,175000,,,Astoria,,568,,91,,,Active,,,http://www.redfin.com/NY/Long-Island-City/23-24-43rd-St-11105/home/168641153,MLSLI,3171528,N,Y,40.769137,-73.906785
MLS Listing,,Condo/Co-op,8646 Fort Hamilton Pkwy Unit L3,Brooklyn,NY,11209,219995,0,1,Hamilton Arms,335,,1963,91,657,,Active,,,http://www.redfin.com/NY/Brooklyn/8646-Fort-Hamilton-Pkwy-11209/unit-L3/home/169371703,MLSLI,3171522,N,Y,40.6196717,-74.0255964
MLS Listing,,Condo/Co-op,8602 Avenue L #801,Brooklyn,NY,11236,179000,0,1,Brooklyn,463,,1989,91,387,,Active,,,http://www.redfin.com/NY/Brooklyn/8602-Avenue-L-11236/unit-801/home/40888557,BNYMLS,433926,N,Y,40.6334747,-73.9028446
MLS Listing,,Condo/Co-op,1110 Stadium Ave Unit LB,Bronx,NY,10465,225000,2,1,Bronx,900,,1950,92,250,,Active,,,http://www.redfin.com/NY/The-Bronx/1110-Stadium-Ave-10465/unit-LB/home/44805402,HGMLS,5094959,N,Y,40.836247,-73.817012
MLS Listing,,Condo/Co-op,770 Ocean Pkwy Unit 5E,Brooklyn,NY,11230,225000,0,1,Brooklyn,650,,1963,93,346,,Active,,,http://www.redfin.com/NY/Brooklyn/770-Ocean-Pkwy-11230/unit-5E/home/169291559,BNYMLS,433859,N,Y,40.6293686,-73.9721374
MLS Listing,,Condo/Co-op,112-24 Northen Blvd Unit 5B,Corona,NY,11368,175000,2,1,Dorie Miller,800,,1953,93,219,,Active,,,http://www.redfin.com/NY/Corona/112-24-Northern-Blvd-11368/unit-5B/home/20659761,MLSLI,3170794,N,Y,40.7579713,-73.8567832
MLS Listing,,Condo/Co-op,33-04 93rd St Unit 5X,Jackson Heights,NY,11372,219000,1,1,Southridge 1,725,,1958,93,302,,Active,,,http://www.redfin.com/NY/Jackson-Heights/33-04-93rd-St-11372/unit-5X/home/20660575,MLSLI,3170647,N,Y,40.7563313,-73.8751896
MLS Listing,,Condo/Co-op,83-64 Talbot Unit 3A,Kew Gardens,NY,11415,214000,1,1,Talbot Apartments,700,,1940,96,306,,Active,,,http://www.redfin.com/NY/Kew-Gardens/83-64-Talbot-St-11415/unit-3A/home/20657678,MLSLI,3170339,N,Y,40.7084091,-73.8276432
MLS Listing,,Condo/Co-op,1000 Clove Rd Unit 8d,Staten Island,NY,10301,199900,1,1,Clove Lake,12648,358249,1966,97,16,878,Active,,,http://www.redfin.com/NY/Staten-Island/1000-Clove-Rd-10301/unit-8D/home/148256307,SIBORMLS,1132736,N,Y,40.6202645,-74.1099106
MLS Listing,,Condo/Co-op,84-23 Manton St Unit 4C,Briarwood,NY,11435,219000,1,1,Brian Owners Inc,700,,1950,99,313,,Active,January-12-2020 02:30 PM,January-12-2020 04:30 PM,http://www.redfin.com/NY/Jamaica/84-23-Manton-St-11435/unit-4C/home/169247381,MLSLI,3168887,N,Y,40.7101055,-73.8185145
MLS Listing,,Condo/Co-op,Unit at 828 Gerard Ave,Bronx,NY,10451,210000,1,1,The Bronx ( Other),,,,100,,,Active,,,http://www.redfin.com/NY/The-Bronx/828-Gerard-Ave-10451/home/162849489,REBNY,BOND1599985,N,Y,40.8260891,-73.9254652
MLS Listing,,Condo/Co-op,2390 Palisade Ave Unit 2G,Bronx,NY,10463,225000,2,1,Riverdale,850,,1964,100,265,,Active,,,http://www.redfin.com/NY/Bronx/2390-Palisade-Ave-10463/unit-2G/home/53614673,HGMLS,5085283,N,Y,40.8797408,-73.9204193
MLS Listing,,Condo/Co-op,33-44 Junction Blvd Unit 5X,Jackson Heights,NY,11372,200000,1,1,Southridge 4,,,1959,103,,,Active,,,http://www.redfin.com/NY/Jackson-Heights/33-44-Junction-Blvd-11372/unit-5X/home/169225074,MLSLI,3168370,N,Y,40.755306,-73.8734231
MLS Listing,,Condo/Co-op,141-05 Pershing Cres #308,Briarwood,NY,11435,179000,1,1,The Griswald,700,,1959,103,256,,Active,,,http://www.redfin.com/NY/Jamaica/14105-Pershing-Cres-11435/unit-308/home/20647401,MLSLI,3168343,N,Y,40.7075234,-73.8184546
MLS Listing,,Condo/Co-op,2906 Brighton 12 St Unit 3A,Brooklyn,NY,11235,199000,0,1,Brooklyn,500,,,103,398,,Active,,,http://www.redfin.com/NY/Brooklyn/2906-Brighton-12th-St-11235/unit-3A/home/103997661,BNYMLS,433632,N,Y,40.581821,-73.95565
MLS Listing,,Condo/Co-op,78-11 35th Ave #3,Jackson Heights,NY,11372,195000,1,1,Community School District,725,,1939,104,269,,Active,,,http://www.redfin.com/NY/Flushing/78-11-35th-Ave-11372/unit-03/home/59976561,MLSLI,3168025,N,Y,40.7516501,-73.8879595
MLS Listing,,Condo/Co-op,2156 Cruger Ave Unit 2J,Bronx,NY,10462,209900,3,1,Bronx,1200,,1930,104,175,,Active,,,http://www.redfin.com/NY/The-Bronx/2156-Cruger-Ave-10462/unit-2J/home/44802085,HGMLS,5080315,N,Y,40.8553429,-73.8664862
MLS Listing,,Condo/Co-op,225-06 88 Ave Unit 38-3,Queens Village,NY,11427,219000,2,1,Bellerose Manor,600,,1951,105,365,,Active,,,http://www.redfin.com/NY/Jamaica/22506-88th-Ave-11427/unit-38-3/home/169203802,MLSLI,3167610,N,Y,40.7306333,-73.7355453
MLS Listing,,Condo/Co-op,84-70 129 St Unit 6P,Kew Gardens,NY,11415,199999,1,1,Metro Manor,,,1950,106,,,Active,,,http://www.redfin.com/NY/Jamaica/84-70-129th-St-11415/unit-6P/home/169198983,MLSLI,3167248,N,Y,40.7050067,-73.8239907
MLS Listing,,Condo/Co-op,Unit at 112 -50 Northern Blvd,Queens,NY,11368,190000,2,1,Corona,,,,106,,,Active,,,http://www.redfin.com/NY/Corona/112-02-Northern-Blvd-11368/home/44636459,REBNY,DEGI3941321,N,Y,40.7578082,-73.8572059
MLS Listing,,Vacant Land,210 East 16 St,Flatbush,NY,11226,179000,,,Flatbush,,2217,,108,,,Active,,,http://www.redfin.com/NY/Brooklyn/210-E-16th-St-11226/home/40786811,MLSLI,3166666,N,Y,40.645427,-73.964382
MLS Listing,,Condo/Co-op,141-05 Pershing Cres #602,Briarwood,NY,11435,192500,1,1,The Griswald,750,,1959,110,257,,Active,,,http://www.redfin.com/NY/Jamaica/14105-Pershing-Cres-11435/unit-602/home/20649003,MLSLI,3166423,N,Y,40.7075234,-73.8184546
MLS Listing,,Condo/Co-op,139-15 83 Ave #406,Briarwood,NY,11435,199000,1,1,The Arlington,,,1958,110,,,Active,,,http://www.redfin.com/NY/Briarwood/139-15-83rd-Ave-11435/unit-406/home/40236323,MLSLI,3166399,N,Y,40.7131252,-73.81923
MLS Listing,,Condo/Co-op,141-60 84 Rd Unit 2H,Briarwood,NY,11435,199900,1,1,The Claridge,,,1955,110,,,Active,,,http://www.redfin.com/NY/Jamaica/141-60-84th-Rd-11435/unit-2H/home/39911012,MLSLI,3166235,N,Y,40.7125429,-73.815994
MLS Listing,,Condo/Co-op,Unit at 828 Gerard Ave,Bronx,NY,10451,210000,1,1,The Bronx ( Other),,,,111,,,Active,,,http://www.redfin.com/NY/The-Bronx/828-Gerard-Ave-10451/home/44601468,REBNY,BOND1597455,N,Y,40.8260891,-73.9254652
MLS Listing,,Condo/Co-op,37-51 86 St Unit 3F,Jackson Heights,NY,11372,179999,0,1,Herrick House,500,,1955,111,360,,Active,,,http://www.redfin.com/NY/Flushing/37-51-86th-St-11372/unit-3F/home/20660145,MLSLI,3165880,N,Y,40.7486963,-73.8800395
MLS Listing,,Condo/Co-op,83-20 98th. St Unit 4K,Woodhaven,NY,11421,199500,1,1,Forest Park Cooperative,485,,1954,111,411,,Active,,,http://www.redfin.com/NY/Woodhaven/8320-98th-St-11421/unit-4K/home/167980386,MLSLI,3165808,N,Y,40.6993852,-73.8517383
MLS Listing,,Condo/Co-op,2555 Batchelder St Unit 6-G,Brooklyn,NY,11235,189000,1,1,Brooklyn,825,,,112,229,,Active,,,http://www.redfin.com/NY/Brooklyn/2555-Batchelder-St-11235/unit-6-G/home/169106950,BNYMLS,433377,N,Y,40.5903327,-73.9367595
MLS Listing,,Townhouse,2409 65 St,Bensonhurst,NY,11204,190000,0,0.5,Bensonhurst,,1700,1970,113,,,Active,,,http://www.redfin.com/NY/Brooklyn/2409-65th-St-11204/home/169090342,MLSLI,3165179,N,Y,40.6110723,-73.9765191
MLS Listing,,Condo/Co-op,2550 Olinville Ave Unit 10B,Bronx,NY,10467,175000,1,1,Bronx,752,,1968,113,233,,Active,January-10-2020 05:00 AM,January-10-2020 07:00 PM,http://www.redfin.com/NY/Bronx/2550-Olinville-Ave-10467/unit-10B/home/53615253,HGMLS,5061886,N,Y,40.8644237,-73.8680481
MLS Listing,,Single Family Residential,2701 Goethals Rd N Unit E19,Staten Island,NY,10303,199888,3,2,Mariners Harbor,1200,2250,1982,114,167,600,Active,,,http://www.redfin.com/NY/Staten-Island/2701-Goethals-Rd-N-10303/unit-E19/home/148223607,SIBORMLS,1132272,N,Y,40.6266169,-74.1787446
MLS Listing,,Condo/Co-op,3875 Waldo Ave Unit 10M,Bronx,NY,10463,192999,1,1,Bronx,726,,1935,114,266,,Active,,,http://www.redfin.com/NY/The-Bronx/3875-Waldo-Ave-10463/unit-10M/home/59302712,HGMLS,5066121,N,Y,40.8890553,-73.9033819
MLS Listing,,Condo/Co-op,112-50 Northern Blvd Unit 5C,Corona,NY,11368,185000,2,1,Dorie Miller,,,1950,115,,,Active,,,http://www.redfin.com/NY/Corona/112-50-Northern-Blvd-11368/unit-5C/home/169058081,MLSLI,3164586,N,Y,40.7579588,-73.8558633
MLS Listing,,Vacant Land,99-95 Russell St,Howard Beach,NY,11414,218000,,,Hamilton Beach,,4000,,115,,,Active,,,http://www.redfin.com/NY/Jamaica/99-95-Russell-St-11414/home/20680096,MLSLI,3164558,N,Y,40.655913,-73.830703
MLS Listing,,Condo/Co-op,Unit at 99 -60 63rd Rd,Queens,NY,11374,208000,1,1,Rego Park,,,,116,,,Active,,,http://www.redfin.com/NY/Flushing/99-01-63rd-Rd-11374/home/169056857,REBNY,ARGO1849069,N,Y,40.73284,-73.856834
MLS Listing,,Vacant Land,0 Alban St,Staten Island,NY,10310,185000,0,,West Brighton,,5000,,117,,,Active,,,http://www.redfin.com/NY/Staten-Island/Alban-St-10310/home/166964496,SIBORMLS,1132229,N,Y,40.637228,-74.108859
MLS Listing,,Condo/Co-op,Unit at 1430 Thieriot Ave,Bronx,NY,10460,175000,2,1,Parkchester,,,,118,,,Active,,,http://www.redfin.com/NY/The-Bronx/1430-Thieriot-Ave-10460/home/169043315,REBNY,CITI5885773,N,Y,40.8363355,-73.8650161
MLS Listing,,Condo/Co-op,99-14 59 Ave Unit L-1,Corona,NY,11368,199000,2,1,Sherwood Village,,,1961,118,,,Active,,,http://www.redfin.com/NY/Corona/99-14-59th-Ave-11368/unit-1L/home/20660050,MLSLI,3163920,N,Y,40.7369504,-73.8590284
MLS Listing,,Condo/Co-op,5425 Valles Ave Unit 4N,Bronx,NY,10471,203000,1,1,Riverdale,850,,1965,120,239,,Active,January-11-2020 11:00 AM,January-11-2020 12:00 PM,http://www.redfin.com/NY/The-Bronx/5425-Valles-Ave-10471/unit-4N/home/44768945,HGMLS,5058692,N,Y,40.9020245,-73.90002
MLS Listing,,Condo/Co-op,Unit at 825 Walton Ave,Bronx,NY,10451,209000,1,1,The Bronx ( Other),,,,121,,,Active,,,http://www.redfin.com/NY/Bronx/825-Walton-Ave-10451/home/50273643,REBNY,SPIR720663,N,Y,40.8259888,-73.9251666
MLS Listing,,Condo/Co-op,99-60 63 Rd Unit 11P,Rego Park,NY,11374,219000,1,1,Anita Terrace,,,1952,121,,,Active,,,http://www.redfin.com/NY/Rego-Park/99-60-63rd-Rd-11374/unit-11P/home/168952699,MLSLI,3162716,N,Y,40.7325144,-73.8546331
MLS Listing,,Condo/Co-op,2550 Olinville Ave Unit 9L,Bronx,NY,10467,175000,1,1,Bronx,783,,1968,121,223,,Active,January-10-2020 05:00 AM,January-10-2020 07:00 PM,http://www.redfin.com/NY/The-Bronx/2550-Olinville-Ave-10467/unit-9L/home/168952104,HGMLS,5057192,N,Y,40.8644237,-73.8680481
MLS Listing,,Condo/Co-op,Unit at 3636 Fieldston Rd,Bronx,NY,10471,175000,0,1,Riverdale,,,,124,,,Active,,,http://www.redfin.com/NY/Bronx/3636-Fieldston-RD-10471/home/168935135,REBNY,BACH19854063,N,Y,40.8971509,-73.9065883
MLS Listing,,Condo/Co-op,3875 Waldo Ave Unit 11N,Bronx,NY,10463,189965,1,1,Bronx,719,,1931,125,264,,Active,,,http://www.redfin.com/NY/Bronx/3875-Waldo-Ave-10463/unit-11N/home/147900836,HGMLS,5051807,N,Y,40.8890553,-73.9033819
MLS Listing,,Condo/Co-op,23 Richmond Ct Unit 17A,Staten Island,NY,10303,190000,2,1,Richmond Court,,,1988,126,,,Active,,,http://www.redfin.com/NY/Staten-Island/23-Richmond-Ct-10303/unit-17A/home/56110486,MLSLI,3161441,N,Y,40.6394628,-74.1651931
MLS Listing,,Condo/Co-op,64-35 Yellowstone Blvd Unit 6C,Forest Hills,NY,11375,213000,0,1,64-35 Yellowsone Blvd,,,1951,127,,,Active,,,http://www.redfin.com/NY/Flushing/64-35-Yellowstone-Blvd-11375/unit-6C/home/20637575,MLSLI,3160933,N,Y,40.7313743,-73.8511722
MLS Listing,,Condo/Co-op,210-50 41 Ave Unit 1f,Bayside,NY,11361,205000,0,1,Michele,,,1952,127,,,Active,,,http://www.redfin.com/NY/Flushing/210-50-41st-Ave-11361/unit-1f/home/168863814,MLSLI,3160752,N,Y,40.763095,-73.7737609
MLS Listing,,Condo/Co-op,70-25 Yellowstone Blvd Unit 1K,Forest Hills,NY,11375,199000,0,1,Gerard Towers,,,1964,131,,,Active,,,http://www.redfin.com/NY/Forest-Hills/7025-Yellowstone-Blvd-11375/unit-1K/home/168844989,MLSLI,3160303,N,Y,40.7226213,-73.8493251
MLS Listing,,Condo/Co-op,139-15 83rd Ave #106,Briarwood,NY,11435,215000,1,1,Arlington Owners,800,,1958,134,269,,Active,,,http://www.redfin.com/NY/Briarwood/139-15-83rd-Ave-11435/unit-106/home/21516946,MLSLI,3159483,N,Y,40.7131252,-73.81923
MLS Listing,,Condo/Co-op,15 Oliver St Unit 2C,Brooklyn,NY,11209,189000,0,1,Brooklyn,462,,,135,409,,Active,,,http://www.redfin.com/NY/Brooklyn/15-Oliver-St-11209/unit-2C/home/168762002,BNYMLS,432717,N,Y,40.619694,-74.039043
MLS Listing,,Condo/Co-op,88-10 35th Ave Unit 1H,Jackson Heights,NY,11372,199000,0,1,Queens,,,1953,135,,,Active,,,http://www.redfin.com/NY/Jackson-Heights/88-10-35th-Ave-11372/unit-1H/home/168755511,MLSLI,3159063,N,Y,40.7521598,-73.8786166
MLS Listing,,Condo/Co-op,32-23 88th St. St #305,E. Elmhurst,NY,11369,225000,1,1,Northridge Iii,,,1952,135,,,Active,,,http://www.redfin.com/NY/East-Elmhurst/32-23-88th-St-11369/unit-305/home/168754466,MLSLI,3159031,N,Y,40.7574971,-73.879754
MLS Listing,,Condo/Co-op,88-08 32 Ave #607,E. Elmhurst,NY,11369,219000,1,1,Northridge Iii,,,1950,135,,,Active,January-11-2020 11:00 AM,January-11-2020 01:00 PM,http://www.redfin.com/NY/East-Elmhurst/8808-32nd-Ave-11369/unit-607/home/168799004,MLSLI,3158946,N,Y,40.7582699,-73.8801599
MLS Listing,,Condo/Co-op,164-20 Willets Point Blvd Unit 4-22,Whitestone,NY,11357,214900,1,1,Clearview Gardens,650,,1950,139,331,831,Active,,,http://www.redfin.com/NY/Whitestone/164-20-Willets-Point-Blvd-11357/unit-422/home/21453121,MLSLI,3158359,N,Y,40.7834365,-73.7982551
MLS Listing,,Condo/Co-op,144-67 Charter Rd Unit 13A,Briarwood,NY,11435,179999,1,1,Parkway Village,,,1948,139,,,Active,,,http://www.redfin.com/NY/Jamaica/14467-Charter-Rd-11435/unit-13A/home/20623994,MLSLI,3158354,N,Y,40.71712,-73.812557
MLS Listing,,Condo/Co-op,21-06 35th St Unit 5D,Astoria,NY,11105,225000,1,1,Acropolis,,,1923,140,,749,Active,,,http://www.redfin.com/NY/Astoria/21-06-35th-St-11105/unit-5D/home/20644537,MLSLI,3158026,N,Y,40.7767185,-73.9070706
MLS Listing,,Condo/Co-op,2922 Barnes Ave Unit 3F,Bronx,NY,10467,179000,2,1,Bronx,900,,1928,145,199,,Active,,,http://www.redfin.com/NY/The-Bronx/2922-Barnes-Ave-10467/unit-3F/home/168676836,HGMLS,5026352,N,Y,40.8685583,-73.8631566
MLS Listing,,Vacant Land,0 St. Pauls Ave,Staten Island,NY,10304,219000,0,,Tompkinsville,,4620,,147,,,Active,,,http://www.redfin.com/NY/Unknown/Saint-Pauls-Ave-10304/home/146529039,SIBORMLS,1131473,N,Y,40.630155,-74.08197
MLS Listing,,Condo/Co-op,5412 Fillmore Ave Unit 30C,Brooklyn,NY,11234,215000,2,1,Brooklyn,900,,,147,239,,Active,,,http://www.redfin.com/NY/Brooklyn/5412-Fillmore-Ave-11234/unit-30C/home/40654202,BNYMLS,432412,N,Y,40.6145971,-73.9220901
MLS Listing,,Condo/Co-op,18-50 211 St Unit 5E,Bayside,NY,11360,215000,1,1,Bay Terrace Section X,,,1958,148,,,Active,,,http://www.redfin.com/NY/Bayside/18-50-211th-St-11360/unit-5E/home/20653965,MLSLI,3155775,N,Y,40.7806856,-73.7823182
MLS Listing,,Condo/Co-op,1001 E 108 St Unit 3C,Brooklyn,NY,11236,225000,2,1,Brooklyn,700,,,148,321,,Active,,,http://www.redfin.com/NY/Brooklyn/1001-E-108th-St-11236/unit-3C/home/168653893,BNYMLS,432464,N,Y,40.647157,-73.8899859
MLS Listing,,Condo/Co-op,Unit at 255 Fieldston Ter,Bronx,NY,10471,205000,1,1,Riverdale,,,,153,,,Active,,,http://www.redfin.com/NY/The-Bronx/255-Fieldston-Ter-10471/home/65563656,REBNY,CITI5850474,N,Y,40.8961447,-73.8987339
MLS Listing,,Condo/Co-op,402 Bay Ridge Pkwy #38,Brooklyn,NY,11209,224000,1,1,Brooklyn,650,,,154,345,,Active,,,http://www.redfin.com/NY/Brooklyn/402-Bay-Ridge-Pkwy-11209/unit-38/home/160388266,BNYMLS,432326,N,Y,40.6306447,-74.0248637
MLS Listing,,Condo/Co-op,87-56 Francis Lewis Unit A32,Hollis,NY,11423,175000,1,1,Hilltop Village,,,1954,155,,,Active,,,http://www.redfin.com/NY/Hollis/87-56-Francis-Lewis-Blvd-11423/unit-A32/home/168569210,MLSLI,3153889,N,Y,40.7223079,-73.7609288
MLS Listing,,Condo/Co-op,99 Metropolitan Oval Unit 10B,Bronx,NY,10462,185000,1,1,Bronx,637,,1939,155,290,701,Active,,,http://www.redfin.com/NY/The-Bronx/99-Metropolitan-Oval-10462/unit-10B/home/44772486,HGMLS,5015348,N,Y,40.8383764,-73.8609732
MLS Listing,,Condo/Co-op,190 E Mosholu Pkwy Unit 2F,Bronx,NY,10458,199500,1,1,Riverdale,865,,1930,155,231,,Active,,,http://www.redfin.com/NY/The-Bronx/190-E-Mosholu-Pkwy-S-10458/unit-2F/home/168405846,HGMLS,5009580,N,Y,40.8742949,-73.883753
MLS Listing,,Condo/Co-op,88-08 151st Ave Unit GC,Howard Beach,NY,11414,199000,1,1,Barclay West,,,1965,155,,,Active,January-11-2020 12:30 PM,January-11-2020 02:30 PM,http://www.redfin.com/NY/Jamaica/8808-151st-Ave-11414/unit-GC/home/147903512,MLSLI,3153588,N,Y,40.6680192,-73.8470063
MLS Listing,,Condo/Co-op,,Brooklyn,NY,11229,199000,1,1,,850,,1952,156,234,,Active,,,http://www.redfin.com/NY/Brooklyn/Undisclosed-address-11229/home/148410753,BNYMLS,432274,N,Y,40.5988077,-73.9447994
MLS Listing,,Condo/Co-op,83-05 98th St Unit 4J,Woodhaven,NY,11421,210000,1,1,Forest Park Co-Op,,,1955,157,,,Active,,,http://www.redfin.com/NY/Woodhaven/8305-98th-St-11421/unit-4J/home/168309271,MLSLI,3153208,N,Y,40.6999887,-73.8527085
MLS Listing,,Condo/Co-op,83-15 98th St Unit 3B,Woodhaven,NY,11421,195000,1,1,Forest Park Coop,,,1952,159,,,Active,,,http://www.redfin.com/NY/Woodhaven/83-15-98th-St-11421/unit-3B/home/168214144,MLSLI,3152976,N,Y,40.6999511,-73.8523323
MLS Listing,,Single Family Residential,176 Moreland St,Staten Island,NY,10306,224999,1,1,Midland Beach,592,2000,1945,159,380,,Active,,,http://www.redfin.com/NY/Staten-Island/176-Moreland-St-10306/home/56063583,SIBORMLS,1131138,N,Y,40.5750678,-74.0962256
MLS Listing,,Condo/Co-op,1425 Thieriot Ave Unit 1A,Bronx,NY,10460,179000,2,1,Bronx,950,,1965,160,188,,Active,,,http://www.redfin.com/NY/The-Bronx/1425-Thieriot-Ave-10460/unit-1A/home/168142722,HGMLS,5009745,N,Y,40.8363242,-73.8654755
MLS Listing,,Condo/Co-op,61 Bronx River Rd Unit 7A,Yonkers,NY,10704,225000,2,1,Yonkers,1050,,1958,161,214,,Active,,,http://www.redfin.com/NY/Yonkers/61-Bronx-River-Rd-10704/unit-7A/home/160601883,HGMLS,5009129,N,Y,40.9029789,-73.8602666
MLS Listing,,Condo/Co-op,175-06 Devonshire Rd Unit 3A,Jamaica Estates,NY,11432,225000,1,1,Henley Hall,950,,1953,162,237,,Active,,,http://www.redfin.com/NY/Jamaica/175-06-Devonshire-Rd-11432/unit-3A/home/20648536,MLSLI,3151825,N,Y,40.714422,-73.788665
MLS Listing,,Vacant Land,130-46 146 St,Jamaica,NY,11436,189000,,,Jamaica,,1900,,162,,,Active,,,http://www.redfin.com/NY/Jamaica/13046-146th-St-11436/home/168052511,MLSLI,3151720,N,Y,40.677091,-73.7931817
MLS Listing,,Condo/Co-op,147-24 Village Rd Unit 81B,Jamaica,NY,11432,225000,2,1,Briarwood,,,1950,162,,,Active,January-12-2020 01:00 PM,January-12-2020 03:30 PM,http://www.redfin.com/NY/Jamaica/147-24-Village-Rd-11435/unit-81B/home/168006111,MLSLI,3151650,N,Y,40.7165153,-73.8131161
MLS Listing,,Condo/Co-op,1960 E Tremont Ave Unit 6F,Bronx,NY,10462,185000,1,1.5,Bronx,645,,1940,164,287,683,Active,,,http://www.redfin.com/NY/The-Bronx/1960-E-Tremont-Ave-10462/unit-6F/home/44600119,HGMLS,4991522,N,Y,40.8409393,-73.8609478
MLS Listing,,Condo/Co-op,Unit at 2500 Johnson Ave,Bronx,NY,10463,220000,1,1,Riverdale,,,,166,,,Active,,,http://www.redfin.com/NY/The-Bronx/2500-Johnson-Ave-10463/home/167956802,REBNY,MONT1357,N,Y,40.876794,-73.9177034
MLS Listing,,Condo/Co-op,Unit at 5900 Arlington Ave,Bronx,NY,10471,198000,0,1,Riverdale,,,,166,,,Active,,,http://www.redfin.com/NY/The-Bronx/5900-Arlington-Ave-10471/home/44601821,REBNY,ARGO1839458,N,Y,40.9092281,-73.9056859
MLS Listing,,Condo/Co-op,1250 Ocean Pkwy Unit 4N,Brooklyn,NY,11230,178000,0,1,Brooklyn,500,,,180,356,,Active,,,http://www.redfin.com/NY/Brooklyn/1250-Ocean-Pkwy-11230/unit-4N/home/167261634,BNYMLS,431616,N,Y,40.6180451,-73.9699172
MLS Listing,,Condo/Co-op,3101 Ocean Pkwy Unit 6T,Brooklyn,NY,11235,219000,1,0.75,Brooklyn,550,,,182,398,,Active,,,http://www.redfin.com/NY/Unknown/3101-Ocean-Pkwy-11235/unit-6T/home/113014768,BNYMLS,431551,N,Y,40.5756886,-73.967851
MLS Listing,,Vacant Land,37 Layton Ave,Staten Island,NY,10301,189000,,,New Brighton,,132,,182,,,Active,,,http://www.redfin.com/NY/Staten-Island/37-Layton-Ave-10301/home/160294795,MLSLI,3145876,N,Y,40.6419012,-74.0846482
MLS Listing,,Condo/Co-op,340 E Mosholu Pkwy S Unit 3C,Bronx,NY,10458,225000,2,1,Bronx,938,,1937,184,240,,Active,,,http://www.redfin.com/NY/The-Bronx/340-E-Mosholu-Pkwy-S-10458/unit-3C/home/44800362,HGMLS,4975567,N,Y,40.8704816,-73.8823104
MLS Listing,,Condo/Co-op,3656 Johnson Ave Unit 2H,Bronx,NY,10463,175000,1,1,Riverdale,750,,1931,188,233,,Active,,,http://www.redfin.com/NY/The-Bronx/3656-Johnson-Ave-10463/unit-2H/home/44601612,HGMLS,4976595,N,Y,40.8882218,-73.9090226
MLS Listing,,Condo/Co-op,Unit at 230 W 105th St,New York,NY,10025,225000,1,1,Upper West Side,,,,190,,,Active,,,http://www.redfin.com/NY/New-York/230-W-105th-St-10025/home/45163794,REBNY,BHSR19696580,N,Y,40.8001792,-73.9674977
MLS Listing,,Single Family Residential,210 Montauk Ave,Brooklyn,NY,11208,200000,,,Brooklyn,,2000,,195,,,Active,,,http://www.redfin.com/NY/Brooklyn/210-Montauk-Ave-11208/home/40919086,BNYMLS,431240,N,Y,40.673934,-73.878188
MLS Listing,,Condo/Co-op,Unit at 1040 Neilson St,Queens,NY,11691,200000,1,1,Queens ( Other),,,,202,,,Active,,,http://www.redfin.com/NY/Far-Rockaway/1040-Neilson-St-11691/home/20640497,REBNY,CITI5781234,N,Y,40.6043757,-73.7475099
MLS Listing,,Vacant Land,17818 Selover Rd,Jamaica,NY,11434,195000,,,Jamaica,,2500,,203,,,Active,,,http://www.redfin.com/NY/Jamaica/178-18-Selover-Rd-11434/home/28687061,MLSLI,3140106,N,Y,40.681942,-73.764987
MLS Listing,,Condo/Co-op,139-15 83 Ave #422,Briarwood,NY,11435,224990,1,1,The Arlington,850,,1965,203,265,,Active,,,http://www.redfin.com/NY/Briarwood/139-15-83rd-Ave-11435/unit-422/home/20646826,MLSLI,3140046,N,Y,40.7133443,-73.8194372
MLS Listing,,Condo/Co-op,4601 Henry Hudson Pkwy Unit B5,Bronx,NY,10471,190000,1,1,Riverdale,900,,1953,204,211,,Active,,,http://www.redfin.com/NY/Bronx/4601-Henry-Hudson-Pkwy-W-10471/unit-B5/home/160692957,HGMLS,4960912,N,Y,40.894172,-73.9094001
MLS Listing,,Condo/Co-op,125-10 Queens Blvd #901,Kew Gardens,NY,11415,204999,0,1,Silver Towers,,,1958,205,,,Active,,,http://www.redfin.com/NY/Unknown/12510-Queens-Blvd-11415/unit-901/home/126838580,MLSLI,3139308,N,Y,40.7119984,-73.826411
MLS Listing,,Condo/Co-op,144-55 Melbourne Ave Unit 6A,Flushing,NY,11367,205000,2,1,Mainstay 1,1000,,1955,210,205,,Active,,,http://www.redfin.com/NY/Flushing/144-55-Melbourne-Ave-11367/unit-6A/home/21691246,MLSLI,3137826,N,Y,40.734848,-73.8232512
MLS Listing,,Condo/Co-op,58-03A Van Cleef Unit 1-D,Corona,NY,11368,199990,0,1,Van Cleef Condominium,,,1988,216,,,Active,,,http://www.redfin.com/NY/Flushing/5803-Van-Cleef-St-11368/unit-1-D/home/167049962,MLSLI,3136078,N,Y,40.7400045,-73.8498792
MLS Listing,,Condo/Co-op,1075 Grand Concourse Unit 3C,Bronx,NY,10452,194900,1,1,Bronx,700,,1928,216,278,,Active,,,http://www.redfin.com/NY/The-Bronx/1075-Grand-Concourse-10452/unit-3C/home/167043009,HGMLS,4950573,N,Y,40.8320496,-73.9207806
MLS Listing,,Single Family Residential,2136 Richmond Ter,Staten Island,NY,10302,200000,2,1,Port Richmond,644,2552,1905,218,311,,Active,,,http://www.redfin.com/NY/Staten-Island/2136-Richmond-Ter-10302/home/56034265,SIBORMLS,1129544,N,Y,40.6401304,-74.1343873
MLS Listing,,Condo/Co-op,87-56 Francis Lewis Blvd Unit A-31,Queens Village,NY,11427,175000,1,1,Belmont Building,,,1950,228,,,Active,,,http://www.redfin.com/NY/Queens-Village/8756-Francis-Lewis-BLVD-11427/unit-A-31/home/166854386,MLSLI,3132208,N,Y,40.7302787,-73.7442568
MLS Listing,,Condo/Co-op,2741 E 28 St Unit 5A,Brooklyn,NY,11235,219000,1,1,Brooklyn,800,,,229,274,,Active,,,http://www.redfin.com/NY/Brooklyn/2741-E-28th-St-11235/unit-5A/home/166837399,BNYMLS,430260,N,Y,40.5862693,-73.9407123
MLS Listing,,Condo/Co-op,Unit at 3321 Bruckner Blvd,Bronx,NY,10461,190000,2,1,Pelham Bay,,,,229,,,Active,,,http://www.redfin.com/NY/The-Bronx/3321-Bruckner-Blvd-10461/home/44765051,REBNY,BOND1569615,N,Y,40.8420527,-73.8264218
MLS Listing,,Condo/Co-op,,Brooklyn,NY,11234,199000,2,1,,775,,,230,257,,Active,,,http://www.redfin.com/NY/Brooklyn/Undisclosed-address-11234/home/166812837,BNYMLS,429965,N,Y,40.6007956,-73.9065883
MLS Listing,,Condo/Co-op,104-20 W 68th Drive Dr Unit B25,Forest Hills,NY,11375,225000,1,1,James Monrow,800,,1950,233,281,,Active,,,http://www.redfin.com/NY/Forest-Hills/103-11-68th-Dr-11375/unit-B25/home/166756250,MLSLI,3130533,N,Y,40.724348,-73.8503272
MLS Listing,,Condo/Co-op,3000 Valentine Ave Unit 5G,Bronx,NY,10458,189000,1,1,Bronx,900,,1937,233,210,,Active,,,http://www.redfin.com/NY/The-Bronx/3000-Valentine-Ave-10458/unit-5G/home/44805631,HGMLS,4938342,N,Y,40.8724137,-73.8852231
MLS Listing,,Condo/Co-op,883 E 165th St Unit 1G,Bronx,NY,10459,189000,2,1,Bronx,850,,1907,233,222,,Active,,,http://www.redfin.com/NY/The-Bronx/883-E-165th-St-10459/unit-1G/home/169085448,HGMLS,4938301,N,Y,40.8240112,-73.8983088
MLS Listing,,Condo/Co-op,3656 Johnson Ave Unit 2J,Bronx,NY,10463,199999,1,1,Riverdale,750,,1931,235,267,,Active,,,http://www.redfin.com/NY/The-Bronx/3656-Johnson-Ave-10463/unit-2J/home/44804207,HGMLS,4935892,N,Y,40.8882218,-73.9090226
MLS Listing,,Single Family Residential,16345 Cross Bay Blvd,Howard Beach,NY,11414,185000,3,1.5,Howard Beach,,,1984,236,,,Active,,,http://www.redfin.com/NY/Unknown/163-45-Cross-Bay-Blvd-11414/home/133955232,MLSLI,3129622,N,Y,40.6516877,-73.8379249
MLS Listing,,Condo/Co-op,73-11 Bell Blvd Unit 5C,Bayside,NY,11364,208080,1,1,Windsor Park,,,1952,238,,,Active,,,http://www.redfin.com/NY/Flushing/7311-Bell-Blvd-11364/unit-5C/home/166628824,MLSLI,3128723,N,Y,40.7399328,-73.7572858
MLS Listing,,Condo/Co-op,114-20 Queens Blvd Unit CS1,Forest Hills,NY,11375,199000,1,1.5,Romney Hall,1000,,1940,257,199,,Active,,,http://www.redfin.com/NY/Flushing/114-20-Queens-Blvd-11375/unit-CS1/home/45408172,MLSLI,3122742,N,Y,40.7165617,-73.8348764
MLS Listing,,Vacant Land,0 Park Pl,Staten Island,NY,10301,195000,0,,New Brighton,,3855,,264,,,Active,,,http://www.redfin.com/NY/Staten-Island/Park-Pl-10301/home/56087518,SIBORMLS,1128131,N,Y,40.64346,-74.090284
MLS Listing,,Condo/Co-op,108-05 Astoria Blvd Unit 2B,E. Elmhurst,NY,11369,180000,1,1,Queens,600,15158,1965,268,300,,Active,,,http://www.redfin.com/NY/Flushing/108-05-Astoria-Blvd-11369/unit-2B/home/162222176,MLSLI,3119551,N,Y,40.760664,-73.860809
MLS Listing,,Condo/Co-op,5601 Riverdale Ave Unit 7S,Bronx,NY,10471,197999,1,1,Riverdale,750,,1954,270,264,,Active,,,http://www.redfin.com/NY/The-Bronx/5601-Riverdale-Ave-10471/unit-7S/home/44602152,HGMLS,4921141,N,Y,40.9048823,-73.9051113
MLS Listing,,Condo/Co-op,87-10 204th St Unit A-41,Hollis,NY,11423,175000,1,1,Hampshire Building,,,1950,271,,,Active,,,http://www.redfin.com/NY/Jamaica/87-10-204th-St-11423/unit-A-41/home/161585836,MLSLI,3118642,N,Y,40.7231484,-73.7633223
MLS Listing,,Condo/Co-op,1744 E 55 St Unit 41C,Brooklyn,NY,11234,215000,2,1,Brooklyn,900,,,272,239,,Active,,,http://www.redfin.com/NY/Brooklyn/1744-E-55th-St-11234/unit-41C/home/161493334,BNYMLS,428930,N,Y,40.6138569,-73.9216761
MLS Listing,,Condo/Co-op,150-40 Goethals Ave Unit 50-D,Jamaica,NY,11432,185000,1,1,Parkway Village,,,1948,274,,,Active,,,http://www.redfin.com/NY/Jamaica/150-40-Goethals-Ave-11432/unit-50-D/home/161409215,MLSLI,3117351,N,Y,40.7176662,-73.8104069
MLS Listing,,Condo/Co-op,Unit at 5800 Arlington Ave,Bronx,NY,10471,225000,0,1,Riverdale,,,,282,,,Active,,,http://www.redfin.com/NY/Bronx/5800-Arlington-Ave-10471/home/147794549,REBNY,ARGO941604,N,Y,40.9080135,-73.9055787
MLS Listing,,Condo/Co-op,1199 E 53 St Unit 7K,Brooklyn,NY,11234,203625,3,2,Brooklyn,1200,,1966,286,170,,Active,,,http://www.redfin.com/NY/Brooklyn/1199-E-53rd-St-11234/unit-7K/home/40672983,BNYMLS,428467,N,Y,40.6296166,-73.9245466
MLS Listing,,Condo/Co-op,285 E 35 St Unit 6K,Brooklyn,NY,11203,195000,1,1,Brooklyn,700,,,288,279,,Active,,,http://www.redfin.com/NY/Brooklyn/285-E-35th-St-11203/unit-6K/home/40650071,BNYMLS,428410,N,Y,40.6482666,-73.9442024
MLS Listing,,Condo/Co-op,83-30 98th St Unit 1B,Woodhaven,NY,11421,218000,1,1,Forest Park Co-op,,,1954,302,,,Active,,,http://www.redfin.com/NY/Woodhaven/83-30-98th-St-11421/unit-1B/home/160669494,MLSLI,3108227,N,Y,40.6993567,-73.8506876
MLS Listing,,Condo/Co-op,Unit at 2 E 55th St,New York,NY,10022,175000,1,2,Middle East Side,,,,308,,,Active,,,http://www.redfin.com/NY/New-York/2-E-55th-St-10022/home/160603855,REBNY,UCOM1808686,N,Y,40.7613979,-73.9746128
MLS Listing,,Condo/Co-op,131-11 Kew Gardens Rd Unit 5L,Richmond Hill,NY,11418,210000,1,1,Kew Manor,672,,1960,310,313,,Active,,,http://www.redfin.com/NY/Jamaica/131-11-Kew-Gardens-Rd-11418/unit-5L/home/20640582,MLSLI,3105944,N,Y,40.7049799,-73.8214685
MLS Listing,,Condo/Co-op,Unit at 5601 Riverdale Ave,Bronx,NY,10471,175000,1,1,Riverdale,,,,313,,,Active,,,http://www.redfin.com/NY/Bronx/5601-Riverdale-Ave-10471/home/147159900,REBNY,SOTH770029,N,Y,40.9048823,-73.9051113
MLS Listing,,Condo/Co-op,17-85 215 St Unit 1 Ee,Bayside,NY,11360,219000,0,1,Bay Terrace,,,1970,314,,100,Active,,,http://www.redfin.com/NY/Flushing/17-85-215th-St-11360/unit-1-Ee/home/160561633,MLSLI,3104635,N,Y,40.7845312,-73.7763299
MLS Listing,,Condo/Co-op,1170 Ocean Pkwy Unit 8G,Brooklyn,NY,11230,205000,1,1,Brooklyn,850,,1965,335,241,,Active,,,http://www.redfin.com/NY/Brooklyn/1170-Ocean-Pkwy-11230/unit-8G/home/40927176,BNYMLS,427081,N,Y,40.6201214,-73.9704227
MLS Listing,,Vacant Land,11 Sandgap St,Staten Island,NY,10312,219000,0,,S.E. Annadale,,2500,,341,,,Active,,,http://www.redfin.com/NY/Staten-Island/11-Sandgap-St-10312/home/56023211,SIBORMLS,1125912,N,Y,40.528672,-74.1614869
MLS Listing,,Condo/Co-op,234-21 133rd Ave,Rosedale,NY,11422,200000,1,1,Laurelton Gardens,,,1950,350,,,Active,,,http://www.redfin.com/NY/Rosedale/234-21-133rd-Ave-11422/Uppr/home/20639761,MLSLI,3095559,N,Y,40.6757627,-73.7342541
MLS Listing,,Condo/Co-op,Unit at 3725 Henry Hudson Pkwy W,Bronx,NY,10463,225000,1,1,Riverdale,,,,351,,,Active,,,http://www.redfin.com/NY/Bronx/3725-Henry-Hudson-Pkwy-W-10463/home/148752526,REBNY,BHSR19385832,N,Y,40.8889197,-73.9106761
MLS Listing,,Single Family Residential,3344 Richmond Ter Unit A,Staten Island,NY,10303,189900,2,1,Mariners Harbor,700,750,1988,352,271,60,Active,,,http://www.redfin.com/NY/Unknown/3344-Richmond-Ter-10303/unit-A/home/102011409,SIBORMLS,1125631,N,Y,40.6405164,-74.169957
MLS Listing,,Condo/Co-op,1165 E 54 St Unit 4G,Brooklyn,NY,11234,200000,2,1,Brooklyn,800,,,385,250,,Active,,,http://www.redfin.com/NY/Unknown/1165-E-54th-St-11234/unit-4G/home/113887408,BNYMLS,425935,N,Y,40.62951,-73.923635
MLS Listing,,Condo/Co-op,1000 Clove Rd Unit 2p,Staten Island,NY,10301,179900,1,1,Clove Lake,700,89142,1966,389,257,905,Active,,,http://www.redfin.com/NY/Staten-Island/1000-Clove-Rd-10301/unit-2p/home/148504758,SIBORMLS,1124814,N,Y,40.6202645,-74.1099106
MLS Listing,,Condo/Co-op,,Staten Island,NY,10306,199000,1,1,,861,861,1961,427,231,,Active,,,http://www.redfin.com/NY/Staten-Island/Undisclosed-address-10306/home/56081159,SIBORMLS,1124094,N,Y,40.5795138,-74.1075247
MLS Listing,,Condo/Co-op,1151 Brighton Beach Ave Unit 2H,Brooklyn,NY,11235,219000,0,1,Brooklyn,450,,,442,487,,Active,,,http://www.redfin.com/NY/Brooklyn/1151-Brighton-Beach-Ave-11235/unit-2H/home/40662137,BNYMLS,424665,N,Y,40.5776531,-73.955303
MLS Listing,,Condo/Co-op,Unit at 555 Kappock St,Bronx,NY,10463,193000,1,1,Spuyten Duyvil,,,,474,,,Active,,,http://www.redfin.com/NY/The-Bronx/555-Kappock-St-10463/home/44765304,REBNY,UCOM1727849,N,Y,40.8780303,-73.9169226
MLS Listing,,Condo/Co-op,767 Eastern Pkwy Unit 4B,Brooklyn,NY,11213,185000,1,1,Brooklyn,500,,1905,480,370,,Active,,,http://www.redfin.com/NY/Unknown/767-Eastern-Pkwy-11213/unit-4B/home/144279771,HGMLS,4843495,N,Y,40.669916,-73.94291
MLS Listing,,Condo/Co-op,620 W 239th St Unit 6D,Bronx,NY,10463,205000,1,1,Riverdale,950,,1952,483,216,,Active,,,http://www.redfin.com/NY/Bronx/620-W-239th-St-10463/unit-6D/home/147035586,HGMLS,4842953,N,Y,40.8894795,-73.9118284
MLS Listing,,Condo/Co-op,Unit at 555 Kappock St,Bronx,NY,10463,179000,1,1,Spuyten Duyvil,,,,538,,,Active,,,http://www.redfin.com/NY/Bronx/555-Kappock-St-10463/home/146274353,REBNY,BACH18794528,N,Y,40.8780303,-73.9169226
MLS Listing,,Condo/Co-op,1855 Grand Concourse #66,Bronx,NY,10453,197997,1,1,Bronx,860,,1936,624,230,,Active,,,http://www.redfin.com/NY/The-Bronx/1855-Grand-Concourse-10453/unit-66/home/53615620,HGMLS,4817817,N,Y,40.8495489,-73.9056691
MLS Listing,,Condo/Co-op,139-15 83 Ave #706,Briarwood,NY,11435,199000,1,1,The Arlington,,,1958,674,,,Active,,,http://www.redfin.com/NY/Unknown/139-15-83rd-Ave-11435/unit-706/home/145075273,MLSLI,3009464,N,Y,40.7131252,-73.81923
MLS Listing,,Condo/Co-op,Unit at 3512 Oxford Ave,Bronx,NY,10463,220000,2,1,Riverdale,,,,868,,,Active,,,http://www.redfin.com/NY/The-Bronx/3512-Oxford-Ave-10463/home/45423860,REBNY,HALS17366297,N,Y,40.8859234,-73.9085633
MLS Listing,,Condo/Co-op,Unit at 185 Pacific St,Brooklyn,NY,11201,185000,0,,Cobble Hill,,,,929,,,Active,,,http://www.redfin.com/NY/Brooklyn/185-Pacific-St-11201/home/130552743,REBNY,DEGI2739860,N,Y,40.6893876,-73.9931455
MLS Listing,,Condo/Co-op,Unit at 185 Pacific St,Brooklyn,NY,11201,200000,0,,Cobble Hill,,,,929,,,Active,,,http://www.redfin.com/NY/Brooklyn/185-Pacific-St-11201/home/130552731,REBNY,DEGI2739855,N,Y,40.6893876,-73.9931455
MLS Listing,,Vacant Land,0 Savoy St,Staten Island,NY,10306,200000,0,,Oakwood,,4000,,937,,,Active,,,http://www.redfin.com/NY/Staten-Island/Savoy-St-10306/home/56071432,SIBORMLS,1111462,N,Y,40.563295,-74.131444
MLS Listing,,Single Family Residential,37 Via Acquara,,,0,185000,2,2,Off Island,2000,8000,2008,1027,93,,Active,,,http://www.redfin.com/Unknown/Unknown/37-Via-Acquara-Unknown/home/113437858,SIBORMLS,1109151,N,Y,40.568271,-74.156876
For-Sale-by-Owner Listing,,Condo/Co-op,65-15 Alderton St Apt 5f,Flushing,NY,11374,222000,0,1,Rego Park,450,,1964,33,493,,Active,,,http://www.redfin.com/NY/Flushing/65-15-Alderton-St-11374/unit-5F/home/20633797,Fizber.com,5037003,N,Y,40.720847,-73.858929
For-Sale-by-Owner Listing,,Condo/Co-op,140-10 84th Dr Apt 2h,Briarwood,NY,11435,189000,0,1,Jamaica,122640,,1959,172,2,,Active,,,http://www.redfin.com/NY/Briarwood/140-10-84th-Dr-11435/unit-2H/home/58804909,Fizber.com,5024437,N,Y,40.7095956,-73.8164123
