SALE TYPE,SOLD DATE,PROPERTY TYPE,ADDRESS,CITY,STATE OR PROVINCE,ZIP OR POSTAL CODE,PRICE,BEDS,BATHS,LOCATION,SQUARE FEET,LOT SIZE,YEAR BUILT,DAYS ON MARKET,$/SQUARE FEET,HOA/MONTH,STATUS,NEXT OPEN HOUSE START TIME,NEXT OPEN HOUSE END TIME,URL (SEE http://www.redfin.com/buy-a-home/comparative-market-analysis FOR INFO ON PRICING),SOURCE,MLS#,FAVORITE,INTERESTED,LATITUDE,LONGITUDE
MLS Listing,,Condo/Co-op,233 E 69th St Unit 5D,New York,NY,10021,1250000,2,2,Upper East Side,,,1955,1,,,Active,,,http://www.redfin.com/NY/New-York/233-E-69th-St-10021/home/45182357,REBNY,CHRS2865582,N,Y,40.7672521,-73.9601827
MLS Listing,,Condo/Co-op,39 Remsen St Unit 2C,Brooklyn,NY,11201,1150000,2,1,Brooklyn Heights,,,,1,,,Active,,,http://www.redfin.com/NY/Unknown/39-Remsen-St-11201/home/114922633,REBNY,DEGI4049475,N,Y,40.694987,-73.996842
MLS Listing,,Condo/Co-op,404 Grand St Unit GARDEN 1,Brooklyn,NY,11211,1250000,2,1.5,Brooklyn,1501,,2017,2,833,,Active,,,http://www.redfin.com/NY/Brooklyn/404-Grand-St-11211/unit-GARDEN1/home/170245180,HGMLS,6003761,N,Y,40.7116387,-73.9541537
MLS Listing,,Condo/Co-op,304 W 89th St Unit 8B,New York,NY,10024,1150000,2,1,Upper West Side,,,1923,3,,,Active,,,http://www.redfin.com/NY/New-York/304-W-89th-St-10024/home/45200412,REBNY,UCOM1865399,N,Y,40.7908475,-73.9770571
MLS Listing,,Condo/Co-op,404 Grand St #1,Brooklyn,NY,11211,1250000,2,1.5,Williamsburg,1490,,2017,3,839,,Active,,,http://www.redfin.com/NY/Unknown/404-Grand-St-11211/home/145245714,REBNY,UCOM1734898,N,Y,40.7116304,-73.9541558
MLS Listing,,Condo/Co-op,500 E 83rd St Unit 6E,New York,NY,10028,1150000,2,2,Upper East Side,1257,,1966,3,915,,Active,,,http://www.redfin.com/NY/New-York/500-E-83rd-St-10028/home/170268272,REBNY,HALS19989990,N,Y,40.7735711,-73.9481587
MLS Listing,,Condo/Co-op,333 Pearl St Unit 17C,New York,NY,10038,1250000,2,1,Financial District,,,1971,4,,,Active,,,http://www.redfin.com/NY/New-York/333-Pearl-St-10038/home/170245173,REBNY,BHSR20010376,N,Y,40.7095003,-74.0026069
MLS Listing,,Condo/Co-op,520 E 90th St Unit 3A,New York,NY,10128,1250000,2,2,Upper East Side,1400,,1940,4,893,,Active,,,http://www.redfin.com/NY/New-York/520-E-90th-St-10128/home/53512970,REBNY,RUTE1863067,N,Y,40.7779695,-73.9442984
MLS Listing,,Condo/Co-op,61 E 77th St Unit 3EF,New York,NY,10075,1150000,2,2,Upper East Side,925,,1904,4,1243,,Active,,,http://www.redfin.com/NY/New-York/61-E-77th-St-10075/home/114458197,REBNY,SOTH2867033,N,Y,40.7749467,-73.9622031
MLS Listing,,Condo/Co-op,278 Nassau Ave Unit 3B,Brooklyn,NY,11222,1229000,2,1,Green Point,1124,,,4,1093,,Active,,,http://www.redfin.com/NY/Brooklyn/278-Nassau-Ave-11222/home/170236662,REBNY,INHO107381,N,Y,40.7259129,-73.9396284
MLS Listing,,Condo/Co-op,870 United Nations Plz Unit 8C,New York,NY,10017,1200000,2,2,Middle East Side,1250,,1966,5,960,,Active,,,http://www.redfin.com/NY/New-York/870-United-Nations-Plz-10017/home/148188495,REBNY,UCOM1792613,N,Y,40.7523732,-73.965546
MLS Listing,,Condo/Co-op,264 Water St Unit 3D,New York,NY,10038,1100000,2,2,Financial District,,,1900,6,,,Active,,,http://www.redfin.com/NY/NEW-YORK/264-WATER-ST-10038/home/105885109,REBNY,CORC5957432,N,Y,40.70871556,-74.00162272
MLS Listing,,Condo/Co-op,575 Fourth Ave Unit 4J,Brooklyn,NY,11215,1195000,2,2,Park Slope,1062,,,6,1125,,Active,,,http://www.redfin.com/NY/Brooklyn/575-4th-Ave-11215/home/170227126,REBNY,DEGI3778678,N,Y,40.6655513,-73.9922171
MLS Listing,,Condo/Co-op,575 Fourth Ave Unit 5D,Brooklyn,NY,11215,1250000,2,2,Park Slope,1015,,,6,1232,,Active,,,http://www.redfin.com/NY/Brooklyn/575-4th-Ave-11215/home/170226580,REBNY,DEGI3778985,N,Y,40.6655513,-73.9922171
MLS Listing,,Condo/Co-op,442 Pulaski St #1,Brooklyn,NY,11221,1099000,2,2.5,Bedford Stuyvesant,1728,,,6,636,,Active,,,http://www.redfin.com/NY/Brooklyn/442-Pulaski-St-11221/home/170225094,REBNY,DEGI4067408,N,Y,40.6940339,-73.9332551
MLS Listing,,Condo/Co-op,55 Oceana Dr E Unit 8A,Brooklyn,NY,11235,1199000,2,2,Brooklyn,1200,,2008,7,999,,Active,,,http://www.redfin.com/NY/Brooklyn/55-Oceana-Dr-E-11235/unit-8A/home/40669220,BNYMLS,435684,N,Y,40.5775538,-73.957029
MLS Listing,,Condo/Co-op,206 E 95th St Unit 12B,New York,NY,10128,1250000,2,2,Upper East Side,1001,,2007,8,1249,,Active,,,http://www.redfin.com/NY/New-York/206-E-95th-St-10128/home/45207153,REBNY,UCOM411281,N,Y,40.7841068,-73.9493801
MLS Listing,,Condo/Co-op,210 Jackson St Unit 3A,Brooklyn,NY,11211,1189000,2,2,Brooklyn,1060,,2018,10,1122,,Active,,,http://www.redfin.com/NY/Brooklyn/210-Jackson-St-11211/unit-3A/home/170208219,HGMLS,6000955,N,Y,40.716736,-73.9423578
MLS Listing,,Condo/Co-op,11-24 31st Ave Unit 12E,Long Island City,NY,11106,1098000,2,2,East River Tower,1264,17469,2007,10,869,,Active,,,http://www.redfin.com/NY/Long-Island-City/11-24-31st-Ave-11106/unit-12E/home/25506284,MLSLI,3189054,N,Y,40.7690761,-73.9344072
MLS Listing,,Condo/Co-op,130 Water St Unit 5B,New York,NY,10005,1100000,2,2,Financial District,1266,,1956,11,869,,Active,,,http://www.redfin.com/NY/New-York/130-Water-St-10005/home/170196573,REBNY,TRIP1864071,N,Y,40.7056237,-74.0070969
MLS Listing,,Townhouse,1675 42nd St,Brooklyn,NY,11204,1200000,2,1,Borough Park,2240,2000,1925,11,536,,Active,,,http://www.redfin.com/NY/Brooklyn/1675-42nd-St-11218/home/40795026,SIBORMLS,1134532,N,Y,40.6340175,-73.9794873
MLS Listing,,Condo/Co-op,301 E 22nd St Unit 3TU,New York,NY,10010,1200000,2,2,Gramercy Park,,,1966,11,,,Active,,,http://www.redfin.com/NY/New-York/301-E-22nd-St-10010/home/45327228,REBNY,CORC5957229,N,Y,40.7372683,-73.9809854
MLS Listing,,Condo/Co-op,120 Oceana Dr Unit 5F,Brooklyn,NY,11235,1034000,2,2.5,Brooklyn,1332,,2001,11,776,650,Active,,,http://www.redfin.com/NY/Brooklyn/120-Oceana-Dr-W-11235/unit-5F/home/40913093,HGMLS,6000459,N,Y,40.5757519,-73.9584837
MLS Listing,,Condo/Co-op,401 E 74th St Unit 11E,New York,NY,10021,1070000,2,1,Upper East Side,,,1961,11,,,Active,,,http://www.redfin.com/NY/New-York/401-E-74th-St-10021/home/170193272,REBNY,NYRI1863970,N,Y,40.7689716,-73.9543069
MLS Listing,,Condo/Co-op,159-34 Riverside Dr W Unit 3E,New York,NY,10032,1250000,2,2,New York,1385,,1941,13,903,,Active,,,http://www.redfin.com/NY/New-York/15934-Riverside-Dr-W-10032/unit-3E/home/170187257,HGMLS,5130413,N,Y,40.8375577,-73.9479329
MLS Listing,,Condo/Co-op,502 Ninth Ave Unit 9C,New York,NY,10018,1125000,2,2,Chelsea,,,2005,13,,,Active,,,http://www.redfin.com/NY/New-York/502-9th-Ave-10018/home/45221821,REBNY,CORC5952231,N,Y,40.7559371,-73.9941049
MLS Listing,,Condo/Co-op,159 -34 Riverside Dr W Unit 3E,New York,NY,10037,1250000,2,2,Washington Heights,1385,,1941,13,903,,Active,,,http://www.redfin.com/NY/New-York/159-0-Riverside-Dr-W-10032/home/169596700,REBNY,UCOM1856647,N,Y,40.837251,-73.9476642
MLS Listing,,Condo/Co-op,42 -50 27th St Unit 5C,Queens,NY,11101,1195000,2,2,Long Island City,929,,2017,14,1286,,Active,,,http://www.redfin.com/NY/Long-Island-City/42-02-27th-St-11101/home/160468679,REBNY,CHAS1863820,N,Y,40.750163,-73.940174
MLS Listing,,Condo/Co-op,131-01 40 Rd Unit 18F,Flushing,NY,11354,1150000,2,2,Grand Three,1000,,2017,14,1150,832,Active,,,http://www.redfin.com/NY/Flushing/131-01-40-Rd-11354/unit-18F/home/144425415,MLSLI,3188149,N,Y,40.7563783,-73.8367678
MLS Listing,,Condo/Co-op,150 Oceana Dr W Unit 5G,Brooklyn,NY,11235,1034000,2,2.5,Brooklyn,1332,,2001,16,776,550,Active,,,http://www.redfin.com/NY/Brooklyn/150-Oceana-Dr-W-11235/unit-5G/home/40913200,HGMLS,5129689,N,Y,40.5770098,-73.958346
MLS Listing,,Condo/Co-op,200 W 79th St Unit 6F,New York,NY,10024,1050000,2,1.5,Upper West Side,,,1974,18,,,Active,,,http://www.redfin.com/NY/New-York/200-W-79th-St-10024/home/45177619,REBNY,DEGI4048696,N,Y,40.7829312,-73.9788937
MLS Listing,,Condo/Co-op,138-35 39 Ave Unit 7M,Flushing,NY,11354,1193000,2,2,Fulton F&T Group,,,2017,26,,870,Active,,,http://www.redfin.com/NY/Flushing/13835-39th-Ave-11354/unit-7M/home/142633640,MLSLI,3186908,N,Y,40.7612026,-73.8277106
MLS Listing,,Condo/Co-op,529 Park Pl #401,Brooklyn,NY,11238,1225000,2,2,Crown Heights,1014,,2019,31,1208,,Active,,,http://www.redfin.com/NY/Brooklyn/529-Park-Pl-11238/home/170073682,REBNY,HALS19989508,N,Y,40.675146,-73.960436
MLS Listing,,Condo/Co-op,760 Bergen St Unit 1R,Brooklyn,NY,11238,1198000,2,1.5,Brooklyn,1445,,2017,33,829,,Active,,,http://www.redfin.com/NY/Brooklyn/760-Bergen-St-11238/unit-1R/home/143610930,BNYMLS,435309,N,Y,40.6782562,-73.9631426
MLS Listing,,Condo/Co-op,318 Quincy St #1,Brooklyn,NY,11216,1088000,2,2,Brooklyn,1206,,2019,34,902,,Active,,,http://www.redfin.com/NY/Brooklyn/318-Quincy-St-11216/home/170052557,REBNY,CORC5947185,N,Y,40.6870415,-73.9484052
MLS Listing,,Multi-Family (2-4 Unit),132-07 Liberty Ave,Richmond Hill,NY,11419,1199000,2,2.5,Richmond Hill,,1211,1925,34,,,Active,,,http://www.redfin.com/NY/Jamaica/132-07-Liberty-Ave-11419/home/20769779,MLSLI,3185383,N,Y,40.690855,-73.814018
MLS Listing,,Condo/Co-op,325 E 79th St Unit 9C,New York,NY,10075,1090000,2,2,Upper East Side,,,1929,35,,,Active,,,http://www.redfin.com/NY/New-York/325-E-79th-St-10075/home/170038902,REBNY,BHSR19982337,N,Y,40.7729553,-73.9535736
MLS Listing,,Condo/Co-op,245 E 24th St Unit 10DE,New York,NY,10010,1250000,2,2,Gramercy Park,1300,,1961,35,962,,Active,,,http://www.redfin.com/NY/New-York/245-E-24th-St-10010/home/170037077,REBNY,CORC5937456,N,Y,40.7388152,-73.9806852
MLS Listing,,Condo/Co-op,235 E 57th St Unit 16F,New York,NY,10022,1250000,2,2,Middle East Side,,,1960,39,,,Active,,,http://www.redfin.com/NY/New-York/235-E-57th-St-10022/home/170016046,REBNY,BHSR19963169,N,Y,40.7598069,-73.965722
MLS Listing,,Condo/Co-op,7 W 96th St Unit 9EE,New York,NY,10025,1145000,2,2,New York,1100,,1931,39,1041,,Active,,,http://www.redfin.com/NY/New-York/7-W-96th-St-10025/unit-9EE/home/170013720,HGMLS,5124463,N,Y,40.7922081,-73.9653256
MLS Listing,,Condo/Co-op,300 E 71st St Unit 10H,New York,NY,10021,1200000,2,2,Upper East Side,1200,,1961,40,1000,,Active,,,http://www.redfin.com/NY/New-York/300-E-71st-St-10021/home/170011952,REBNY,CHRS2821956,N,Y,40.7678083,-73.9585353
MLS Listing,,Condo/Co-op,230 E 50th St Unit 3B,New York,NY,10022,1250000,2,1.5,Middle East Side,1150,,1928,40,1087,,Active,,,http://www.redfin.com/NY/New-York/230-E-50th-St-10022/home/114441956,REBNY,BOND1609615,N,Y,40.7552231,-73.9698525
MLS Listing,,Condo/Co-op,531 Main St #220,Roosevelt Island,NY,10044,1180000,2,2,Roosevelt Island,1343,,1976,40,879,,Active,,,http://www.redfin.com/NY/New-York/531-Main-St-10044/home/166856139,REBNY,CORC5944043,N,Y,40.7614625,-73.9505053
MLS Listing,,Condo/Co-op,50 E 8th St Unit 2UV,New York,NY,10003,1145000,2,2,Central Village,,,1950,40,,,Active,,,http://www.redfin.com/NY/New-York/50-E-8th-St-10003/home/170007768,REBNY,DEGI4039121,N,Y,40.7309259,-73.9938
MLS Listing,,Condo/Co-op,333 E 55th St Unit 6B/7B,New York,NY,10022,1175000,2,2,Middle East Side,1250,,1959,40,940,,Active,,,http://www.redfin.com/NY/New-York/333-E-55th-St-10022/home/115523880,REBNY,LAMB1861210,N,Y,40.757564,-73.964594
MLS Listing,,Condo/Co-op,457 W 57th St Unit 1707/1706,New York,NY,10019,1190000,2,2,New York,1100,,1930,44,1082,,Active,,,http://www.redfin.com/NY/New-York/457-W-57th-St-10019/unit-1707/home/45148921,HGMLS,5123377,N,Y,40.7689628,-73.9875712
MLS Listing,,Condo/Co-op,457 W 57th St Unit 1706/1707,New York,NY,10019,1190000,2,2,Middle West Side,1100,,1929,48,1082,,Active,,,http://www.redfin.com/NY/New-York/457-W-57th-St-10019/home/45167833,REBNY,UCOM1860622,N,Y,40.7689628,-73.9875712
MLS Listing,,Condo/Co-op,399 E 8th St Unit 5A,New York,NY,10009,1095000,2,1,East Village,,,2016,51,,,Active,,,http://www.redfin.com/NY/New-York/399-E-8th-St-10009/home/144131648,REBNY,BOND1608607,N,Y,40.7239862,-73.9763278
MLS Listing,,Condo/Co-op,3 Hanover Sq Unit 6KL,New York,NY,10004,1040000,2,2,Lower Manhattan,,,1926,52,,,Active,,,http://www.redfin.com/NY/New-York/3-Hanover-Sq-10005/home/169921718,REBNY,DEGI4030141,N,Y,40.7049944,-74.0096537
MLS Listing,,Condo/Co-op,630 First Ave Unit 9L,New York,NY,10016,1225000,2,2,Murray Hill Kips Bay,967,,1984,52,1267,,Active,,,http://www.redfin.com/NY/New-York/630-1st-Ave-10016/home/45258441,REBNY,MALR19968829,N,Y,40.7451918,-73.9716642
MLS Listing,,Condo/Co-op,140-75 Ash Ave Unit 7A,Flushing,NY,11355,1060000,2,2,Fairway Prime,,,2013,53,,,Active,,,http://www.redfin.com/NY/Flushing/140-75-Ash-Ave-11355/unit-7A/home/59308246,MLSLI,3182031,N,Y,40.7565214,-73.8217769
MLS Listing,,Condo/Co-op,161 Jackson St #3,Brooklyn,NY,11211,1200000,2,1,Green Point,900,,2014,54,1333,,Active,,,http://www.redfin.com/NY/Brooklyn/161-Jackson-St-11211/home/92328936,REBNY,UCOM1780719,N,Y,40.7168595,-73.944397
MLS Listing,,Condo/Co-op,80 Roebling St Unit 3A,Brooklyn,NY,11211,1250000,2,2,Williamsburg N Side,1128,,2007,54,1108,,Active,,,http://www.redfin.com/NY/Brooklyn/80-Roebling-St-11211/home/169902360,REBNY,HALS19963786,N,Y,40.7164963,-73.9550614
MLS Listing,,Condo/Co-op,185 Battery Ave Unit 1C,Brooklyn,NY,11228,1250000,2,2.5,Brooklyn,1750,,2010,56,714,577,Active,,,http://www.redfin.com/NY/Brooklyn/185-Battery-Ave-11228/unit-1C/home/59294097,HGMLS,5120738,N,Y,40.6147109,-74.0250089
MLS Listing,,Single Family Residential,69-65 44th Ave,Woodside,NY,11377,1050000,2,1,Woodside,,2811,1925,56,,,Active,,,http://www.redfin.com/NY/Flushing/69-65-44th-Ave-11377/home/20938111,MLSLI,3181236,N,Y,40.741387,-73.8934
MLS Listing,,Condo/Co-op,650 Metropolitan Ave Unit 2A,Brooklyn,NY,11211,1175000,2,2,Williamsburg,920,,2019,58,1277,,Active,,,http://www.redfin.com/NY/Brooklyn/650-Metropolitan-Ave-11211/home/169856187,REBNY,DEGI4023597,N,Y,40.7140906,-73.9473156
MLS Listing,,Condo/Co-op,630 First Ave Unit 28H,New York,NY,10016,1250000,2,2,Murray Hill Kips Bay,1000,,1985,59,1250,,Active,,,http://www.redfin.com/NY/New-York/630-1st-Ave-10016/home/45258996,REBNY,CCRI1859419,N,Y,40.7451918,-73.9716642
MLS Listing,,Condo/Co-op,480 Park Ave Unit 8J,New York,NY,10022,1195000,2,1,Middle East Side,1000,,1929,59,1195,,Active,,,http://www.redfin.com/NY/New-York/480-Park-Ave-10022/home/53325703,REBNY,ELEG107696,N,Y,40.7627259,-73.97066
MLS Listing,,Condo/Co-op,2600 Seventh Ave Unit 5C,New York,NY,10039,1048000,2,2,Harlem,920,,2019,59,1139,,Active,,,http://www.redfin.com/NY/New-York/2600-Adam-Clayton-Powell-Junior-Blvd-10039/home/169838263,REBNY,BOND1607551,N,Y,40.8249248,-73.9368182
MLS Listing,,Condo/Co-op,242 S 1st St Unit 4D,Brooklyn,NY,11211,1199000,2,2,Williamsburg,1158,,1911,60,1035,,Active,,,http://www.redfin.com/NY/Brooklyn/242-S-1st-St-11211/home/40671107,REBNY,CORC5932675,N,Y,40.7122184,-73.9576802
MLS Listing,,Condo/Co-op,63 Conselyea St Unit B4,Brooklyn,NY,11211,1100000,2,2,Williamsburg,,,2004,61,,,Active,,,http://www.redfin.com/NY/Brooklyn/63-Conselyea-St-11211/home/40668713,REBNY,UCOM1171835,N,Y,40.7150377,-73.9488267
MLS Listing,,Condo/Co-op,475 Washington Ave Unit 5I,Brooklyn,NY,11238,1189000,2,2,Clinton Hill,1128,,1931,62,1054,,Active,,,http://www.redfin.com/NY/Brooklyn/475-Washington-Ave-11238/home/169291984,REBNY,UCOM1858269,N,Y,40.6844237,-73.964688
MLS Listing,,Condo/Co-op,412 Eighth Ave Unit D1,Brooklyn,NY,11215,1010000,2,1,Park Slope,892,,1920,62,1132,,Active,,,http://www.redfin.com/NY/Brooklyn/412-8th-Ave-11215/home/40921995,REBNY,UCOM1858834,N,Y,40.6684908,-73.9773448
MLS Listing,,Condo/Co-op,43 W 61st St Unit 19J,New York,NY,10023,1220000,2,2,Upper West Side,840,,1930,63,1452,,Active,,,http://www.redfin.com/NY/New-York/43-W-61st-St-10023/home/45264832,REBNY,ELEG1479908,N,Y,40.7704951,-73.9833032
MLS Listing,,Condo/Co-op,70 W 139th St Unit 7D,New York,NY,10037,1089000,2,2,New York,1025,99499,2017,65,1062,816,Active,,,http://www.redfin.com/NY/New-York/70-W-139th-St-10037/unit-7D/home/169525864,HGMLS,5119023,N,Y,40.8162042,-73.9383242
MLS Listing,,Condo/Co-op,334 22nd St Unit 2A,Brooklyn,NY,11232,1200000,2,2,Greenwood,,,2019,66,,,Active,,,http://www.redfin.com/NY/Brooklyn/334-22nd-St-11215/home/169734467,REBNY,CORC5926166,N,Y,40.6584986,-73.9905899
MLS Listing,,Condo/Co-op,121 Kingsland Ave Unit 1R,Brooklyn,NY,11222,1150000,2,1.5,East Williamsburg,,,,67,,,Active,,,http://www.redfin.com/NY/Brooklyn/121-Kingsland-Ave-11222/home/166900168,REBNY,INHO105517,N,Y,40.7206873,-73.9410912
MLS Listing,,Condo/Co-op,131-05 40th Rd Ph 3M,Flushing,NY,11354,1030000,2,2,Grand At Skyview Parc,1025,,2017,69,1005,926,Active,,,http://www.redfin.com/NY/Flushing/13105-40-Rd-11354/unit-3M/home/144212720,MLSLI,3178350,N,Y,40.7571799,-73.83395
MLS Listing,,Condo/Co-op,343 E 74th St Unit 20C,New York,NY,10021,1095000,2,2,Upper East Side,1015,,1987,69,1079,,Active,,,http://www.redfin.com/NY/New-York/343-E-74th-St-10021/home/45158827,REBNY,SOTH2813375,N,Y,40.7696861,-73.9557104
MLS Listing,,Condo/Co-op,344 Degraw St Unit 1C,Brooklyn,NY,11231,1200000,2,2.5,Carroll Gardens,,,2005,69,,,Active,,,http://www.redfin.com/NY/Brooklyn/344-Degraw-St-11231/home/40634963,REBNY,DEGI4010547,N,Y,40.6829933,-73.993806
MLS Listing,,Condo/Co-op,440 E 79th St Unit 17KL,New York,NY,10075,1195000,2,2,Upper East Side,,,1955,69,,,Active,,,http://www.redfin.com/NY/New-York/440-E-79th-St-10075/home/169650350,REBNY,KLEI19944979,N,Y,40.7715364,-73.9513203
MLS Listing,,Condo/Co-op,41-26 27th St Unit 5E,New York,NY,11101,1025000,2,2,New York,1033,,2004,69,992,,Active,,,http://www.redfin.com/NY/Long-Island-City/41-26-27th-St-11101/unit-5E/home/20645689,HGMLS,5068774,N,Y,40.7513042,-73.939082
MLS Listing,,Multi-Family (2-4 Unit),3059 Valentine Ave,Bronx,NY,10458,1195000,2,1.5,Bronx,1480,1875,,70,807,,Active,,,http://www.redfin.com/NY/The-Bronx/3059-Valentine-Ave-10458/home/169649095,BNYMLS,434527,N,Y,40.8741393,-73.8850186
MLS Listing,,Condo/Co-op,150 W 51st St #1407,New York,NY,10019,1195000,2,1,Middle West Side,718,,1926,70,1664,,Active,,,http://www.redfin.com/NY/New-York/150-W-51st-St-10019/home/114831033,REBNY,UCOM1373961,N,Y,40.7613128,-73.9826353
MLS Listing,,Condo/Co-op,155 E 93rd St Unit 11B,New York,NY,10128,1100000,2,2,Upper East Side,1130,,1928,74,973,,Active,,,http://www.redfin.com/NY/New-York/155-E-93rd-St-10128/home/169628233,REBNY,CORC5922692,N,Y,40.7839452,-73.9519374
MLS Listing,,Condo/Co-op,285 Riverside Dr Unit 1A,New York,NY,10025,1100000,2,1,Upper West Side,,,1940,74,,,Active,,,http://www.redfin.com/NY/New-York/285-Riverside-Dr-10025/home/169627998,REBNY,FWRE19939813,N,Y,40.7989206,-73.9723967
MLS Listing,,Condo/Co-op,437 Putnam Ave Unit RESIDENCE 1,Brooklyn,NY,11221,1100000,2,2.5,Brooklyn,1645,,1900,74,669,,Active,,,http://www.redfin.com/NY/Brooklyn/437-Putnam-Ave-11221/unit-RESIDENCE-1/home/169969669,HGMLS,5082050,N,Y,40.68498,-73.943596
MLS Listing,,Condo/Co-op,136-24 Maple Ave Unit 4E,Flushing,NY,11355,1068000,2,2,Wisteria Gargens,1045,,1984,75,1022,,Active,,,http://www.redfin.com/NY/Flushing/136-24-Maple-Ave-11355/unit-4E/home/20853713,MLSLI,3176814,N,Y,40.7556252,-73.8271683
MLS Listing,,Condo/Co-op,330 E 38th St Unit 19I,New York,NY,10016,1199000,2,1,Middle East Side,763,,1989,75,1571,,Active,,,http://www.redfin.com/NY/New-York/330-E-38th-St-10016/home/45257578,REBNY,HALS19934239,N,Y,40.746393,-73.9727324
MLS Listing,,Condo/Co-op,144 E 36th St Unit 8A,New York,NY,10016,1245000,2,1.5,Murray Hill Kips Bay,,,1915,75,,,Active,,,http://www.redfin.com/NY/New-York/144-E-36th-St-10016/home/169599150,REBNY,UCOM1856681,N,Y,40.7472792,-73.9781856
MLS Listing,,Condo/Co-op,926 Pacific St Unit GARDEN1,Brooklyn,NY,11238,1200000,2,1.5,Crown Heights,1710,,1900,76,702,,Active,,,http://www.redfin.com/NY/Brooklyn/926-Pacific-St-11238/home/169986769,REBNY,BOLD161742,N,Y,40.6797092,-73.962936
MLS Listing,,Condo/Co-op,155 Newel St Unit 4A,Brooklyn,NY,11222,1100000,2,1,Green Point,,,2010,76,,,Active,,,http://www.redfin.com/NY/Brooklyn/155-Newel-St-11222/home/40915719,REBNY,CTRE2809307,N,Y,40.7275433,-73.94918
MLS Listing,,Multi-Family (2-4 Unit),12-50 150th St,Whitestone,NY,11357,1250000,2,2,Whitestone,,2000,1930,77,,,Active,,,http://www.redfin.com/NY/Whitestone/1250-150th-St-11357/home/169588296,MLSLI,3176148,N,Y,40.7894154,-73.8142498
MLS Listing,,Condo/Co-op,23 -15 44th Dr #705,Queens,NY,11101,1194934,2,2,Queens ( Other),932,,2021,78,1282,,Active,,,http://www.redfin.com/NY/Long-Island-City/23-19-44th-Dr-11101/home/169585209,REBNY,MOSP1856258,N,Y,40.747748,-73.9441779
MLS Listing,,Condo/Co-op,109-09 15 Ave Ph -S10,College Point,NY,11356,1047994,2,2,Waterfront Resort Inc.,1224,,2019,78,856,530,Active,,,http://www.redfin.com/NY/College-Point/10909-15th-Ave-11356/unit-S10/home/169584688,MLSLI,3175910,N,Y,40.7841619,-73.8570221
MLS Listing,,Condo/Co-op,109-09 15 Ave Unit S302,College Point,NY,11356,1071049,2,2,Waterfront Resort Inc.,1178,,2019,78,909,510,Active,,,http://www.redfin.com/NY/College-Point/10909-15th-Ave-11356/unit-S302/home/169584588,MLSLI,3175893,N,Y,40.7841619,-73.8570221
MLS Listing,,Condo/Co-op,109-09 15 Ave Unit S206,College Point,NY,11356,1032386,2,2,Waterfront Resort Inc.,1041,,2019,78,992,451,Active,,,http://www.redfin.com/NY/College-Point/10909-15th-Ave-11356/unit-S206/home/169584533,MLSLI,3175891,N,Y,40.7841619,-73.8570221
MLS Listing,,Condo/Co-op,109-09 15 Ave Unit S104,College Point,NY,11356,1111639,2,2,Waterfront Resort Inc.,1191,,2019,78,933,516,Active,,,http://www.redfin.com/NY/College-Point/10909-15th-Ave-11356/unit-S104/home/169584448,MLSLI,3175879,N,Y,40.7841619,-73.8570221
MLS Listing,,Condo/Co-op,40-22 College Pt Unit T3-6L,Flushing,NY,11354,1190000,2,2,Sky View,1100,,2010,79,1082,1100,Active,,,http://www.redfin.com/NY/Flushing/4022-College-Point-Blvd-11354/unit-T3-6L/home/169583402,MLSLI,3175811,N,Y,40.7572703,-73.8346007
MLS Listing,,Condo/Co-op,61 E 86th St #73,New York,NY,10028,1175000,2,1,Upper East Side,,,1910,79,,,Active,,,http://www.redfin.com/NY/New-York/61-E-86th-St-10028/home/45230585,REBNY,CORC5922640,N,Y,40.7808231,-73.9583431
MLS Listing,,Condo/Co-op,878 W End Ave Unit 8B,New York,NY,10025,1200000,2,1,Upper West Side,,,1923,80,,,Active,,,http://www.redfin.com/NY/New-York/878-W-End-Ave-10025/home/169571854,REBNY,CORC5923239,N,Y,40.7994647,-73.9698484
MLS Listing,,Condo/Co-op,109-09 15 Ave Unit N510,College Point,NY,11356,1021236,2,2,Waterfront Resort Inc.,1243,,2019,80,822,539,Active,,,http://www.redfin.com/NY/College-Point/10909-15th-Ave-11356/unit-N510/home/169570701,MLSLI,3175691,N,Y,40.7841619,-73.8570221
MLS Listing,,Multi-Family (2-4 Unit),91-08 Liberty Ave,Ozone Park,NY,11417,1100000,2,2.5,Ozone Park,,1720,1931,80,,,Active,,,http://www.redfin.com/NY/Ozone-Park/91-08-Liberty-Ave-11417/home/169570215,MLSLI,3175678,N,Y,40.6799973,-73.8474229
MLS Listing,,Condo/Co-op,362 13th St #3,Brooklyn,NY,11215,1125000,2,1.5,Park Slope,812,,1899,81,1385,,Active,,,http://www.redfin.com/NY/Brooklyn/362-13th-St-11215/home/169557273,REBNY,BHSR19622065,N,Y,40.6649133,-73.9848509
MLS Listing,,Condo/Co-op,362 13th St #2,Brooklyn,NY,11215,1095000,2,1.5,Park Slope,812,,1899,81,1349,,Active,,,http://www.redfin.com/NY/Brooklyn/362-13th-St-11215/home/169557272,REBNY,BHSR19622053,N,Y,40.6649133,-73.9848509
MLS Listing,,Condo/Co-op,792 Classon Ave Ph 8,Brooklyn,NY,11238,1165000,2,1.5,Crown Heights,1064,,2018,81,1095,,Active,,,http://www.redfin.com/NY/Brooklyn/792-Classon-Ave-11238/home/169557266,REBNY,BOLD160775,N,Y,40.67335,-73.9609119
MLS Listing,,Condo/Co-op,25 Sutton Pl S Unit 19H,New York,NY,10022,1200000,2,2,Middle East Side,1400,,1959,81,857,,Active,,,http://www.redfin.com/NY/New-York/25-Sutton-Pl-S-10022/home/114901498,REBNY,DEGI4003371,N,Y,40.7562811,-73.9610297
MLS Listing,,Condo/Co-op,40-28 College Point Blvd #1711,Flushing,NY,11354,1058888,2,2,Onex,,,2012,83,,1072,Active,,,http://www.redfin.com/NY/Flushing/4028-College-Point-Blvd-11354/unit-1711/home/40222722,MLSLI,3174707,N,Y,40.7582899,-73.8343
MLS Listing,,Single Family Residential,1038 85th St,Brooklyn,NY,11228,1150000,2,2,Brooklyn,,2750,1955,84,,,Active,,,http://www.redfin.com/NY/Brooklyn/1038-85th-St-11228/home/40818422,MLSLI,3174376,N,Y,40.6178807,-74.0191102
MLS Listing,,Condo/Co-op,1070 Park Ave Unit 1A,New York,NY,10128,1200000,2,2,Upper East Side,1600,,1927,84,750,,Active,,,http://www.redfin.com/NY/New-York/1070-Park-Ave-10128/home/161376474,REBNY,SOTH2806097,N,Y,40.7814545,-73.9569684
MLS Listing,,Condo/Co-op,333 E 46th St Unit 8B,New York,NY,10017,1195000,2,2,Middle East Side,1090,,1959,86,1096,,Active,,,http://www.redfin.com/NY/New-York/333-E-46th-St-10017/home/148338916,REBNY,DEGI3998950,N,Y,40.7520734,-73.9690003
MLS Listing,,Condo/Co-op,560 Carroll St Unit 5B,Brooklyn,NY,11215,1250000,2,2,Park Slope,1162,,2011,86,1076,,Active,,,http://www.redfin.com/NY/Brooklyn/560-Carroll-St-11215/home/40922202,REBNY,HALS19922004,N,Y,40.6759313,-73.9835833
MLS Listing,,Condo/Co-op,229 9th St #402,Brooklyn,NY,11215,1015000,2,1,Gowanus,816,,2019,88,1244,,Active,,,http://www.redfin.com/NY/Brooklyn/229-9th-St-11215/home/169451212,REBNY,HALS19677351,N,Y,40.6708143,-73.9891208
MLS Listing,,Condo/Co-op,5 Court Sq Unit 3E,Queens,NY,11101,1220000,2,2,Long Island City,878,,2020,88,1390,,Active,,,http://www.redfin.com/NY/Long-Island-City/5-Court-Sq-W-11101/home/169449060,REBNY,MOSP1849623,N,Y,40.7466114,-73.9428052
MLS Listing,,Condo/Co-op,5 Court Sq Unit 3A,Queens,NY,11101,1175000,2,2,Long Island City,903,,2020,88,1301,,Active,,,http://www.redfin.com/NY/Long-Island-City/5-Court-Sq-W-11101/home/169449047,REBNY,MOSP1849586,N,Y,40.7466114,-73.9428052
MLS Listing,,Condo/Co-op,750 Park Ave Unit 11C,New York,NY,10021,1175000,2,2.5,Upper East Side,,,1951,90,,,Active,,,http://www.redfin.com/NY/New-York/750-Park-Ave-10021/home/144380496,REBNY,BHSR19916901,N,Y,40.7710175,-73.9642633
MLS Listing,,Condo/Co-op,301 E 62nd St Unit 14H,New York,NY,10065,1125000,2,1,Upper East Side,,,1958,94,,,Active,,,http://www.redfin.com/NY/New-York/301-E-62nd-St-10065/home/45336582,REBNY,SOTH2799310,N,Y,40.7624212,-73.9625338
MLS Listing,,Condo/Co-op,24 -16 Queens Plz S Unit 9B,Queens,NY,11101,1150000,2,2,Queens ( Other),,,2019,96,,,Active,,,http://www.redfin.com/NY/Long-Island-City/24-Queens-Plz-S-11101/home/169376549,REBNY,SEEK1853704,N,Y,40.7506597,-73.940856
MLS Listing,,Condo/Co-op,139 W 82nd St Unit PHA,New York,NY,10024,1099000,2,2,Upper West Side,,,1929,96,,,Active,,,http://www.redfin.com/NY/New-York/130-5th-Ave-10011/home/45179243,REBNY,KWNY237119,N,Y,40.738829,-73.992041
MLS Listing,,Condo/Co-op,42-50 27th St Unit 4C,Long Island City,NY,11101,1190000,2,2,Arcadia 27,,,2017,96,,,Active,,,http://www.redfin.com/NY/Long-Island-City/4250-27th-St-11101/unit-4C/home/147526897,MLSLI,3171543,N,Y,40.749073,-73.9411393
MLS Listing,,Condo/Co-op,40 W 116th St Unit A413,New York,NY,10026,1093000,2,2,Harlem,1147,,2007,96,953,,Active,,,http://www.redfin.com/NY/New-York/40-W-116th-St-10026/home/45226810,REBNY,ENGE1432649,N,Y,40.8010319,-73.9483377
MLS Listing,,Condo/Co-op,50 Sutton Pl S Unit 16C,New York,NY,10022,1095000,2,2,Middle East Side,,,1956,96,,,Active,,,http://www.redfin.com/NY/New-York/50-Sutton-Pl-S-10022/home/160707621,REBNY,ENGE776110,N,Y,40.7559503,-73.9621113
MLS Listing,,Condo/Co-op,39 Remsen St Unit 1EF,Brooklyn,NY,11201,1070000,2,1.5,Brooklyn Heights,,,1880,98,,,Active,,,http://www.redfin.com/NY/Brooklyn/39-Remsen-St-11201/home/40919616,REBNY,SOTH2797934,N,Y,40.6949071,-73.9969632
MLS Listing,,Condo/Co-op,230 E 50th St Unit 9B,New York,NY,10022,1195000,2,1.5,Middle East Side,,,1929,98,,,Active,,,http://www.redfin.com/NY/New-York/230-E-50th-St-10022/home/105881874,REBNY,BHSR19900901,N,Y,40.7552231,-73.9698525
MLS Listing,,Condo/Co-op,252 Richardson St Unit 1A,Brooklyn,NY,11222,1200000,2,2,Green Point,,,2002,100,,,Active,,,http://www.redfin.com/NY/Brooklyn/252-Richardson-St-11222/home/40642441,REBNY,CORC5897045,N,Y,40.7190181,-73.940873
MLS Listing,,Condo/Co-op,131-03 40 Rd Unit 11W,Flushing,NY,11354,1099000,2,2,Sky View Parc,,,2016,100,,831,Active,,,http://www.redfin.com/NY/Flushing/13103-40-Rd-11354/unit-11W/home/137412314,MLSLI,3170489,N,Y,40.7565824,-73.8374314
MLS Listing,,Condo/Co-op,325 W 52nd St Unit 1B,New York,NY,10019,1225000,2,2,Middle West Side,,,1910,101,,,Active,,,http://www.redfin.com/NY/New-York/325-W-52nd-St-10019/home/45148760,REBNY,RUTE1851619,N,Y,40.7641121,-73.9862772
MLS Listing,,Condo/Co-op,635 W 42nd St Unit 24H,New York,NY,10036,1250000,2,1,Middle West Side,800,,2007,101,1563,,Active,,,http://www.redfin.com/NY/New-York/635-W-42nd-St-10036/home/45195389,REBNY,R2RR19903253,N,Y,40.7617008,-73.9996228
MLS Listing,,Condo/Co-op,233 Union St #4,Brooklyn,NY,11231,1125000,2,2,Carroll Gardens,,,1890,102,,,Active,,,http://www.redfin.com/NY/Brooklyn/233-Union-St-11231/home/40647546,REBNY,CORC5898443,N,Y,40.6832758,-73.9984817
MLS Listing,,Condo/Co-op,235 E 57th St Unit 8F,New York,NY,10022,1195000,2,2,Middle East Side,,,,102,,,Active,,,http://www.redfin.com/NY/New-York/235-E-57th-St-10022/home/169265110,REBNY,BOND1600484,N,Y,40.7598069,-73.965722
MLS Listing,,Condo/Co-op,45 -17 21st St Unit 1B,Queens,NY,11101,1195000,2,1,Long Island City,1457,,1890,102,820,,Active,,,http://www.redfin.com/NY/Long-Island-City/45-31-21st-St-11101/home/169262316,REBNY,MOSP1850364,N,Y,40.7464683,-73.9477443
MLS Listing,,Condo/Co-op,46 -20 11th St Unit 1A,Queens,NY,11101,1230000,2,2,Long Island City,1025,,2019,103,1200,,Active,,,http://www.redfin.com/NY/Long-Island-City/44-46-11th-St-11101/home/169260449,REBNY,MOSP1852344,N,Y,40.748998,-73.949842
MLS Listing,,Condo/Co-op,505 Court St Unit 4M,Brooklyn,NY,11231,1189000,2,1,Carroll Gardens,1103,,1918,103,1078,,Active,,,http://www.redfin.com/NY/Brooklyn/505-Court-St-11231/home/40655240,REBNY,HALS19898165,N,Y,40.6755321,-73.998475
MLS Listing,,Condo/Co-op,117 W 123rd St Unit 5D,New York,NY,10027,1195000,2,2,Harlem,1236,,2008,103,967,,Active,,,http://www.redfin.com/NY/New-York/117-W-123rd-St-10027/home/45333117,REBNY,CORC5898951,N,Y,40.8070901,-73.9474169
MLS Listing,,Condo/Co-op,343 E 74th St Unit 19B,New York,NY,10021,1150000,2,2.5,Upper East Side,1111,,1987,103,1035,,Active,,,http://www.redfin.com/NY/New-York/343-E-74th-St-10021/home/169254802,REBNY,ASHW1426979,N,Y,40.7696861,-73.9557104
MLS Listing,,Condo/Co-op,40 Dean St Unit 2A,Brooklyn,NY,11238,1125000,2,2,Cobble Hill,780,,2002,103,1442,,Active,,,http://www.redfin.com/NY/Brooklyn/40-Dean-St-11201/home/40634686,REBNY,DEGI3966858,N,Y,40.6877706,-73.9914126
MLS Listing,,Condo/Co-op,101 Eighth Ave #8,Brooklyn,NY,11215,1199000,2,1,Park Slope,,,1909,104,,,Active,,,http://www.redfin.com/NY/Brooklyn/101-8th-Ave-11215/home/111239926,REBNY,CORC5884086,N,Y,40.6726452,-73.9732232
MLS Listing,,Condo/Co-op,109-09 15 Ave Unit N402,College Point,NY,11356,1068000,2,2,Allura,1175,,2019,105,909,510,Active,,,http://www.redfin.com/NY/College-Point/10909-15th-Ave-11356/unit-N402/home/169236145,MLSLI,3168734,N,Y,40.7841619,-73.8570221
MLS Listing,,Condo/Co-op,109-09 15 Ave Unit S102,College Point,NY,11356,1104000,2,2,Allura,1192,,2019,105,926,516,Active,,,http://www.redfin.com/NY/College-Point/10909-15th-Ave-11356/unit-S102/home/169234198,MLSLI,3168681,N,Y,40.7841619,-73.8570221
MLS Listing,,Condo/Co-op,201 E 62nd St Unit 6C,New York,NY,10021,1200000,2,2,Upper East Side,1500,,1963,107,800,,Active,,,http://www.redfin.com/NY/New-York/201-E-62nd-St-10065/home/169230251,REBNY,HALS19892674,N,Y,40.7634085,-73.9647959
MLS Listing,,Condo/Co-op,131-05 40th Rd Unit 17G,Flushing,NY,11354,1198000,2,2,Grand One,1143,,2016,107,1048,1036,Active,,,http://www.redfin.com/NY/Flushing/13105-40-Rd-11354/unit-17G/home/113706709,MLSLI,3168463,N,Y,40.7571799,-73.83395
MLS Listing,,Condo/Co-op,424 E 52nd St Unit 2A,New York,NY,10022,1050000,2,2,Middle East Side,1285,,1928,108,817,,Active,,,http://www.redfin.com/NY/New-York/424-E-52nd-St-10022/home/45199306,REBNY,UCOM378271,N,Y,40.754406,-73.9641259
MLS Listing,,Condo/Co-op,415 E 52nd St Unit 18C,New York,NY,10022,1225000,2,2,Middle East Side,,,1956,108,,,Active,,,http://www.redfin.com/NY/New-York/415-E-52nd-St-10022/home/169223055,REBNY,DEGI3971549,N,Y,40.7551842,-73.9642313
MLS Listing,,Condo/Co-op,7 W 96th St Unit 9E,New York,NY,10025,1145000,2,2,Upper West Side,1100,,1931,109,1041,,Active,,,http://www.redfin.com/NY/New-York/7-W-96th-St-10025/home/45164009,REBNY,UCOM140426,N,Y,40.7922081,-73.9653256
MLS Listing,,Condo/Co-op,328 W 86th St Unit 1A,New York,NY,10024,1200000,2,1.5,Upper West Side,,,1926,110,,,Active,,,http://www.redfin.com/NY/New-York/328-W-86th-St-10024/home/105887692,REBNY,UCOM425956,N,Y,40.7892451,-73.9793528
MLS Listing,,Condo/Co-op,185 18th St #804,Brooklyn,NY,11215,1220000,2,2,Greenwood,946,,2019,111,1290,,Active,,,http://www.redfin.com/NY/Brooklyn/185-18th-St-11215/home/169199756,REBNY,HALS19399324,N,Y,40.6642688,-73.9932729
MLS Listing,,Condo/Co-op,218 N 8th St #4,Brooklyn,NY,11211,1250000,2,2,Williamsburg,1087,,2007,111,1150,,Active,,,http://www.redfin.com/NY/Brooklyn/218-N-8th-St-11211/home/40677149,REBNY,CITI5892964,N,Y,40.7169524,-73.9552711
MLS Listing,,Condo/Co-op,2077 Fifth Ave Unit 5A,New York,NY,10035,1224750,2,2,East Harlem,1260,,2007,111,972,,Active,,,http://www.redfin.com/NY/New-York/2077-5th-Ave-10035/home/45227490,REBNY,CORC5876668,N,Y,40.8083637,-73.940461
MLS Listing,,Condo/Co-op,115 E 90th St Unit 2B,New York,NY,10128,1095000,2,1.5,Upper East Side,,,1923,112,,,Active,,,http://www.redfin.com/NY/New-York/115-E-90th-St-10128/home/63690418,REBNY,BHSR19874955,N,Y,40.7825254,-73.954328
MLS Listing,,Condo/Co-op,66 N 1st St Unit 4C,Brooklyn,NY,11249,1249000,2,2,Williamsburg,935,,1910,113,1336,,Active,,,http://www.redfin.com/NY/Brooklyn/66-N-1st-St-11249/home/40923611,REBNY,SEEK1849939,N,Y,40.7164377,-73.9644072
MLS Listing,,Condo/Co-op,337 Chauncey St #1,Brooklyn,NY,11233,1149000,2,2.5,Brooklyn,2335,,,114,492,,Active,,,http://www.redfin.com/NY/Brooklyn/337-Chauncey-St-11233/home/169147467,REBNY,DEGI3963796,N,Y,40.6815666,-73.9208954
MLS Listing,,Condo/Co-op,627 Dekalb Ave Unit 7B,Brooklyn,NY,11216,1180000,2,2,Bedford Stuyvesant,1004,,,116,1175,,Active,,,http://www.redfin.com/NY/Brooklyn/627-Dekalb-Ave-11216/home/169131675,REBNY,KWNY236652,N,Y,40.691681,-73.95103
MLS Listing,,Condo/Co-op,200 W 79th St Unit 2RS,New York,NY,10024,1195000,2,2,Upper West Side,,,,116,,,Active,,,http://www.redfin.com/NY/New-York/200-W-79th-St-10024/home/45150974,REBNY,BOND1588457,N,Y,40.7829312,-73.9788937
MLS Listing,,Condo/Co-op,413 Grand St Unit F1206,New York,NY,10002,1125000,2,1,Lower East Side,1000,,,117,1125,,Active,,,http://www.redfin.com/NY/New-York/413-Grand-St-10002/home/169101769,REBNY,LOHO103203,N,Y,40.7152739,-73.9863662
MLS Listing,,Condo/Co-op,35 Riverside Dr #1,New York,NY,10023,1195000,2,2,Upper West Side,,,1889,118,,,Active,,,http://www.redfin.com/NY/New-York/35-Riverside-Dr-10023/home/45178573,REBNY,DEGI3956711,N,Y,40.7829191,-73.9843747
MLS Listing,,Condo/Co-op,76 Schermerhorn St Unit 3B,Brooklyn,NY,11201,1225000,2,2,Brooklyn Heights,930,,2019,118,1317,,Active,,,http://www.redfin.com/NY/Brooklyn/76-Schermerhorn-St-11201/home/169088873,REBNY,STRI1849470,N,Y,40.6905194,-73.9909678
MLS Listing,,Condo/Co-op,41 -26 27th St Unit 5E,Queens,NY,11101,1025000,2,2,Long Island City,1033,,2006,118,992,,Active,,,http://www.redfin.com/NY/Long-Island-City/41-22-27th-St-11101/home/169085870,REBNY,UCOM116805,N,Y,40.7513095,-73.9389548
MLS Listing,,Condo/Co-op,420 E 64th St Unit W6JK,New York,NY,10065,1125000,2,2,Upper East Side,1340,,1956,121,840,,Active,,,http://www.redfin.com/NY/New-York/420-E-64th-St-10065/home/169056587,REBNY,TPGL19868918,N,Y,40.761988,-73.9584378
MLS Listing,,Condo/Co-op,91 Grand Ave Unit 4B,Brooklyn,NY,11205,1075000,2,2,Clinton Hill,875,,,122,1229,,Active,,,http://www.redfin.com/NY/Brooklyn/91-Grand-Ave-11205/home/59294562,REBNY,DEGI3953000,N,Y,40.6946016,-73.9640399
MLS Listing,,Condo/Co-op,2351 Adam Clayton Powell #309,New York,NY,10030,1135000,2,2,Harlem,1057,,2019,122,1074,,Active,,,http://www.redfin.com/NY/New-York/2351-Adam-Clayton-Powell-Junior-Blvd-10030/home/169051690,REBNY,HALS18677937,N,Y,40.8168816,-73.9419981
MLS Listing,,Condo/Co-op,445 E 86th St Unit 5AJ,New York,NY,10028,1249000,2,2,Upper East Side,1200,,1961,123,1041,,Active,,,http://www.redfin.com/NY/New-York/445-E-86th-St-10028/home/45162280,REBNY,SAMR1848749,N,Y,40.7765784,-73.9482818
MLS Listing,,Condo/Co-op,410 E 57th St Unit 16D,New York,NY,10022,1025000,2,2,Middle East Side,1200,,1929,123,854,,Active,,,http://www.redfin.com/NY/New-York/410-E-57th-St-10022/home/169036985,REBNY,CORC5876578,N,Y,40.7578323,-73.9624557
MLS Listing,,Condo/Co-op,299 Pearl St Unit 4L,New York,NY,10038,1100000,2,1,Financial District,,,,124,,,Active,,,http://www.redfin.com/NY/New-York/299-Pearl-St-10038/home/108531887,REBNY,KWNY236388,N,Y,40.7088441,-74.0028823
MLS Listing,,Condo/Co-op,105 E 19th St Unit 1D,New York,NY,10003,1100000,2,1.5,Gramercy Park,1200,,1890,125,917,,Active,,,http://www.redfin.com/NY/New-York/105-E-19th-St-10003/home/168969938,REBNY,BUCH1846164,N,Y,40.7376428,-73.9873939
MLS Listing,,Condo/Co-op,57 -59 Maspeth Ave Unit 5A,Brooklyn,NY,11211,1195000,2,2,Williamsburg,1138,,2006,125,1050,,Active,,,http://www.redfin.com/NY/Brooklyn/57-Maspeth-Ave-11211/home/168967845,REBNY,DEGI3941438,N,Y,40.715933,-73.940747
MLS Listing,,Condo/Co-op,50 Sutton Pl S Unit 7L,New York,NY,10022,1250000,2,2,Middle East Side,1450,,1956,125,862,,Active,,,http://www.redfin.com/NY/New-York/50-Sutton-Pl-S-10022/home/53324488,REBNY,UCOM1093530,N,Y,40.7559503,-73.9621113
MLS Listing,,Condo/Co-op,1 Gracie Ter Unit 4H,New York,NY,10028,1025000,2,2,Upper East Side,,,1953,126,,,Active,,,http://www.redfin.com/NY/New-York/1-Gracie-Ter-10028/home/45326467,REBNY,HALS19805500,N,Y,40.7722065,-73.9457867
MLS Listing,,Condo/Co-op,330 E 70th St Unit 4EF,New York,NY,10021,1245000,2,2,Upper East Side,,,1957,126,,,Active,,,http://www.redfin.com/NY/New-York/330-E-70th-St-10021/home/105881626,REBNY,UCOM76714,N,Y,40.7666941,-73.9578868
MLS Listing,,Condo/Co-op,414 E 52nd St Unit 9C,New York,NY,10022,1200000,2,2,Middle East Side,,,1931,127,,,Active,,,http://www.redfin.com/NY/New-York/414-E-52nd-St-10022/home/45181134,REBNY,UCOM1847593,N,Y,40.7545386,-73.9644813
MLS Listing,,Condo/Co-op,201 E 66th St Unit 9A,New York,NY,10021,1149000,2,2,Upper East Side,,,1961,128,,,Active,,,http://www.redfin.com/NY/New-York/201-E-66th-St-10065/home/168941704,REBNY,DEGI3942862,N,Y,40.7660538,-73.9629079
MLS Listing,,Single Family Residential,41-45 150 St,Flushing,NY,11354,1090000,2,1.5,Flushing,,900,,129,,,Active,,,http://www.redfin.com/NY/Unknown/41-45-150th-St-11355/home/145478907,MLSLI,3162071,N,Y,40.7615965,-73.8133032
MLS Listing,,Condo/Co-op,47 -34 11th St #202,Queens,NY,11101,1198000,2,2,Long Island City,947,,2013,129,1265,,Active,,,http://www.redfin.com/NY/Long-Island-City/47-36-11th-St-11101/home/168925006,REBNY,MOSP1178931,N,Y,40.744084,-73.951442
MLS Listing,,Condo/Co-op,40-26 College Point Blvd Unit 8L,Flushing,NY,11354,1150000,2,2,Sky View Parc,1100,,2011,130,1045,698,Active,,,http://www.redfin.com/NY/Flushing/40-26-College-Point-Blvd-11354/unit-8L/home/40222637,MLSLI,3161921,N,Y,40.7576921,-73.834681
MLS Listing,,Condo/Co-op,133 S 1st St Unit 4F,Brooklyn,NY,11211,1249000,2,2,Williamsburg,,,,130,,,Active,,,http://www.redfin.com/NY/Brooklyn/133-S-1st-St-11249/home/92328976,REBNY,DEGI3941603,N,Y,40.7142097,-73.9621802
MLS Listing,,Condo/Co-op,2908 Emmons Ave #2922,Brooklyn,NY,11235,1149000,2,1.75,Brooklyn,2152,,2009,131,534,,Active,,,http://www.redfin.com/NY/Brooklyn/2908-2948-Emmons-Ave-11235/unit-2922/home/40918564,BNYMLS,432958,N,Y,40.5834314,-73.9391127
MLS Listing,,Multi-Family (2-4 Unit),120 Nancy Ln,Staten  Island,NY,10307,1220000,2,3.5,Staten  Island,4800,9288,1988,131,254,,Active,,,http://www.redfin.com/NY/Staten-Island/120-Nancy-Ln-10307/home/56101749,BNYMLS,432944,N,Y,40.509503,-74.2384519
MLS Listing,,Condo/Co-op,431 Ave P #203,Brooklyn,NY,11223,1201012,2,3,Midwood,1584,,2012,132,758,,Active,,,http://www.redfin.com/NY/Brooklyn/431-Avenue-P-11230/home/168873027,REBNY,TIME1842830,N,Y,40.6091785,-73.9714481
MLS Listing,,Condo/Co-op,210 Jackson St #3,Brooklyn,NY,11211,1189000,2,2,Green Point,1060,,2018,132,1122,,Active,,,http://www.redfin.com/NY/Brooklyn/210-Jackson-St-11211/home/148704411,REBNY,UCOM1846487,N,Y,40.716736,-73.9423578
MLS Listing,,Condo/Co-op,520 W 23rd St Unit 4C,New York,NY,10011,1055000,2,2,Chelsea,,,2002,139,,,Active,,,http://www.redfin.com/NY/New-York/520-W-23rd-St-10011/home/45170328,REBNY,DEGI3930315,N,Y,40.7478445,-74.0050394
MLS Listing,,Condo/Co-op,48 -15 11th St Unit 3B,Queens,NY,11101,1235000,2,2,Long Island City,1166,,2008,140,1059,,Active,,,http://www.redfin.com/NY/Long-Island-City/46-48-11th-St-11101/home/168766404,REBNY,UCOM1139725,N,Y,40.745309,-73.951087
MLS Listing,,Condo/Co-op,45 E End Ave Unit 10H,New York,NY,10028,1250000,2,2,Upper East Side,,,1951,141,,,Active,,,http://www.redfin.com/NY/New-York/45-E-End-Ave-10028/home/53325775,REBNY,DEGI3923320,N,Y,40.77172,-73.9467052
MLS Listing,,Single Family Residential,53-71/73 61st St,Maspeth,NY,11378,1100000,2,2,Maspeth,840,6530,1940,142,1310,,Active,,,http://www.redfin.com/NY/Flushing/53-71-61st-St-11378/home/28604428,MLSLI,3158765,N,Y,40.7279089,-73.903762
MLS Listing,,Condo/Co-op,11 W 131st St Unit C1,New York,NY,10037,1250000,2,2.5,West Harlem,1746,,2005,150,716,,Active,,,http://www.redfin.com/NY/New-York/11-W-131st-St-10037/home/45196460,REBNY,UCOM192064,N,Y,40.8106828,-73.9400213
MLS Listing,,Condo/Co-op,26 -26 Jackson Ave #902,Queens,NY,11101,1235000,2,2,Long Island City,1048,,2008,151,1178,,Active,,,http://www.redfin.com/NY/Long-Island-City/27-26-Jackson-Ave-11101/home/168668966,REBNY,SEEK582106,N,Y,40.7476259,-73.940084
MLS Listing,,Condo/Co-op,35 W 92nd St Unit 3A,New York,NY,10025,1099000,2,2,Upper West Side,1170,,1929,151,939,,Active,,,http://www.redfin.com/NY/New-York/35-W-92nd-St-10025/home/168668525,REBNY,UCOM1843591,N,Y,40.7897706,-73.9677132
MLS Listing,,Condo/Co-op,419 E 57th St Unit 10F,New York,NY,10022,1195000,2,2,Middle East Side,,,1927,154,,,Active,,,http://www.redfin.com/NY/New-York/419-E-57th-St-10022/home/45181430,REBNY,UCOM67387,N,Y,40.7581624,-73.9619276
MLS Listing,,Condo/Co-op,368 W 23rd St Unit 2F,New York,NY,10011,1075000,2,1,Chelsea,,,1900,158,,,Active,,,http://www.redfin.com/NY/New-York/368-W-23rd-St-10011/home/45144772,REBNY,UCOM310443,N,Y,40.7462101,-74.0012555
MLS Listing,,Condo/Co-op,255 W 95th St Unit 4A,New York,NY,10025,1125000,2,2,Upper West Side,,,1908,158,,,Active,,,http://www.redfin.com/NY/New-York/255-W-95th-St-10025/home/45171083,REBNY,CORC5837433,N,Y,40.7944062,-73.972787
MLS Listing,,Condo/Co-op,55 W 95th St #24,New York,NY,10025,1195000,2,1.5,Upper West Side,,,1914,159,,,Active,,,http://www.redfin.com/NY/New-York/55-W-95th-St-10025/home/45151933,REBNY,UCOM266290,N,Y,40.7917775,-73.9666643
MLS Listing,,Condo/Co-op,40-22 College Point Blvd Unit 15B,Flushing,NY,11354,1050000,2,2,Onex,,,2011,159,,961,Active,,,http://www.redfin.com/NY/Flushing/4022-College-Point-Blvd-11354/unit-15B/home/28686181,MLSLI,3154184,N,Y,40.7572703,-73.8346007
MLS Listing,,Condo/Co-op,35 Sutton Pl Unit 7F,New York,NY,10022,1095000,2,2.5,Middle East Side,1590,,1961,159,689,,Active,,,http://www.redfin.com/NY/New-York/35-Sutton-Pl-10022/home/146962224,REBNY,UCOM1777393,N,Y,40.7583762,-73.9596317
MLS Listing,,Condo/Co-op,60 Pineapple St Unit 7C,Brooklyn,NY,11201,1095000,2,2,Brooklyn Heights,1200,,1899,166,913,,Active,,,http://www.redfin.com/NY/Brooklyn/60-Pineapple-St-11201/home/40662497,REBNY,CORC5843970,N,Y,40.6980776,-73.9934249
MLS Listing,,Condo/Co-op,230 E 50th St Unit 7B,New York,NY,10022,1030000,2,1.5,Middle East Side,1150,,1927,167,896,,Active,,,http://www.redfin.com/NY/New-York/230-E-50th-St-10022/home/45153998,REBNY,UCOM255762,N,Y,40.7552231,-73.9698525
MLS Listing,,Condo/Co-op,49 W 72nd St Unit 17C,New York,NY,10023,1250000,2,2,Upper West Side,,,1929,168,,,Active,,,http://www.redfin.com/NY/New-York/49-W-72nd-St-10023/home/45337943,REBNY,HALS19760770,N,Y,40.7774392,-73.9782509
MLS Listing,,Single Family Residential,2040 West 8th St,Brooklyn,NY,11233,1100000,2,3,Gravesend,1300,1950,1925,170,846,,Active,,,http://www.redfin.com/NY/Brooklyn/2040-W-8th-St-11223/home/40853657,SIBORMLS,1130973,N,Y,40.5975526,-73.9798923
MLS Listing,,Condo/Co-op,42-50 27th St Unit 6C,Long Island City,NY,11101,1190000,2,2,Arcadia 27,929,,2018,171,1281,599,Active,,,http://www.redfin.com/NY/Long-Island-City/4250-27th-St-11101/unit-6C/home/167955462,MLSLI,3150798,N,Y,40.7490786,-73.9411339
MLS Listing,,Condo/Co-op,320 Central Park W Unit 3DE,New York,NY,10025,1195000,2,2,Upper West Side,,,,172,,,Active,,,http://www.redfin.com/NY/New-York/320-Central-Park-W-10025/home/167929155,REBNY,FSRN98191,N,Y,40.7893588,-73.9675296
MLS Listing,,Condo/Co-op,630 First Ave Unit 32E,New York,NY,10016,1200000,2,2,Murray Hill Kips Bay,913,,1985,173,1314,,Active,,,http://www.redfin.com/NY/New-York/630-1st-Ave-10016/home/45259114,REBNY,CCRI1839154,N,Y,40.7451918,-73.9716642
MLS Listing,,Condo/Co-op,162 Washington Ave #3,Brooklyn,NY,11205,1100000,2,2,Clinton Hill,839,,,174,1311,,Active,,,http://www.redfin.com/NY/Brooklyn/162-Washington-Ave-11205/home/160666198,REBNY,KWNY234636,N,Y,40.6938046,-73.9672512
MLS Listing,,Condo/Co-op,75 E End Ave Unit 3D,New York,NY,10028,1195000,2,2,Upper East Side,,,1962,179,,,Active,,,http://www.redfin.com/NY/New-York/75-E-End-Ave-10028/home/167626403,REBNY,HALS19747026,N,Y,40.7724422,-73.946223
MLS Listing,,Condo/Co-op,27 E 65th St Unit 14B,New York,NY,10065,1100000,2,2,Upper East Side,,,1963,180,,,Active,,,http://www.redfin.com/NY/New-York/27-E-65th-St-10065/home/166866995,REBNY,STRI1827289,N,Y,40.7673406,-73.9683647
MLS Listing,,Condo/Co-op,520 W 23rd St Unit 9C,New York,NY,10011,1099000,2,2,Chelsea,891,,2002,180,1233,,Active,,,http://www.redfin.com/NY/New-York/520-W-23rd-St-10011/home/45173719,REBNY,SOTH1423215,N,Y,40.7478445,-74.0050394
MLS Listing,,Condo/Co-op,11-24 31st Ave Unit 6E,Astoria,NY,11106,1125000,2,2,East River Tower,1185,,2007,182,949,985,Active,,,http://www.redfin.com/NY/Long-Island-City/11-24-31st-Ave-11106/unit-6E/home/40220754,MLSLI,3147347,N,Y,40.7690761,-73.9344072
MLS Listing,,Condo/Co-op,465 Park Ave Unit 6A,New York,NY,10022,1150000,2,2,Middle East Side,1400,,1926,186,821,,Active,,,http://www.redfin.com/NY/New-York/465-Park-Ave-10022/home/45209132,REBNY,HALS19743876,N,Y,40.7617486,-73.9703425
MLS Listing,,Condo/Co-op,17 Convent Ave Unit 2C,New York,NY,10027,1148000,2,2,Harlem,1051,,2019,186,1092,,Active,,,http://www.redfin.com/NY/New-York/17-Convent-Ave-10027/home/145133032,REBNY,HALS19739414,N,Y,40.8132608,-73.9530355
MLS Listing,,Condo/Co-op,1036 Park Ave Unit 8C,New York,NY,10028,1195000,2,2,Upper East Side,,,1958,186,,,Active,,,http://www.redfin.com/NY/New-York/1036-Park-Ave-10028/home/167228425,REBNY,CORC5827333,N,Y,40.7801478,-73.9576802
MLS Listing,,Condo/Co-op,1399 Park Ave Unit 9B,New York,NY,10029,1045000,2,2,East Harlem,1031,,2017,187,1014,,Active,,,http://www.redfin.com/NY/New-York/1399-Park-Ave-10029/home/115813078,REBNY,UCOM1615029,N,Y,40.7915069,-73.9486777
MLS Listing,,Condo/Co-op,850 Metropolitan Ave Unit 3I,Brooklyn,NY,11211,1137000,2,2,East Williamsburg,956,,,187,1189,,Active,,,http://www.redfin.com/NY/Brooklyn/850-Metropolitan-Ave-11211/home/167208077,REBNY,RENY97018,N,Y,40.7144391,-73.94085
MLS Listing,,Condo/Co-op,245 E 54th St Unit 4HJ,New York,NY,10022,1075000,2,2,Middle West Side,,,1977,187,,,Active,,,http://www.redfin.com/NY/New-York/245-E-54th-St-10022/home/45210897,REBNY,DEGI3866677,N,Y,40.7577737,-73.9667949
MLS Listing,,Condo/Co-op,205 E 10th St Unit 2C/1C,New York,NY,10003,1195000,2,2,New York,,,1920,188,,,Active,,,http://www.redfin.com/NY/New-York/205-E-10th-St-10003/unit-2C-1C/home/167184899,HGMLS,4921685,N,Y,40.729738,-73.9861097
MLS Listing,,Condo/Co-op,753 E 5th St Unit 4A,New York,NY,10009,1250000,2,2,East Village,,,2004,189,,,Active,,,http://www.redfin.com/NY/New-York/753-E-5th-St-10009/home/45138151,REBNY,UCOM184890,N,Y,40.7220683,-73.9774368
MLS Listing,,Condo/Co-op,2025 Broadway Unit 14GH,New York,NY,10023,1150000,2,2,Upper West Side,,,1977,193,,,Active,,,http://www.redfin.com/NY/New-York/2025-Broadway-10023/home/147794181,REBNY,UCOM67868,N,Y,40.7770746,-73.9824749
MLS Listing,,Condo/Co-op,1399 Park Ave Unit 10A,New York,NY,10029,1100000,2,2,East Harlem,884,,2018,195,1244,,Active,,,http://www.redfin.com/NY/New-York/1399-Park-Ave-10029/home/115739971,REBNY,CORC5821922,N,Y,40.7915069,-73.9486777
MLS Listing,,Condo/Co-op,229 9th St #303,Brooklyn,NY,11215,1225000,2,2,Gowanus,993,,2019,195,1234,,Active,,,http://www.redfin.com/NY/Brooklyn/229-9th-St-11215/home/167168325,REBNY,HALS19677337,N,Y,40.6708143,-73.9891208
MLS Listing,,Single Family Residential,1402 Shore Dr,Bronx,NY,10465,1100000,2,2,Bronx,1918,7522,1949,197,574,,Active,,,http://www.redfin.com/NY/The-Bronx/1402-Shore-Dr-10465/home/44788611,HGMLS,4972125,N,Y,40.8336843,-73.8162895
MLS Listing,,Condo/Co-op,230 W End Ave Unit 3D,New York,NY,10023,1015000,2,1,Upper West Side,,,1927,200,,,Active,,,http://www.redfin.com/NY/New-York/230-W-End-Ave-10023/home/167144669,REBNY,DEGI3847588,N,Y,40.7785649,-73.985092
MLS Listing,,Condo/Co-op,400 E 59th St Unit 3F,New York,NY,10022,1099000,2,2,Middle East Side,1100,,1928,201,999,,Active,,,http://www.redfin.com/NY/New-York/400-E-59th-St-10022/home/45156481,REBNY,UCOM36617,N,Y,40.7593483,-73.9617192
MLS Listing,,Condo/Co-op,97 Quincy St #1,Brooklyn,NY,11238,1100000,2,1,Clinton Hill,1057,,,202,1041,,Active,,,http://www.redfin.com/NY/Brooklyn/97-Quincy-St-11238/home/167131696,REBNY,DEGI3845930,N,Y,40.686404,-73.957343
MLS Listing,,Condo/Co-op,131-03 40th Rd Unit 15Z,Flushing,NY,11354,1128000,2,2,The Grand,1056,,2017,204,1068,860,Active,,,http://www.redfin.com/NY/Flushing/13103-40-Rd-11354/unit-15Z/home/131472945,MLSLI,3141115,N,Y,40.7565824,-73.8374314
MLS Listing,,Condo/Co-op,310 E 46th St Unit 19V,New York,NY,10017,1118000,2,1,Middle East Side,900,,1929,207,1242,,Active,,,http://www.redfin.com/NY/New-York/310-E-46th-St-10017/home/45230375,REBNY,SEEK1832467,N,Y,40.7520278,-73.9698349
MLS Listing,,Multi-Family (2-4 Unit),7121 Loubet St,Forest Hills,NY,11375,1188000,2,2,Forest Hills,,3200,1935,210,,,Active,,,http://www.redfin.com/NY/Flushing/71-21-Loubet-St-11375/home/20889026,MLSLI,3139237,N,Y,40.712532,-73.848571
MLS Listing,,Condo/Co-op,40-28 College Point Blvd #1212,Flushing,NY,11354,1090000,2,2,Skyview Parc,1083,,2012,211,1006,939,Active,,,http://www.redfin.com/NY/Flushing/40-28-College-Point-Blvd-11354/unit-1212/home/40222687,MLSLI,3138879,N,Y,40.7571311,-73.8343021
MLS Listing,,Condo/Co-op,42 -50 27th St Unit 6C,Queens,NY,11101,1200000,2,2,Long Island City,929,,2017,213,1292,,Active,,,http://www.redfin.com/NY/Long-Island-City/42-02-27th-St-11101/home/167095366,REBNY,CHAS1831054,N,Y,40.750163,-73.940174
MLS Listing,,Condo/Co-op,261 Union Ave #4,Brooklyn,NY,11211,1078000,2,2,Williamsburg,885,,2018,213,1218,,Active,,,http://www.redfin.com/NY/Brooklyn/261-Union-Ave-11211/home/167094289,REBNY,SEEK1830578,N,Y,40.7080475,-73.9508403
MLS Listing,,Condo/Co-op,155 E 38th St Unit 14D,New York,NY,10016,1250000,2,2,Murray Hill Kips Bay,,,1960,213,,,Active,,,http://www.redfin.com/NY/New-York/155-E-38th-St-10016/home/45254338,REBNY,AKAM1828603,N,Y,40.7485595,-73.9764661
MLS Listing,,Condo/Co-op,308 E 38th St Unit 5A,New York,NY,10016,1245000,2,2,Middle East Side,1115,,2001,214,1117,,Active,,,http://www.redfin.com/NY/New-York/308-E-38th-St-10016/home/147019725,REBNY,DEGI3832565,N,Y,40.7467901,-73.9735276
MLS Listing,,Condo/Co-op,383 E 10th St Unit B4,New York,NY,10009,1195000,2,1.5,East Village,1004,,1999,214,1190,,Active,,,http://www.redfin.com/NY/New-York/383-389-E-10th-St-10009/home/45312631,REBNY,DEGI3835393,N,Y,40.7264093,-73.9778571
MLS Listing,,Condo/Co-op,335 -341 Nostrand Ave Unit 402C,Brooklyn,NY,11216,1050000,2,2,Bedford Stuyvesant,998,,,215,1052,,Active,,,http://www.redfin.com/NY/Brooklyn/335-Nostrand-Ave-11216/home/167085347,REBNY,KWNY233028,N,Y,40.6867767,-73.9506429
MLS Listing,,Condo/Co-op,42 -14 Crescent St Unit 8A,Queens,NY,11101,1100000,2,2,Long Island City,1184,,2016,216,929,,Active,,,http://www.redfin.com/NY/Long-Island-City/42-Crescent-St-11101/home/167078791,REBNY,MNSM1830355,N,Y,40.7504388,-73.9407134
MLS Listing,,Condo/Co-op,303 W 66th St Unit 17GE,New York,NY,10023,1025000,2,1,Upper West Side,,,1962,217,,,Active,,,http://www.redfin.com/NY/New-York/303-W-66th-St-10023/home/53322307,REBNY,CORC5766605,N,Y,40.7761564,-73.9871839
MLS Listing,,Condo/Co-op,222 E 24th St Unit 5B,New York,NY,10010,1100000,2,2,Middle East Side,1269,,1900,217,867,,Active,,,http://www.redfin.com/NY/New-York/222-E-24th-St-10010/home/144408832,REBNY,UCOM1718619,N,Y,40.7388658,-73.9816596
MLS Listing,,Condo/Co-op,45 Tudor City Pl #319,New York,NY,10017,1095000,2,2,Middle East Side,,,1929,217,,,Active,,,http://www.redfin.com/NY/New-York/45-Tudor-City-Pl-10017/home/167076215,REBNY,DEGI3827247,N,Y,40.7493965,-73.9699911
MLS Listing,,Condo/Co-op,554 Fourth Ave Unit 10C,Brooklyn,NY,11215,1150000,2,2,Gowanus,1117,,,217,1030,,Active,,,http://www.redfin.com/NY/Brooklyn/554-4th-Ave-11215/home/167076107,REBNY,DEGI2951697,N,Y,40.666669,-73.9921229
MLS Listing,,Condo/Co-op,444 E 84th St Unit 5F,New York,NY,10028,1025000,2,2,Upper East Side,,,1964,222,,,Active,,,http://www.redfin.com/NY/New-York/444-E-84th-St-10028/home/45185583,REBNY,HALS19660175,N,Y,40.77475,-73.9488864
MLS Listing,,Condo/Co-op,200 Bowery Unit 2D,New York,NY,10012,1200000,2,1,Soho,,,1988,228,,,Active,,,http://www.redfin.com/NY/New-York/200-Bowery-10012/home/45242704,REBNY,UCOM1773287,N,Y,40.7213854,-73.9939529
MLS Listing,,Condo/Co-op,425 E 13th St Unit 2A,New York,NY,10009,1100000,2,2,East Village,,,2006,230,,,Active,,,http://www.redfin.com/NY/New-York/425-E-13th-St-10009/home/115377289,REBNY,CORC5737624,N,Y,40.7303454,-73.9818551
MLS Listing,,Condo/Co-op,805 Washington Ave Unit 4A,Brooklyn,NY,11238,1225000,2,2,Prospect Heights,953,,,234,1285,,Active,,,http://www.redfin.com/NY/Brooklyn/805-Washington-Ave-11238/home/166831414,REBNY,DEGI3644204,N,Y,40.6723549,-73.9624954
MLS Listing,,Condo/Co-op,80 E End Ave Unit 7GH,New York,NY,10028,1113000,2,2,Upper East Side,,,1958,234,,,Active,,,http://www.redfin.com/NY/New-York/80-E-End-Ave-10028/home/166831371,REBNY,DEGI3792387,N,Y,40.7731393,-73.9462962
MLS Listing,,Condo/Co-op,2 Beekman Pl Unit 12A,New York,NY,10022,1195000,2,2,Middle East Side,,,1930,234,,,Active,,,http://www.redfin.com/NY/New-York/2-Beekman-Pl-10022/home/147156790,REBNY,CORC5744724,N,Y,40.7529821,-73.9652567
MLS Listing,,Condo/Co-op,233 E 70th St Unit 2U,New York,NY,10021,1200000,2,2,Upper East Side,1200,,1957,234,1000,,Active,,,http://www.redfin.com/NY/New-York/233-E-70th-St-10021/home/109997389,REBNY,UCOM842888,N,Y,40.7678195,-73.9594251
MLS Listing,,Condo/Co-op,111 Steuben St Unit 2A,Brooklyn,NY,11205,1229000,2,2,Clinton Hill,1187,,2006,235,1035,,Active,,,http://www.redfin.com/NY/Brooklyn/111-Steuben-St-11205/home/40676362,REBNY,DEGI3719323,N,Y,40.694045,-73.962836
MLS Listing,,Condo/Co-op,640 W 237th St Unit 9A,Bronx,NY,10463,1105000,2,2,Riverdale,1427,,2007,241,774,1232,Active,,,http://www.redfin.com/NY/The-Bronx/640-W-237th-St-10463/unit-9A/home/44804074,HGMLS,4934360,N,Y,40.8879309,-73.9121663
MLS Listing,,Condo/Co-op,200 E 90th St Unit 18E,New York,NY,10128,1225000,2,2,Upper East Side,,,1974,241,,,Active,,,http://www.redfin.com/NY/New-York/200-E-90th-St-10128/home/45232454,REBNY,HALS19627594,N,Y,40.7810446,-73.9519172
MLS Listing,,Condo/Co-op,55 Wall St #552,New York,NY,10005,1150000,2,2,Financial District,1165,,1842,246,987,,Active,,,http://www.redfin.com/NY/New-York/55-Wall-St-10005/home/45188371,REBNY,CLIC16634,N,Y,40.7059312,-74.0093393
MLS Listing,,Condo/Co-op,111 Montgomery St Unit 6H,Brooklyn,NY,11215,1154000,2,2,Crown Heights,963,,2020,246,1198,,Active,,,http://www.redfin.com/NY/Brooklyn/111-Montgomery-St-11225/home/166458604,REBNY,UCOM1820841,N,Y,40.6665414,-73.9606286
MLS Listing,,Condo/Co-op,111 Montgomery St Unit 5E,Brooklyn,NY,11215,1137000,2,2,Crown Heights,1014,,2020,246,1121,,Active,,,http://www.redfin.com/NY/Brooklyn/111-Montgomery-St-11225/home/166458593,REBNY,UCOM1820839,N,Y,40.6665414,-73.9606286
MLS Listing,,Condo/Co-op,111 Montgomery St Unit 3J,Brooklyn,NY,11215,1065000,2,2,Crown Heights,950,,2020,246,1121,,Active,,,http://www.redfin.com/NY/Brooklyn/111-Montgomery-St-11225/home/166458589,REBNY,UCOM1820835,N,Y,40.6665414,-73.9606286
MLS Listing,,Condo/Co-op,40 Broad St Unit 15B,New York,NY,10004,1250000,2,2,Financial District,1123,,1986,263,1113,,Active,,,http://www.redfin.com/NY/New-York/40-Broad-St-10004/home/45218902,REBNY,UCOM1230246,N,Y,40.7060275,-74.0117654
MLS Listing,,Condo/Co-op,27 E 65th St Unit 17A,New York,NY,10065,1100000,2,2,Upper East Side,,,1963,263,,,Active,,,http://www.redfin.com/NY/New-York/27-E-65th-St-10065/home/143853501,REBNY,BHSR19557378,N,Y,40.7673406,-73.9683647
MLS Listing,,Condo/Co-op,520 W 23rd St Unit 7D,New York,NY,10011,1000000,2,2,Chelsea,853,,2002,265,1172,,Active,,,http://www.redfin.com/NY/New-York/520-W-23rd-St-10011/home/45144540,REBNY,UCOM288978,N,Y,40.7478445,-74.0050394
MLS Listing,,Condo/Co-op,130 Water St Unit 9B,New York,NY,10005,1202700,2,2,Financial District,1266,,,272,950,,Active,,,http://www.redfin.com/NY/New-York/130-Water-St-10005/home/148160292,REBNY,GROL1514,N,Y,40.7056884,-74.0071785
MLS Listing,,Condo/Co-op,40-22 college point Blvd,Flushing,NY,11354,1200000,2,2,SKYVIEW PARC TOWER 3,1250,,2010,273,960,1070,Active,,,http://www.redfin.com/NY/Flushing/4022-College-Point-Blvd-11354/home/28686154,MLSLI,3119578,N,Y,40.7572703,-73.8346007
MLS Listing,,Condo/Co-op,10 E End Ave Unit 4M,New York,NY,10075,1099000,2,2,Upper East Side,,,1950,276,,,Active,,,http://www.redfin.com/NY/New-York/10-E-End-Ave-10075/home/45185316,REBNY,BHSR19545643,N,Y,40.7711225,-73.9483354
MLS Listing,,Condo/Co-op,205 E 10th St Unit 1C/2C,New York,NY,10003,1195000,2,2,East Village,,,1920,277,,,Active,,,http://www.redfin.com/NY/New-York/205-E-10th-St-10003/home/160461358,REBNY,UCOM1166343,N,Y,40.729738,-73.9861097
MLS Listing,,Condo/Co-op,336 Saint Marks Ave Unit 1A,Brooklyn,NY,11238,1249000,2,3,Prospect Heights,1366,,,278,914,,Active,,,http://www.redfin.com/NY/Unknown/336-Saint-Marks-Ave-11238/home/146991531,REBNY,CORC5721399,N,Y,40.6774252,-73.9645679
MLS Listing,,Condo/Co-op,147 Hope St Ph 5F,Brooklyn,NY,11211,1250000,2,2,Williamsburg,972,,2018,283,1286,,Active,,,http://www.redfin.com/NY/Brooklyn/147-Hope-St-11211/home/161168932,REBNY,CORC5573247,N,Y,40.7119605,-73.9523403
MLS Listing,,Condo/Co-op,520 W 23rd St Unit 7C,New York,NY,10011,1055000,2,2,Chelsea,891,,2002,283,1184,,Active,,,http://www.redfin.com/NY/New-York/520-W-23rd-St-10011/home/45144542,REBNY,DEGI3745090,N,Y,40.7478445,-74.0050394
MLS Listing,,Condo/Co-op,138-35 39 Ave Unit 7th FL,Flushing,NY,11354,1198000,2,2,F & T Group,,,2017,283,,,Active,,,http://www.redfin.com/NY/Flushing/13835-39th-Ave-11354/unit-7th-FL/home/161098101,MLSLI,3116251,N,Y,40.7612026,-73.8277106
MLS Listing,,Condo/Co-op,1138 Ocean Ave Ph 8F,Brooklyn,NY,11230,1099999,2,2,Ditmas Park,,,2008,285,,,Active,,,http://www.redfin.com/NY/Brooklyn/1138-Ocean-Ave-11230/home/40929237,REBNY,CORC5715830,N,Y,40.6345604,-73.9584837
MLS Listing,,Condo/Co-op,35 Sutton Pl Unit 10F,New York,NY,10022,1075000,2,2.5,Middle East Side,,,1961,286,,,Active,,,http://www.redfin.com/NY/New-York/35-Sutton-Pl-10022/home/160979288,REBNY,DEGI3735615,N,Y,40.7584213,-73.9597576
MLS Listing,,Condo/Co-op,155 E 38th St Unit 11K,New York,NY,10016,1070000,2,1,Middle East Side,,,1960,292,,,Active,,,http://www.redfin.com/NY/New-York/155-E-38th-St-10016/home/45254364,REBNY,DEGI3727750,N,Y,40.7485595,-73.9764661
MLS Listing,,Single Family Residential,5702 New Utrecht Ave,Brooklyn,NY,11219,1100000,2,1,Brooklyn,3026,2694,,292,364,,Active,,,http://www.redfin.com/NY/Brooklyn/5702-New-Utrecht-Ave-11219/home/160765959,BNYMLS,428433,N,Y,40.6300112,-73.9961222
MLS Listing,,Condo/Co-op,3 E 71st St Unit 9D,New York,NY,10021,1095000,2,2,Upper East Side,,,1949,294,,,Active,,,http://www.redfin.com/NY/New-York/3-E-71st-St-10021/home/160754980,REBNY,SEEK1812912,N,Y,40.771712,-73.9666841
MLS Listing,,Condo/Co-op,2 Sutton Pl S Unit 2GH,New York,NY,10022,1175000,2,2,Middle East Side,1500,,1938,300,783,,Active,,,http://www.redfin.com/NY/New-York/2-Sutton-Pl-S-10022/home/114601441,REBNY,SOTH775962,N,Y,40.757216,-73.961193
MLS Listing,,Condo/Co-op,64 E 94th St Unit 4E,New York,NY,10128,1200000,2,2,Upper East Side,,,1952,307,,,Active,,,http://www.redfin.com/NY/New-York/64-E-94th-St-10128/home/160670740,REBNY,UCOM1810487,N,Y,40.7854218,-73.9544887
MLS Listing,,Condo/Co-op,80 John St Unit 4I,New York,NY,10038,1150000,2,2,Financial District,1153,,1927,311,997,,Active,,,http://www.redfin.com/NY/New-York/80-John-St-10038/home/45188903,REBNY,UCOM183948,N,Y,40.7082117,-74.0069487
MLS Listing,,Condo/Co-op,860 United Nations Plz Unit 13C,New York,NY,10017,1115000,2,2,Middle East Side,,,1966,315,,,Active,January-15-2020 11:30 AM,January-15-2020 01:00 PM,http://www.redfin.com/NY/New-York/860-United-Nations-Plz-10017/home/160586880,REBNY,BHSR19468031,N,Y,40.7528743,-73.9662859
MLS Listing,,Condo/Co-op,131-05 40th Rd Ph 2E,Flushing,NY,11354,1250000,2,2,The Grand,,,2016,317,,1070,Active,,,http://www.redfin.com/NY/Flushing/13105-40-Rd-11354/unit-2E/home/144212723,MLSLI,3105428,N,Y,40.7571799,-73.83395
MLS Listing,,Condo/Co-op,1330 Fifth Ave Unit 3E,New York,NY,10026,1125000,2,2,West Harlem,1109,,1989,318,1014,,Active,,,http://www.redfin.com/NY/New-York/1330-5th-Ave-10026/home/160572828,REBNY,MNSM1808546,N,Y,40.797814,-73.9488864
MLS Listing,,Condo/Co-op,35 Sutton Pl Unit 17D,New York,NY,10022,1075000,2,3,Middle East Side,,,1960,318,,,Active,,,http://www.redfin.com/NY/New-York/35-Sutton-Pl-10022/home/160571501,REBNY,CORC5681796,N,Y,40.7584213,-73.9597576
MLS Listing,,Condo/Co-op,520 W 23rd St Unit 10B,New York,NY,10011,1195000,2,2,Chelsea,894,,2003,321,1337,,Active,,,http://www.redfin.com/NY/New-York/520-W-23rd-St-10011/home/45335941,REBNY,CORC5684557,N,Y,40.7478445,-74.0050394
MLS Listing,,Condo/Co-op,134 -37 35th Ave Unit 9B,Queens,NY,11354,1089776,2,2,Flushing,874,,2019,340,1247,,Active,,,http://www.redfin.com/NY/Flushing/134-28-35th-Ave-11354/home/160407475,REBNY,MOSP1801284,N,Y,40.764088,-73.8322249
MLS Listing,,Condo/Co-op,419 E 57th St Unit 12F,New York,NY,10022,1250000,2,2,Middle East Side,1350,,1927,341,926,,Active,,,http://www.redfin.com/NY/New-York/419-E-57th-St-10022/home/160398025,REBNY,UCOM1804129,N,Y,40.7581624,-73.9619276
MLS Listing,,Multi-Family (2-4 Unit),5811 Avenue N,Brooklyn,NY,11234,1099000,2,2,Brooklyn,2920,2000,1931,352,376,,Active,,,http://www.redfin.com/NY/Brooklyn/5811-Avenue-N-11234/home/159710686,BNYMLS,426756,N,Y,40.6196883,-73.9187827
MLS Listing,,Condo/Co-op,24 -12 42nd Rd Unit 3A,Queens,NY,11101,1190000,2,1,Long Island City,860,,2018,367,1384,,Active,,,http://www.redfin.com/NY/Unknown/24-12-42nd-Rd-11101/home/144873102,REBNY,CHAS1797782,N,Y,40.7498668,-73.9417526
MLS Listing,,Condo/Co-op,60 Sutton Pl S Unit 4KS,New York,NY,10022,1195000,2,2,Middle East Side,,,1952,367,,,Active,,,http://www.redfin.com/NY/New-York/60-Sutton-Pl-S-10022/home/144833114,REBNY,SOTH752720,N,Y,40.7553429,-73.9627752
MLS Listing,,Condo/Co-op,414 E 52nd St Unit 4C,New York,NY,10022,1249000,2,2,Middle East Side,1325,,1927,367,943,,Active,,,http://www.redfin.com/NY/New-York/414-E-52nd-St-10022/home/45155265,REBNY,DEGI3589731,N,Y,40.7545386,-73.9644813
MLS Listing,,Condo/Co-op,2351 Adam Clayton Powell #407,New York,NY,10030,1180000,2,2,Harlem,,,2019,374,,,Active,,,http://www.redfin.com/NY/New-York/2351-Adam-Clayton-Powell-Junior-Blvd-10030/home/148576244,REBNY,HALS18679724,N,Y,40.8168816,-73.9419981
MLS Listing,,Condo/Co-op,2351 Adam Clayton Powell #204,New York,NY,10030,1208000,2,2,Harlem,,,2019,375,,,Active,,,http://www.redfin.com/NY/New-York/2351-Adam-Clayton-Powell-Junior-Blvd-10030/home/148570910,REBNY,HALS18671457,N,Y,40.8168816,-73.9419981
MLS Listing,,Condo/Co-op,211 Schermerhorn St Unit 3A,Brooklyn,NY,11201,1200000,2,2,Downtown Brooklyn,,,2018,420,,,Active,,,http://www.redfin.com/NY/Unknown/211-Schermerhorn-St-11201/home/145122768,REBNY,CORC5615656,N,Y,40.688986,-73.985399
MLS Listing,,Condo/Co-op,27 Jefferson Ave #3,Brooklyn,NY,11238,1199000,2,2,Bedford Stuyvesant,1116,,,423,1074,,Active,,,http://www.redfin.com/NY/Unknown/27-Jefferson-Ave-11238/home/147794418,REBNY,DEGI3555197,N,Y,40.6827151,-73.9564518
MLS Listing,,Condo/Co-op,77 Park Ave Unit 6H,New York,NY,10016,1225000,2,1.5,Murray Hill Kips Bay,850,,1924,423,1441,,Active,,,http://www.redfin.com/NY/New-York/77-Park-Ave-10016/home/45254587,REBNY,SEEK1788525,N,Y,40.7498752,-73.9786682
MLS Listing,,Condo/Co-op,21 S End Ave #226,New York,NY,10280,1199000,2,1.5,Battery Park City,,,1988,430,,,Active,,,http://www.redfin.com/NY/New-York/21-S-End-Ave-10280/home/45236141,REBNY,UCOM98302,N,Y,40.7083132,-74.0181168
MLS Listing,,Condo/Co-op,117 W 123rd St Unit 4A,New York,NY,10027,1245000,2,2,Mt. Morris Park,1234,,2009,434,1009,,Active,,,http://www.redfin.com/NY/New-York/117-W-123rd-St-10027/home/45333113,REBNY,COLU182235,N,Y,40.8070901,-73.9474169
MLS Listing,,Condo/Co-op,1524 Sheepshead Bay Rd Unit 26B,Brooklyn,NY,11235,1080000,2,2,Brooklyn,1369,,2017,439,789,,Active,,,http://www.redfin.com/NY/Brooklyn/1501-Voorhies-Ave-11235/unit-26B/home/146395470,BNYMLS,424849,N,Y,40.5859085,-73.9537896
MLS Listing,,Condo/Co-op,465 Park Ave Unit 18D,New York,NY,10022,1199000,2,2,Middle East Side,1400,,1926,448,856,,Active,,,http://www.redfin.com/NY/New-York/465-Park-Ave-10022/home/45153910,REBNY,CORC5589597,N,Y,40.7617486,-73.9703425
MLS Listing,,Condo/Co-op,40 W 116th St Unit A604,New York,NY,10026,1050000,2,2,West Harlem,1147,,2007,479,915,,Active,,,http://www.redfin.com/NY/New-York/40-W-116th-St-10026/home/45226854,REBNY,UCOM493832,N,Y,40.8010319,-73.9483377
MLS Listing,,Condo/Co-op,300 E 93rd St Unit 32A,New York,NY,10128,1150000,2,2,Upper East Side,,,1987,479,,,Active,,,http://www.redfin.com/NY/New-York/300-E-93rd-St-10128/home/45295231,REBNY,SOTH724748,N,Y,40.7819235,-73.9483354
MLS Listing,,Condo/Co-op,1349 Lexington Ave Unit MAIS1D,New York,NY,10128,1200000,2,1.5,Upper East Side,,,1927,479,,,Active,,,http://www.redfin.com/NY/New-York/1349-Lexington-Ave-10128/home/147152748,REBNY,UCOM1781057,N,Y,40.781739,-73.9534096
MLS Listing,,Condo/Co-op,175 E 62nd St Unit 7A,New York,NY,10065,1149000,2,2.5,New York,1800,,1963,536,638,,Active,,,http://www.redfin.com/NY/New-York/175-E-62nd-St-10065/unit-7A/home/45330798,HGMLS,4835238,N,Y,40.7636632,-73.9655082
MLS Listing,,Condo/Co-op,42 -50 27th St Unit 4C,Queens,NY,11101,1190000,2,2,Long Island City,929,,2017,545,1281,,Active,,,http://www.redfin.com/NY/Unknown/42-02-27th-St-11101/home/146261175,REBNY,CHAS1764565,N,Y,40.750163,-73.940174
MLS Listing,,Condo/Co-op,122 West St Unit 2P,Brooklyn,NY,11222,1195000,2,2,Green Point,988,,1872,563,1210,,Active,,,http://www.redfin.com/NY/Brooklyn/122-West-St-11222/home/40920336,REBNY,UCOM644288,N,Y,40.7309551,-73.9592187
MLS Listing,,Condo/Co-op,30 Beekman Pl Unit 2D,New York,NY,10022,1075000,2,2,Middle East Side,,,1935,563,,,Active,,,http://www.redfin.com/NY/New-York/30-Beekman-Pl-10022/home/45338645,REBNY,UCOM35000,N,Y,40.7537973,-73.9646283
MLS Listing,,Condo/Co-op,447 Ave P #205,Brooklyn,NY,11223,1201012,2,3,Midwood,1584,,2008,563,758,,Active,,,http://www.redfin.com/NY/Unknown/447-Avenue-P-11223/home/146128353,REBNY,TIME1061377,N,Y,40.609241,-73.9712049
MLS Listing,,Condo/Co-op,45 Sutton Pl S Unit 5M,New York,NY,10022,1150000,2,2,Middle East Side,1400,,1958,647,821,,Active,,,http://www.redfin.com/NY/New-York/45-Sutton-Pl-S-10022/home/145282788,REBNY,DEGI3196987,N,Y,40.7556971,-73.9614888
MLS Listing,,Condo/Co-op,640 W 237th St Unit 7A,Bronx,NY,10463,1085000,2,2,Riverdale,1427,,2006,700,760,1071,Active,,,http://www.redfin.com/NY/The-Bronx/640-W-237th-St-10463/unit-7A/home/44753273,HGMLS,4749183,N,Y,40.8879309,-73.9121663
MLS Listing,,Condo/Co-op,25 Sutton Pl S Unit 4M,New York,NY,10022,1200000,2,2,Middle East Side,,,1959,950,,,Active,,,http://www.redfin.com/NY/New-York/25-Sutton-Pl-S-10022/home/115543655,REBNY,DEGI2541001,N,Y,40.7562811,-73.9610297
MLS Listing,,Condo/Co-op,26 -26 Jackson Ave #602,Queens,NY,11101,1175000,2,2,Long Island City,1048,,2008,950,1121,,Active,,,http://www.redfin.com/NY/Long-Island-City/27-26-Jackson-Ave-11101/home/169896718,REBNY,SEEK589962,N,Y,40.7476259,-73.940084
