SALE TYPE,SOLD DATE,PROPERTY TYPE,ADDRESS,CITY,STATE OR PROVINCE,ZIP OR POSTAL CODE,PRICE,BEDS,BATHS,LOCATION,SQUARE FEET,LOT SIZE,YEAR BUILT,DAYS ON MARKET,$/SQUARE FEET,HOA/MONTH,STATUS,NEXT OPEN HOUSE START TIME,NEXT OPEN HOUSE END TIME,URL (SEE http://www.redfin.com/buy-a-home/comparative-market-analysis FOR INFO ON PRICING),SOURCE,MLS#,FAVORITE,INTERESTED,LATITUDE,LONGITUDE
MLS Listing,,Condo/Co-op,252 Seventh Ave Unit 11O,New York,NY,10001,2599000,1,2,Chelsea,1562,,1907,1,1664,,Active,,,http://www.redfin.com/NY/New-York/252-7th-Ave-10001/home/45313823,REBNY,CORC5958559,N,Y,40.7452249,-73.9950853
MLS Listing,,Condo/Co-op,790 Riverside Dr Unit 10G,New York,NY,10032,2500000,3,3,Washington Heights,,,1910,1,,,Active,,,http://www.redfin.com/NY/New-York/790-Riverside-Dr-10032/home/53327526,REBNY,UCOM1219583,N,Y,40.834716,-73.9481517
MLS Listing,,Condo/Co-op,825 W End Ave Unit 15A,New York,NY,10025,2500000,3,3,New York,2102,,1928,3,1189,,Active,,,http://www.redfin.com/NY/New-York/825-W-End-Ave-10025/unit-15A/home/45305136,HGMLS,6003490,N,Y,40.7982764,-73.971662
MLS Listing,,Condo/Co-op,23 W 73rd St #1014,New York,NY,10023,2650000,2,2,Upper West Side,,,1929,3,,,Active,,,http://www.redfin.com/NY/New-York/23-W-73rd-St-10023/home/168817326,REBNY,SEEK68870,N,Y,40.777703,-73.9767127
MLS Listing,,Condo/Co-op,285 W 110th St Unit 6D,New York,NY,10026,2695000,3,2.5,Upper West Side,1614,,2017,3,1670,,Active,,,http://www.redfin.com/NY/New-York/285-W-110th-St-10026/home/115150718,REBNY,UCOM1612020,N,Y,40.8006942,-73.9574555
MLS Listing,,Condo/Co-op,306 E 82nd St Unit 1B,New York,NY,10028,2550000,4,3,Upper East Side,2038,,2009,3,1251,,Active,,,http://www.redfin.com/NY/New-York/306-E-82nd-St-10028/home/167466799,REBNY,KWNY239276,N,Y,40.7749238,-73.9532259
MLS Listing,,Condo/Co-op,306 E 82nd St #1,New York,NY,10028,2550000,2,3,Upper East Side,2038,,2009,3,1251,,Active,,,http://www.redfin.com/NY/New-York/306-E-82nd-St-10028/home/160158294,REBNY,KWNY239275,N,Y,40.7749238,-73.9532259
MLS Listing,,Condo/Co-op,306 E 82nd St Unit 1A,New York,NY,10028,2550000,3,3,Upper East Side,2038,,2009,3,1251,,Active,,,http://www.redfin.com/NY/New-York/306-E-82nd-St-10028/home/45340598,REBNY,KWNY239274,N,Y,40.7749238,-73.9532259
MLS Listing,,Single Family Residential,1450 Pacific St,Brooklyn,NY,11216,2500000,,,Crown Heights,3600,,,3,694,,Active,,,http://www.redfin.com/NY/Brooklyn/1450-Pacific-St-11216/home/40707906,REBNY,UCOM78012,N,Y,40.6770067,-73.941905
MLS Listing,,Condo/Co-op,543 W 122nd St Unit 27C,New York,NY,10027,2540000,2,2,Morningside Heights,1313,,2019,4,1935,,Active,,,http://www.redfin.com/NY/New-York/543-W-122nd-St-10027/home/170244604,REBNY,HALS19383463,N,Y,40.8114727,-73.9602154
MLS Listing,,Condo/Co-op,543 W 122nd St Unit 4H,New York,NY,10027,2590000,3,2.5,Morningside Heights,1764,,2019,4,1468,,Active,,,http://www.redfin.com/NY/New-York/543-W-122nd-St-10027/home/170244603,REBNY,HALS19367163,N,Y,40.8114727,-73.9602154
MLS Listing,,Condo/Co-op,875 Park Ave Unit 9B,New York,NY,10075,2750000,1,2,Upper East Side,,,1912,4,,,Active,,,http://www.redfin.com/NY/New-York/875-Park-Ave-10075/home/45157609,REBNY,BHSR20013358,N,Y,40.7745604,-73.9609134
MLS Listing,,Single Family Residential,112-05 69th Ave,Forest Hills,NY,11375,2699999,5,4,Forest Hills,,7500,1920,4,,,Active,,,http://www.redfin.com/NY/Flushing/112-05-69th-Ave-11375/home/20915198,MLSLI,3190604,N,Y,40.7265548,-73.8408302
MLS Listing,,Single Family Residential,14-33 164th St,Beechhurst,NY,11357,2738888,5,5,Robinswood,4048,8600,2006,5,677,,Active,,,http://www.redfin.com/NY/Flushing/14-33-164th-St-11357/home/20860823,MLSLI,3190159,N,Y,40.788016,-73.7982169
MLS Listing,,Condo/Co-op,130 William St Unit 20B,New York,NY,10038,2700990,3,2,Financial District,1528,,2020,6,1768,,Active,,,http://www.redfin.com/NY/New-York/130-William-St-10038/home/170225095,REBNY,CORC5960617,N,Y,40.7091434,-74.0064461
MLS Listing,,Multi-Family (2-4 Unit),95-23 Roosevelt Ave,Jackson Heights,NY,11372,2658000,5,2.5,Jackson Heights,1200,1600,1931,7,2215,,Active,,,http://www.redfin.com/NY/Flushing/95-23-Roosevelt-Ave-11372/home/170222634,MLSLI,3189809,N,Y,40.7491284,-73.870932
MLS Listing,,Multi-Family (2-4 Unit),174 Carlton Ave,Brooklyn,NY,11205,2600000,4,3,Brooklyn,3080,2500,,7,844,,Active,,,http://www.redfin.com/NY/Brooklyn/174-Carlton-Ave-11205/home/40733475,BNYMLS,435705,N,Y,40.6924718,-73.972909
MLS Listing,,Condo/Co-op,432 10th St,Brooklyn,NY,11215,2699000,4,3,Park Slope,2050,,2018,7,1317,,Active,,,http://www.redfin.com/NY/Brooklyn/432-10th-St-11215/home/167285547,REBNY,CORC5959193,N,Y,40.6676477,-73.9852363
MLS Listing,,Condo/Co-op,2 Columbus Ave Unit 12C,New York,NY,10023,2695000,2,2.5,Upper West Side,1275,,1999,11,2114,,Active,,,http://www.redfin.com/NY/New-York/2-Columbus-Ave-10019/home/45266906,REBNY,UCOM1006936,N,Y,40.7695445,-73.9850058
MLS Listing,,Condo/Co-op,321 W 110th St Unit 19A,New York,NY,10026,2699999,3,2,Upper West Side,1383,,,12,1952,,Active,,,http://www.redfin.com/NY/New-York/321-W-110th-St-10026/home/105885484,REBNY,CLIC16818,N,Y,40.8012184,-73.9592644
MLS Listing,,Condo/Co-op,119 Fulton St #8,New York,NY,10038,2649000,2,2,Lower Manhattan,1321,,1919,12,2005,,Active,,,http://www.redfin.com/NY/New-York/119-Fulton-St-10038/home/45188767,REBNY,DEGI4060945,N,Y,40.7101063,-74.006941
MLS Listing,,Condo/Co-op,252 South St Unit 45K,New York,NY,10002,2575000,2,2,Chinatown,1123,,,13,2293,,Active,,,http://www.redfin.com/NY/New-York/252-South-St-10002/home/167180228,REBNY,EXTE107072,N,Y,40.7110409,-73.9911744
MLS Listing,,Single Family Residential,1476 Myrtle Ave,Brooklyn,NY,11237,2700000,,,Bushwick,4200,,,18,643,,Active,,,http://www.redfin.com/NY/Brooklyn/1476-Myrtle-Ave-11237/home/40747756,REBNY,ANCH77875,N,Y,40.6989496,-73.9154758
MLS Listing,,Condo/Co-op,9 College Pl Unit 3K,Brooklyn,NY,11201,2550000,2,2,Brooklyn Heights,1489,,1923,18,1713,,Active,,,http://www.redfin.com/NY/Brooklyn/9-College-Pl-11201/home/40928885,REBNY,UCOM858421,N,Y,40.696547,-73.9946186
MLS Listing,,Condo/Co-op,235 W 75th St #310,New York,NY,10023,2650000,2,2.5,Upper West Side,1421,,,18,1865,,Active,,,http://www.redfin.com/NY/New-York/235-W-75th-St-10023/home/109654227,REBNY,UCOM1479162,N,Y,40.7815642,-73.9816551
MLS Listing,,Condo/Co-op,425 Central Park W Unit 6CD,New York,NY,10025,2650000,3,3,Upper West Side,1650,,1941,18,1606,,Active,,,http://www.redfin.com/NY/New-York/425-Central-Park-W-10025/home/170163063,REBNY,CORC5952227,N,Y,40.7960295,-73.9619127
MLS Listing,,Vacant Land,35-30 12th St,Long Island City,NY,11106,2699000,,,Long Island City,,3514,,20,,,Active,,,http://www.redfin.com/NY/Long-Island-City/35-30-12th-St-11106/home/163036525,MLSLI,3187540,N,Y,40.761818,-73.938845
MLS Listing,,Condo/Co-op,7 E 20th St Unit 10F,New York,NY,10003,2750000,2,2,Flatiron,,,1908,28,,,Active,,,http://www.redfin.com/NY/New-York/7-E-20th-St-10003/home/170116503,REBNY,UCOM589419,N,Y,40.7395035,-73.9902122
MLS Listing,,Condo/Co-op,243 Fourth Ave Unit 8A,Brooklyn,NY,11215,2695000,4,3.5,Park Slope,1903,,2019,32,1416,,Active,,,http://www.redfin.com/NY/Brooklyn/243-4th-Ave-11215/home/170068080,REBNY,HALS19295310,N,Y,40.676355,-73.9833085
MLS Listing,,Condo/Co-op,30 E 29th St Unit 10A,New York,NY,10016,2650000,2,2,Middle East Side,1416,,2020,33,1871,,Active,,,http://www.redfin.com/NY/New-York/30-E-29th-St-10016/home/170061722,REBNY,CORE2823101,N,Y,40.7442132,-73.9847706
MLS Listing,,Condo/Co-op,30 E 29th St Unit 22D,New York,NY,10016,2735000,2,1.5,Middle East Side,1130,,2020,33,2420,,Active,,,http://www.redfin.com/NY/New-York/30-E-29th-St-10016/home/170061711,REBNY,CORE2823094,N,Y,40.7442132,-73.9847706
MLS Listing,,Multi-Family (2-4 Unit),111 Congress St,Brooklyn,NY,11201,2750000,,,Cobble Hill,3250,,,34,846,,Active,,,http://www.redfin.com/NY/Brooklyn/111-Congress-St-11201/home/40684058,REBNY,UCOM77894,N,Y,40.6892052,-73.9983036
MLS Listing,,Condo/Co-op,30 Riverside Blvd Unit 30D,New York,NY,10069,2500000,1,2,Upper West Side,984,,2019,38,2541,,Active,,,http://www.redfin.com/NY/New-York/30-Riverside-Blvd-10069/home/170022063,REBNY,CORC5939503,N,Y,40.7734426,-73.9916656
MLS Listing,,Condo/Co-op,101 Central Park W Unit 3D,New York,NY,10023,2585000,3,3,Upper West Side,,,1928,39,,,Active,,,http://www.redfin.com/NY/New-York/101-Central-Park-W-10023/home/170018314,REBNY,DEGI4042898,N,Y,40.7753983,-73.9769193
MLS Listing,,Condo/Co-op,172 Madison Ave Unit 18B,New York,NY,10016,2550000,2,2.5,Middle East Side,1488,,2016,39,1714,,Active,,,http://www.redfin.com/NY/New-York/172-Madison-Ave-10016/home/115814405,REBNY,KWNY238721,N,Y,40.7474307,-73.9835995
MLS Listing,,Condo/Co-op,401 E 60th St Unit 37C,New York,NY,10022,2750000,3,3,Upper East Side,1959,,2000,39,1404,,Active,,,http://www.redfin.com/NY/New-York/401-E-60th-St-10022/home/45315419,REBNY,DEGI4041968,N,Y,40.7603548,-73.9609971
MLS Listing,,Single Family Residential,5253 Arlington Ave,Bronx,NY,10471,2599000,,,Riverdale,,,,40,,,Active,,,http://www.redfin.com/NY/The-Bronx/5253-Arlington-Ave-10471/home/44722340,REBNY,CORC5934116,N,Y,40.9013873,-73.9088576
MLS Listing,,Single Family Residential,1761 East 12 St,Brooklyn,NY,11229,2650000,3,1,Brooklyn,5568,3510,,40,476,,Active,,,http://www.redfin.com/NY/Brooklyn/1761-E-12th-St-11229/home/40845056,BNYMLS,435140,N,Y,40.6064856,-73.960573
MLS Listing,,Condo/Co-op,50 E 89th St Unit 23FG,New York,NY,10128,2600000,2,2.5,Upper East Side,2000,,1973,41,1300,,Active,,,http://www.redfin.com/NY/New-York/50-E-89th-St-10128/home/170004772,REBNY,UCOM1861362,N,Y,40.7822981,-73.9568829
MLS Listing,,Condo/Co-op,10 W End Ave Unit 31B,New York,NY,10023,2500000,2,2.5,Upper West Side,1484,,2007,41,1685,,Active,,,http://www.redfin.com/NY/New-York/10-W-End-Ave-10023/home/45223911,REBNY,AIBR1861026,N,Y,40.7718474,-73.990027
MLS Listing,,Condo/Co-op,15 E 30th St Unit 19B,New York,NY,10016,2665000,2,2,Middle East Side,1277,,,42,2087,,Active,,,http://www.redfin.com/NY/New-York/15-E-30th-St-10016/home/169997255,REBNY,DEGI3944706,N,Y,40.7456749,-73.9852366
MLS Listing,,Condo/Co-op,101 W 24th St Unit 18B,New York,NY,10010,2750000,2,2,Chelsea,1242,,2006,42,2214,,Active,,,http://www.redfin.com/NY/New-York/101-W-24th-St-10011/home/45222174,REBNY,MODL2821947,N,Y,40.7439433,-73.9923513
MLS Listing,,Multi-Family (2-4 Unit),255 W 113 St Unit Harlem,New York,NY,10026,2500000,5,5.5,New York,3600,1817,1890,42,694,,Active,,,http://www.redfin.com/NY/New-York/255-W-113th-St-10026/unit-Harlem/home/169994523,MLSLI,3183691,N,Y,40.8021823,-73.9555448
MLS Listing,,Condo/Co-op,252 South St Unit 47G,New York,NY,10002,2587000,2,2,Lower East Side,,,2019,42,,,Active,,,http://www.redfin.com/NY/New-York/252-South-St-10002/home/146128608,REBNY,UCOM1763253,N,Y,40.7102574,-73.9888754
MLS Listing,,Single Family Residential,110-42 67th Rd,Forest Hills,NY,11375,2688888,4,4,Cord Meyer,2500,5000,2007,47,1076,,Active,,,http://www.redfin.com/NY/Flushing/110-42-67th-Rd-11375/home/20914161,MLSLI,3183164,N,Y,40.729161,-73.843496
MLS Listing,,Condo/Co-op,161 W 15th St Unit 5J,New York,NY,10011,2695000,3,2,Chelsea,1700,,1919,47,1585,,Active,,,http://www.redfin.com/NY/New-York/161-W-15th-St-10011/home/45174290,REBNY,DEGI4034924,N,Y,40.7393379,-73.9987046
MLS Listing,,Condo/Co-op,27-28 Thomson Ave #340,New York,NY,11101,2740000,3,3,New York,2192,,1920,48,1250,,Active,,,http://www.redfin.com/NY/Long-Island-City/2728-Thomson-Ave-11101/unit-340/home/23205675,HGMLS,4935623,N,Y,40.7457312,-73.9417545
MLS Listing,,Condo/Co-op,32 E 1st St Unit 2D,New York,NY,10003,2550000,2,2,East Village,1083,,,48,2355,,Active,,,http://www.redfin.com/NY/New-York/32-E-1st-St-10003/home/145245534,REBNY,DEGI3806548,N,Y,40.7240884,-73.9902622
MLS Listing,,Multi-Family (2-4 Unit),75 Carlton Ave,Brooklyn,NY,11205,2500000,,,Fort Greene,,,,48,,,Active,,,http://www.redfin.com/NY/Brooklyn/75-Carlton-Ave-11205/home/40733877,REBNY,DEGI4033535,N,Y,40.6955228,-73.9731084
MLS Listing,,Condo/Co-op,25 Park Row Unit 12C,New York,NY,10038,2585000,2,2,Financial District,1281,,,48,2018,,Active,,,http://www.redfin.com/NY/New-York/25-Park-Row-10038/home/169954268,REBNY,CORC5680281,N,Y,40.7114529,-74.0074527
MLS Listing,,Condo/Co-op,1016 Fifth Ave Unit 4D,New York,NY,10028,2500000,3,2.5,Upper East Side,2100,,1926,52,1190,,Active,,,http://www.redfin.com/NY/New-York/1016-5th-Ave-10028/home/169919785,REBNY,DEGI4029961,N,Y,40.7793023,-73.9615353
MLS Listing,,Multi-Family (2-4 Unit),410 Atlantic Ave,Brooklyn,NY,11217,2750000,,,Boerum Hill,3178,,,53,865,,Active,,,http://www.redfin.com/NY/Brooklyn/410-Atlantic-Ave-11217/home/167132272,REBNY,UCOM76605,N,Y,40.6866205,-73.9846238
MLS Listing,,Multi-Family (2-4 Unit),Withheld Withheld Pkwy,Brooklyn,NY,11218,2580000,6,2,Brooklyn,4220,1554,,53,611,,Active,,,http://www.redfin.com/NY/Brooklyn/Undisclosed-address-11230/home/113106490,BNYMLS,434910,N,Y,40.6190629,-73.9653715
MLS Listing,,Condo/Co-op,1 Clinton St Unit 4E,Brooklyn,NY,11201,2649000,2,2,Brooklyn Heights,1637,,2020,53,1618,,Active,,,http://www.redfin.com/NY/Brooklyn/1-Clinton-St-11201/home/169912125,REBNY,CORC5939754,N,Y,40.6960415,-73.9913797
MLS Listing,,Condo/Co-op,129 W 20th St Unit 3A,New York,NY,10011,2500000,1,2,Chelsea,,,,54,,,Active,,,http://www.redfin.com/NY/New-York/129-W-20th-St-10011/home/45313935,REBNY,BHSR19959185,N,Y,40.7417868,-73.9953832
MLS Listing,,Condo/Co-op,247 W 46th St #3803,New York,NY,10036,2650000,2,2.5,Middle West Side,1308,,2007,54,2026,,Active,,,http://www.redfin.com/NY/New-York/247-W-46th-St-10036/home/45222810,REBNY,DGSI2814804,N,Y,40.7598542,-73.9874427
MLS Listing,,Multi-Family (2-4 Unit),296 Leonard St,Brooklyn,NY,11211,2599000,4,2,Williamsburg,3510,1569,1899,55,740,,Active,,,http://www.redfin.com/NY/Brooklyn/296-Leonard-St-11211/home/169894900,MLSLI,3181498,N,Y,40.7143486,-73.9475435
MLS Listing,,Condo/Co-op,350 Hicks St Unit 14E,Brooklyn,NY,11201,2550000,2,2.5,Cobble Hill,1324,,,55,1926,,Active,,,http://www.redfin.com/NY/Brooklyn/350-Hicks-St-11201/home/169894263,REBNY,DEGI3947592,N,Y,40.6908113,-73.9980356
MLS Listing,,Condo/Co-op,200 Rector Pl Unit 40D,New York,NY,10280,2520000,2,2.5,Battery Park City,1638,,1987,56,1538,,Active,,,http://www.redfin.com/NY/New-York/200-Rector-Pl-10280/home/45125084,REBNY,DEGI2581418,N,Y,40.7087736,-74.0161964
MLS Listing,,Condo/Co-op,196 Orchard St Unit 5D,New York,NY,10002,2500000,2,2,Lower East Side,1205,,2017,59,2075,,Active,,,http://www.redfin.com/NY/New-York/196-Orchard-St-10002/home/115266964,REBNY,SEEK1859288,N,Y,40.7222717,-73.9878326
MLS Listing,,Multi-Family (5+ Unit),30-42 14 St,Astoria,NY,11102,2500000,9,6.5,Astoria,3100,2500,1930,59,806,,Active,,,http://www.redfin.com/NY/Long-Island-City/30-42-14th-St-11102/home/35646856,MLSLI,3180846,N,Y,40.769952,-73.930972
MLS Listing,,Single Family Residential,275 Corbin Pl,Brooklyn,NY,11235,2640000,3,2.25,Brooklyn,2188,8000,1920,59,1207,,Active,,,http://www.redfin.com/NY/Brooklyn/275-Corbin-Pl-11235/home/40907223,BNYMLS,434782,N,Y,40.5749856,-73.9532259
MLS Listing,,Condo/Co-op,12 Beekman Pl Unit 11B,New York,NY,10022,2750000,2,2,Middle East Side,,,1957,60,,,Active,,,http://www.redfin.com/NY/New-York/12-Beekman-Pl-10022/home/45155139,REBNY,STRI36721,N,Y,40.7533312,-73.9652142
MLS Listing,,Multi-Family (2-4 Unit),360 Jefferson Ave,Brooklyn,NY,11221,2500000,10,4,Brooklyn,3620,1900,1905,60,691,,Active,,,http://www.redfin.com/NY/Brooklyn/360-Jefferson-Ave-11221/home/40728083,MLSLI,3180364,N,Y,40.683819,-73.9433515
MLS Listing,,Condo/Co-op,140 E 72nd St Unit 3C,New York,NY,10021,2500000,3,3,Upper East Side,,,1959,60,,,Active,,,http://www.redfin.com/NY/New-York/140-E-72nd-St-10021/home/169795333,REBNY,DEGI4021147,N,Y,40.7704055,-73.9625719
MLS Listing,,Condo/Co-op,835 Carroll St #1,Brooklyn,NY,11215,2595000,2,3,Park Slope,2340,,1920,61,1109,,Active,,,http://www.redfin.com/NY/Brooklyn/835-Carroll-St-11215/home/169791741,REBNY,CORC5740528,N,Y,40.6719953,-73.9726605
MLS Listing,,Condo/Co-op,207 E 57th St Unit 12B,New York,NY,10022,2695000,2,2,Middle West Side,1628,,2005,61,1655,,Active,,,http://www.redfin.com/NY/New-York/207-E-57th-St-10022/home/45192380,REBNY,DEGI4017093,N,Y,40.7602341,-73.9670198
MLS Listing,,Condo/Co-op,870 United Nations Plz Unit 24A,New York,NY,10017,2575000,4,4.5,Middle East Side,2575,,1966,61,1000,,Active,,,http://www.redfin.com/NY/New-York/870-United-Nations-Plz-10017/home/45325075,REBNY,UCOM1858978,N,Y,40.7524819,-73.9654633
MLS Listing,,Multi-Family (2-4 Unit),90-20 150 St,Jamaica,NY,11435,2699000,7,3,Jamaica,,5120,,62,,,Active,,,http://www.redfin.com/NY/Jamaica/90-20-150th-St-11435/home/20769811,MLSLI,3179899,N,Y,40.7031473,-73.8050875
MLS Listing,,Condo/Co-op,11 Fifth Ave Unit 16L,New York,NY,10003,2749000,2,2,Greenwich Village,,,1956,63,,,Active,,,http://www.redfin.com/NY/New-York/11-5th-Ave-10003/home/45319148,REBNY,UCOM1858328,N,Y,40.7324189,-73.9957985
MLS Listing,,Condo/Co-op,56 E 13th St #4,New York,NY,10003,2590000,3,2,Greenwich Village,1965,,1906,63,1318,,Active,,,http://www.redfin.com/NY/New-York/56-E-13th-St-10003/home/45208676,REBNY,UCOM464609,N,Y,40.7340466,-73.9916484
MLS Listing,,Condo/Co-op,200 W Houston St Unit 1D,New York,NY,10014,2695000,2,2,Central Village,,,,63,,,Active,,,http://www.redfin.com/NY/New-York/200-W-Houston-St-10014/home/45210936,REBNY,DEGI4017978,N,Y,40.728687,-74.004053
MLS Listing,,Condo/Co-op,200 E 65th St Unit 15DE,New York,NY,10065,2500000,2,2.5,Upper East Side,1575,,1989,63,1587,,Active,,,http://www.redfin.com/NY/New-York/200-210-E-65th-St-10065/home/45285986,REBNY,BHSR19891442,N,Y,40.7647766,-73.9635549
MLS Listing,,Condo/Co-op,721 Fifth Ave Unit 32A,New York,NY,10022,2600000,2,2.5,Middle East Side,1477,,,66,1760,,Active,,,http://www.redfin.com/NY/New-York/721-5th-Ave-10022/home/45277477,REBNY,BHSR19948431,N,Y,40.762394,-73.9739039
MLS Listing,,Condo/Co-op,815 Park Ave Unit 1AD/D2,New York,NY,10021,2500000,4,2,Upper East Side,2000,,1917,67,1250,,Active,,,http://www.redfin.com/NY/New-York/815-Park-Ave-10021/home/169731362,REBNY,CORC5932153,N,Y,40.7727733,-73.9621113
MLS Listing,,Condo/Co-op,60 E End Ave Unit 32B,New York,NY,10028,2650000,3,3.5,Upper East Side,2300,,1973,67,1152,,Active,,,http://www.redfin.com/NY/New-York/60-E-End-Ave-10028/home/45162802,REBNY,FOXR2812712,N,Y,40.7728195,-73.9470795
MLS Listing,,Condo/Co-op,100 United Nations Plz Unit 42B,New York,NY,10017,2700000,2,3,Middle East Side,1590,,1984,68,1698,,Active,,,http://www.redfin.com/NY/New-York/100-United-Nations-Plz-10017/home/45281561,REBNY,CORC5929922,N,Y,40.753132,-73.9678051
MLS Listing,,Condo/Co-op,163-165 W 18th St Unit 9B,New York,NY,10011,2650000,2,2,New York,1216,,2006,69,2179,,Active,,,http://www.redfin.com/NY/New-York/163-W-18th-St-10011/unit-9B/home/45189740,HGMLS,5089867,N,Y,40.7409375,-73.9971896
MLS Listing,,Condo/Co-op,815 Park Ave Unit MEDICAL,New York,NY,10021,2500000,0,2,Upper East Side,2000,,1917,70,1250,,Active,,,http://www.redfin.com/NY/New-York/815-Park-Ave-10021/home/169648734,REBNY,CORC5928603,N,Y,40.7727733,-73.9621113
MLS Listing,,Single Family Residential,3302 Parsons,Flushing,NY,11354,2500000,5,4,Flushing,2770,10296,1920,73,903,,Active,,,http://www.redfin.com/NY/Flushing/33-02-Parsons-Blvd-11354/home/20856634,MLSLI,3177529,N,Y,40.767938,-73.824608
MLS Listing,,Condo/Co-op,122 Greenwich Ave #6,New York,NY,10011,2595000,1,2,New York,1285,,2008,73,2019,,Active,,,http://www.redfin.com/NY/New-York/122-Greenwich-Ave-10011/unit-6/home/45322117,HGMLS,5081982,N,Y,40.739227,-74.0024215
MLS Listing,,Condo/Co-op,130 William St Unit 26E,New York,NY,10038,2575990,2,3,Financial District,1471,,2020,74,1751,,Active,,,http://www.redfin.com/NY/New-York/130-William-St-10038/home/169627977,REBNY,CORC5927644,N,Y,40.7091434,-74.0064461
MLS Listing,,Condo/Co-op,114 E 72nd St Unit 9A,New York,NY,10021,2595000,2,3.5,Upper East Side,,,1963,74,,,Active,,,http://www.redfin.com/NY/New-York/114-E-72nd-St-10021/home/169626311,REBNY,ASHW2768043,N,Y,40.7706377,-73.9631974
MLS Listing,,Condo/Co-op,113 Kane St Unit 1B,Brooklyn,NY,11231,2559000,3,3,Brooklyn,2254,,2013,74,1135,,Active,,,http://www.redfin.com/NY/Brooklyn/113-Kane-St-11231/home/108527746,REBNY,UCOM1804714,N,Y,40.68757,-74.00027
MLS Listing,,Multi-Family (2-4 Unit),29 Sutton St,Brooklyn,NY,11222,2500000,,,Green Point,,,,75,,,Active,,,http://www.redfin.com/NY/Brooklyn/29-Sutton-St-11222/home/40741025,REBNY,CORC5927071,N,Y,40.7239057,-73.940652
MLS Listing,,Single Family Residential,252-50 Brattle Ave,Little Neck,NY,11362,2628000,4,4.5,Little Neck Hills,,12500,1930,75,,,Active,,,http://www.redfin.com/NY/Flushing/252-50-Brattle-Ave-11362/home/20795731,MLSLI,3176585,N,Y,40.766197,-73.729497
MLS Listing,,Condo/Co-op,110 -118 Riverside Dr Unit 7A,New York,NY,10024,2650000,3,2,Upper West Side,,,1929,76,,,Active,,,http://www.redfin.com/NY/New-York/110-Riverside-Dr-10024/home/169596979,REBNY,CORC5903055,N,Y,40.7877568,-73.9810032
MLS Listing,,Single Family Residential,179-48 Tudor Rd,Jamaica Estates,NY,11432,2600000,4,3,Jamaica Estates,,12800,1950,76,,,Active,,,http://www.redfin.com/NY/Jamaica/179-48-Tudor-Rd-11432/home/20814062,MLSLI,3176515,N,Y,40.7210986,-73.7879084
MLS Listing,,Multi-Family (2-4 Unit),264 Withers St,Brooklyn,NY,11211,2500000,,,Green Point,3280,,,76,762,,Active,,,http://www.redfin.com/NY/Brooklyn/264-Withers-St-11211/home/40743534,REBNY,UCOM68625,N,Y,40.7175719,-73.940783
MLS Listing,,Single Family Residential,216-10 27th Ave,Bayside,NY,11360,2688888,4,4,Bayside Gables,,8960,1950,76,,,Active,,,http://www.redfin.com/NY/Flushing/216-10-27th-Ave-11360/home/20837499,MLSLI,3176368,N,Y,40.779081,-73.77074
MLS Listing,,Condo/Co-op,115 Fourth Ave Unit 6J,New York,NY,10003,2500000,2,2,Central Village,1370,,1905,76,1825,,Active,,,http://www.redfin.com/NY/New-York/115-4th-Ave-10003/home/45244459,REBNY,DEGI4007711,N,Y,40.7328931,-73.9897661
MLS Listing,,Condo/Co-op,252 Seventh Ave Unit 7Q,New York,NY,10001,2650000,2,2,Chelsea,1563,,1908,77,1695,,Active,,,http://www.redfin.com/NY/New-York/252-7th-Ave-10001/home/45314095,REBNY,BHSR19931076,N,Y,40.7452249,-73.9950853
MLS Listing,,Condo/Co-op,351 E 51st St Unit 15C,New York,NY,10022,2650000,3,3,Middle East Side,1752,,2000,80,1513,,Active,,,http://www.redfin.com/NY/New-York/351-E-51st-St-10022/home/45316457,REBNY,DEGI4000847,N,Y,40.7548258,-73.966124
MLS Listing,,Condo/Co-op,10 Madison Sq W Unit 11B,New York,NY,10010,2550000,1,1.5,Middle East Side,1026,,1915,80,2485,,Active,,,http://www.redfin.com/NY/New-York/1107-Broadway-10010/home/108582470,REBNY,DEGI4004731,N,Y,40.7427127,-73.989604
MLS Listing,,Condo/Co-op,447 Clinton St #1,Brooklyn,NY,11238,2750000,3,2,Carroll Gardens,2538,,,81,1084,,Active,,,http://www.redfin.com/NY/Brooklyn/447-Clinton-St-11231/home/169556398,REBNY,DEGI3997294,N,Y,40.68071,-73.9987554
MLS Listing,,Condo/Co-op,225 Lafayette St Unit 6A,New York,NY,10012,2750000,2,2,Soho,1283,,1924,83,2143,,Active,,,http://www.redfin.com/NY/New-York/225-Lafayette-St-10012/home/45135497,REBNY,UCOM689678,N,Y,40.72199,-73.996867
MLS Listing,,Condo/Co-op,60 E 88th St Unit 4B,New York,NY,10128,2595000,2,2.5,Upper East Side,1624,,1986,83,1598,,Active,,,http://www.redfin.com/NY/New-York/60-E-88th-St-10128/home/45290909,REBNY,ASHW2800315,N,Y,40.7816895,-73.9572204
MLS Listing,,Condo/Co-op,1050 Fifth Ave Unit 15C,New York,NY,10028,2500000,2,2,Upper East Side,,,1960,83,,,Active,,,http://www.redfin.com/NY/New-York/1050-5th-Ave-10028/home/169515738,REBNY,BHSR19903186,N,Y,40.7816743,-73.9600313
MLS Listing,,Condo/Co-op,1280 Fifth Ave Unit 19G,New York,NY,10029,2500000,3,3,Upper East Side,1604,,2008,84,1559,,Active,,,http://www.redfin.com/NY/New-York/1280-5th-Ave-10029/home/45340470,REBNY,HALS19922640,N,Y,40.7961886,-73.949116
MLS Listing,,Single Family Residential,4 Hamilton Ter,New York,NY,10031,2600000,,,Hamilton Heights,,,,85,,,Active,,,http://www.redfin.com/NY/New-York/4-Hamilton-Ter-10031/home/169489265,REBNY,DEGI3994248,N,Y,40.8222312,-73.9471526
MLS Listing,,Multi-Family (2-4 Unit),1700 Lexington Ave,New York,NY,10029,2600000,,,East Harlem,,,,87,,,Active,,,http://www.redfin.com/NY/New-York/1700-Lexington-Ave-10029/home/45298119,REBNY,DEGI3997893,N,Y,40.792687,-73.9462574
MLS Listing,,Condo/Co-op,90 Furman St Unit N810,Brooklyn,NY,11201,2590000,1,2,Brooklyn Heights,1612,,2015,87,1607,,Active,,,http://www.redfin.com/NY/Brooklyn/90-Furman-St-11201/home/113611226,REBNY,CORC5919683,N,Y,40.7015519,-73.995867
MLS Listing,,Multi-Family (2-4 Unit),242 E 110th St,New York,NY,10029,2600000,,,East Harlem,800,,,87,3250,,Active,,,http://www.redfin.com/NY/New-York/242-E-110th-St-10029/home/45298295,REBNY,DEGI3997225,N,Y,40.7933373,-73.9413437
MLS Listing,,Single Family Residential,67 Amher St,Brooklyn,NY,11235,2625000,5,3,Brooklyn,4730,4000,2010,87,555,,Active,,,http://www.redfin.com/NY/Brooklyn/67-Amherst-St-11235/home/40907323,BNYMLS,434132,N,Y,40.5801514,-73.9522616
MLS Listing,,Condo/Co-op,969 Park Ave Unit 9B,New York,NY,10028,2665000,4,2,Upper East Side,,,1911,87,,,Active,,,http://www.redfin.com/NY/New-York/969-Park-Ave-10028/home/169462980,REBNY,BHSR19916857,N,Y,40.7776874,-73.9585526
MLS Listing,,Condo/Co-op,350 W 23rd St Unit GARDEN,New York,NY,10011,2500000,2,2,Chelsea,1803,,2008,88,1387,,Active,,,http://www.redfin.com/NY/New-York/350-W-23rd-St-10011/home/169451446,REBNY,UCOM1855002,N,Y,40.745865,-74.000579
MLS Listing,,Multi-Family (2-4 Unit),117 W 131st St,New York,NY,10027,2750000,6,5,Central Harlem,4096,1700,,89,671,,Active,,,http://www.redfin.com/NY/New-York/117-W-131st-St-10027/home/45305800,REBNY,HALS19910516,N,Y,40.8121293,-73.9434791
MLS Listing,,Condo/Co-op,55 Central Park W Unit 2E,New York,NY,10023,2500000,3,3,Upper West Side,2000,,1929,89,1250,,Active,,,http://www.redfin.com/NY/New-York/55-Central-Park-W-10023/home/115018043,REBNY,DEGI3994457,N,Y,40.7722523,-73.9790359
MLS Listing,,Multi-Family (2-4 Unit),59 W 119th St,New York,NY,10026,2575000,,,Harlem,,,,90,,,Active,,,http://www.redfin.com/NY/New-York/59-W-119th-St-10026/home/45298844,REBNY,CORC5918346,N,Y,40.803514,-73.9467396
MLS Listing,,Condo/Co-op,220 Madison Ave Unit 14/15O,New York,NY,10016,2695000,2,2.5,Murray Hill Kips Bay,,,1940,91,,,Active,,,http://www.redfin.com/NY/New-York/220-Madison-Ave-10016/home/114720228,REBNY,UCOM1352197,N,Y,40.749595,-73.981996
MLS Listing,,Condo/Co-op,313 W 121st St Unit GARDEN,New York,NY,10027,2685000,3,2.5,West Harlem,2075,,2019,94,1294,,Active,,,http://www.redfin.com/NY/New-York/313-W-121st-St-10027/home/169404579,REBNY,HALS19578436,N,Y,40.8081049,-73.9539684
MLS Listing,,Condo/Co-op,799 Park Ave Unit 15A,New York,NY,10021,2750000,2,2.5,Upper East Side,,,1961,94,,,Active,,,http://www.redfin.com/NY/New-York/799-Park-Ave-10021/home/45157135,REBNY,DEGI3988491,N,Y,40.7724943,-73.9624557
MLS Listing,,Single Family Residential,76 Sullivan St,Brooklyn,NY,11231,2695000,,,Redhook,2830,,,95,952,,Active,,,http://www.redfin.com/NY/Brooklyn/76-Sullivan-St-11231/home/115888699,REBNY,BLUR60648,N,Y,40.6776471,-74.0115624
MLS Listing,,Multi-Family (2-4 Unit),59-43 56th Rd,Maspeth,NY,11378,2650000,7,2,Maspeth,,7600,1925,96,,,Active,,,http://www.redfin.com/NY/Flushing/59-43-56th-Rd-11378/home/20906955,MLSLI,3171609,N,Y,40.724781,-73.907178
MLS Listing,,Condo/Co-op,312 E 22nd St Unit PHB,New York,NY,10010,2650000,3,2.5,Gramercy Park,1679,,,96,1578,,Active,,,http://www.redfin.com/NY/New-York/312-E-22nd-St-10010/home/45255774,REBNY,PREV104196,N,Y,40.7367306,-73.9806906
MLS Listing,,Condo/Co-op,250 E 53rd St #2501,New York,NY,10022,2595000,2,2.5,Middle East Side,1560,,2007,98,1663,,Active,,,http://www.redfin.com/NY/New-York/250-E-53rd-St-10022/home/45207520,REBNY,UCOM323198,N,Y,40.7567051,-73.9676008
MLS Listing,,Condo/Co-op,34 Gramercy Park E Unit 3AR,New York,NY,10003,2600000,2,2,Gramercy Park,,,1883,98,,,Active,,,http://www.redfin.com/NY/New-York/34-Gramercy-Park-E-10003/home/45234130,REBNY,BHSR19907319,N,Y,40.7373549,-73.9848624
MLS Listing,,Condo/Co-op,125 E 12th St Unit 5G,New York,NY,10003,2500000,2,2,Greenwich Village,1740,,1988,98,1437,,Active,,,http://www.redfin.com/NY/New-York/125-E-12th-St-10003/home/45244518,REBNY,UCOM1153732,N,Y,40.732427,-73.9887233
MLS Listing,,Condo/Co-op,136 W 13th St Unit 1AB,New York,NY,10011,2750000,1,1.5,Greenwich Village,1100,,1842,98,2500,,Active,,,http://www.redfin.com/NY/New-York/136-W-13th-St-10011/home/45143432,REBNY,UCOM173339,N,Y,40.7371989,-73.999003
MLS Listing,,Multi-Family (2-4 Unit),672 Sixth Ave,Brooklyn,NY,11215,2700000,,,Greenwood,,,,100,,,Active,,,http://www.redfin.com/NY/Brooklyn/672-6th-Ave-11215/home/169288555,REBNY,IPGL2037,N,Y,40.6606044,-73.9909228
MLS Listing,,Condo/Co-op,77 Greenwich St Unit 22D,New York,NY,10006,2615000,2,2.5,Financial District,1371,,2020,101,1907,,Active,,,http://www.redfin.com/NY/New-York/77-Greenwich-St-10006/home/169287183,REBNY,TMDI1852830,N,Y,40.7074175,-74.0135328
MLS Listing,,Condo/Co-op,695 First Ave Unit 28F,New York,NY,10016,2695000,2,3,Middle East Side,1622,,2019,101,1662,,Active,,,http://www.redfin.com/NY/New-York/695-1st-Ave-10016/home/160620401,REBNY,CORC5693258,N,Y,40.7473591,-73.9709181
MLS Listing,,Condo/Co-op,389 E 89th St Unit 27A1,New York,NY,10128,2745000,3,3,Upper East Side,1582,,2003,101,1735,,Active,,,http://www.redfin.com/NY/New-York/389-E-89th-St-10128/home/169285655,REBNY,CORC5900554,N,Y,40.7791072,-73.9483299
MLS Listing,,Multi-Family (2-4 Unit),69 Sixth Ave,Brooklyn,NY,11217,2550000,5,3.5,Prospect Heights,3060,,,101,833,,Active,,,http://www.redfin.com/NY/Brooklyn/69-6th-Ave-11217/home/169282750,REBNY,HALS19884417,N,Y,40.680494,-73.9743905
MLS Listing,,Condo/Co-op,108 E 82nd St Unit 9A,New York,NY,10028,2695000,3,2,Upper East Side,,,1916,102,,,Active,,,http://www.redfin.com/NY/New-York/108-E-82nd-St-10028/home/169271047,REBNY,CORC5899210,N,Y,40.7771029,-73.958532
MLS Listing,,Multi-Family (2-4 Unit),205 N Henry St,Brooklyn,NY,11222,2600000,8,3.5,Greenpoint,,2000,1910,102,,,Active,,,http://www.redfin.com/NY/Brooklyn/205-N-Henry-St-11222/home/40740689,MLSLI,3169905,N,Y,40.7263611,-73.9438541
MLS Listing,,Condo/Co-op,201 E 66th St Unit 11KL,New York,NY,10021,2750000,4,3.5,Upper East Side,,,1961,102,,,Active,,,http://www.redfin.com/NY/New-York/201-E-66th-St-10065/home/114974039,REBNY,DEGI3978989,N,Y,40.7660538,-73.9629079
MLS Listing,,Condo/Co-op,50 Bridge Park Dr Unit 3C,Brooklyn,NY,11201,2550000,3,3,Brooklyn Heights,1786,,,103,1428,,Active,,,http://www.redfin.com/NY/Unknown/50-Bridge-Park-Dr-11201/home/146522750,REBNY,DEGI3976841,N,Y,40.6928618,-74.0006864
MLS Listing,,Condo/Co-op,122 Greenwich Ave Unit 3A,New York,NY,10011,2595000,1,2,West Village,1285,,2008,105,2019,,Active,,,http://www.redfin.com/NY/New-York/122-Greenwich-Ave-10011/home/169240791,REBNY,STRI431318,N,Y,40.7391928,-74.0024462
MLS Listing,,Condo/Co-op,35 Wooster St Unit 4R,New York,NY,10013,2750000,3,2,Soho,1515,,1900,105,1815,,Active,,,http://www.redfin.com/NY/New-York/35-Wooster-St-10013/home/45242152,REBNY,DEGI3955203,N,Y,40.7224391,-74.0028823
MLS Listing,,Condo/Co-op,33 Rector St #9,New York,NY,10004,2500000,2,2,Lower Manhattan,2170,,1921,105,1152,,Active,,,http://www.redfin.com/NY/New-York/33-Rector-St-10006/home/45315958,REBNY,DEGI3969923,N,Y,40.7083152,-74.0149563
MLS Listing,,Multi-Family (2-4 Unit),47 Herkimer St,Brooklyn,NY,11216,2699000,,,Bedford Stuyvesant,,,,106,,,Active,,,http://www.redfin.com/NY/Brooklyn/47-Herkimer-St-11216/home/40729344,REBNY,DEGI3974137,N,Y,40.6799283,-73.9516159
MLS Listing,,Multi-Family (5+ Unit),41-32 52 St,Woodside,NY,11377,2600000,18,6,Woodside,,5508,1928,108,,,Active,,,http://www.redfin.com/NY/Flushing/41-32-52nd-St-11377/home/20935308,MLSLI,3168351,N,Y,40.744977,-73.912544
MLS Listing,,Multi-Family (2-4 Unit),51-55 Manilla St,Elmhurst,NY,11373,2500000,5,3,Elmhurst,,3000,1955,108,,,Active,,,http://www.redfin.com/NY/Flushing/51-55-Manilla-St-11373/home/20910364,MLSLI,3168276,N,Y,40.735823,-73.883608
MLS Listing,,Condo/Co-op,565 Broadway Unit 5E,New York,NY,10012,2500000,1,2,Soho,,,1859,108,,,Active,,,http://www.redfin.com/NY/New-York/565-Broadway-10012/home/45141060,REBNY,SOTH2771889,N,Y,40.7242389,-73.9981134
MLS Listing,,Condo/Co-op,799 Park Ave Unit 17D,New York,NY,10021,2750000,2,2,Upper East Side,,,1961,108,,,Active,,,http://www.redfin.com/NY/New-York/799-Park-Ave-10021/home/45157131,REBNY,NYPR1851504,N,Y,40.7724943,-73.9624557
MLS Listing,,Single Family Residential,1568 E 5 St,Brooklyn,NY,11230,2699000,4,2.75,Brooklyn,1702,3400,1920,109,1586,,Active,,,http://www.redfin.com/NY/Brooklyn/1568-E-5th-St-11230/home/40837219,BNYMLS,433576,N,Y,40.6124906,-73.9698943
MLS Listing,,Vacant Land,1611-1615 Cedar St,Brooklyn,NY,11230,2699000,,,Brooklyn,,5000,,110,,,Active,,,http://www.redfin.com/NY/Brooklyn/1611-Cedar-St-11230/home/40843801,BNYMLS,433522,N,Y,40.617664,-73.9585871
MLS Listing,,Condo/Co-op,611 W 56th St Unit 5E,New York,NY,10019,2565000,2,2.5,Middle West Side,1131,,2019,111,2268,,Active,,,http://www.redfin.com/NY/New-York/611-W-56th-St-10019/home/169198775,REBNY,UCOM1850826,N,Y,40.7698651,-73.9923494
MLS Listing,,Condo/Co-op,285 Riverside Dr Unit 7C,New York,NY,10025,2595000,3,3,Upper West Side,,,1940,112,,,Active,,,http://www.redfin.com/NY/New-York/285-Riverside-Dr-10025/home/45164181,REBNY,CORC5843123,N,Y,40.7989206,-73.9723967
MLS Listing,,Single Family Residential,110-34 Jewel Ave,Forest Hills,NY,11375,2565000,5,6,Forest Hills,3238,5000,2007,113,792,,Active,,,http://www.redfin.com/NY/Flushing/110-34-Jewel-Ave-11375/home/20913357,MLSLI,3166689,N,Y,40.724447,-73.841254
MLS Listing,,Condo/Co-op,215 W 98th St Unit 10B,New York,NY,10025,2695000,3,3,Upper West Side,,,1910,116,,,Active,,,http://www.redfin.com/NY/New-York/215-W-98th-St-10025/home/140125399,REBNY,HALS19877455,N,Y,40.7958454,-73.9702391
MLS Listing,,Condo/Co-op,168 Plymouth St Unit 3G,Brooklyn,NY,11201,2580000,2,2,Brooklyn,1491,,2019,116,1730,,Active,,,http://www.redfin.com/NY/Brooklyn/168-Plymouth-St-11201/home/169131684,REBNY,SOTH2769504,N,Y,40.7037468,-73.9868722
MLS Listing,,Multi-Family (2-4 Unit),353 58 St,Brooklyn,NY,11220,2500000,24,8,Brooklyn,7560,2672,1906,116,331,,Active,,,http://www.redfin.com/NY/Brooklyn/353-58th-St-11220/home/40694834,BNYMLS,433416,N,Y,40.6426081,-74.0179321
MLS Listing,,Single Family Residential,5-03 Parsons Blvd,Malba,NY,11357,2500000,4,4.5,Malba,3000,5640,2013,117,833,,Active,,,http://www.redfin.com/NY/Whitestone/6-05-Parsons-Blvd-11357/home/169101884,MLSLI,3165533,N,Y,40.7934119,-73.824995
MLS Listing,,Single Family Residential,46-51 241 St,Douglaston,NY,11362,2668000,4,3.5,Douglaston Park,,6000,2014,117,,,Active,,,http://www.redfin.com/NY/Flushing/46-51-241st-St-11362/home/50217306,MLSLI,3165532,N,Y,40.762558,-73.743655
MLS Listing,,Multi-Family (2-4 Unit),68 Devoe St,Brooklyn,NY,11211,2700000,,,Williamsburg,,,,117,,,Active,,,http://www.redfin.com/NY/Brooklyn/68-Devoe-St-11211/home/40742550,REBNY,CORC5881522,N,Y,40.7132025,-73.9487625
MLS Listing,,Condo/Co-op,27 Leonard St #5,New York,NY,10013,2750000,1,2,Tribeca,,,1876,118,,,Active,,,http://www.redfin.com/NY/New-York/27-Leonard-St-10013/home/45312767,REBNY,SOTH2768699,N,Y,40.7186483,-74.0074193
MLS Listing,,Condo/Co-op,152 W 58th St Ph 1,New York,NY,10019,2500000,3,2,Middle West Side,,,1915,118,,,Active,,,http://www.redfin.com/NY/New-York/152-W-58th-St-10019/home/169091478,REBNY,SEEK1849507,N,Y,40.7656333,-73.9786497
MLS Listing,,Condo/Co-op,67 Livingston St #17,Brooklyn,NY,11201,2695000,2,2,Brooklyn Heights,1672,,,118,1612,,Active,,,http://www.redfin.com/NY/Brooklyn/67-Livingston-St-11201/home/169090350,REBNY,DEGI3956920,N,Y,40.6919192,-73.99184
MLS Listing,,Condo/Co-op,75 Kenmare St Unit 5B,New York,NY,10012,2595000,1,1,Noho,923,,2017,118,2811,,Active,,,http://www.redfin.com/NY/New-York/75-Kenmare-St-10012/home/169089819,REBNY,DEGI2626736,N,Y,40.7212473,-73.9962167
MLS Listing,,Condo/Co-op,50 Riverside Blvd Unit 12N,New York,NY,10069,2660000,2,2.5,Upper West Side,1411,,2015,118,1885,,Active,,,http://www.redfin.com/NY/New-York/50-Riverside-Blvd-10069/home/108582500,REBNY,UCOM1290240,N,Y,40.7740589,-73.9909917
MLS Listing,,Condo/Co-op,90 E End Ave Unit 6B,New York,NY,10028,2550000,3,2.5,Upper East Side,,,1998,119,,,Active,,,http://www.redfin.com/NY/New-York/90-E-End-Ave-10028/home/45315315,REBNY,STRI82047,N,Y,40.7735704,-73.9461541
MLS Listing,,Condo/Co-op,25 Central Park W Unit 14K,New York,NY,10023,2695000,1,1,Upper West Side,906,,1931,122,2975,,Active,,,http://www.redfin.com/NY/New-York/25-Central-Park-W-10023/home/45265513,REBNY,SOTH2767444,N,Y,40.7702901,-73.9805456
MLS Listing,,Condo/Co-op,300 E 93rd St Unit 25ABC,New York,NY,10128,2600000,4,3.5,Upper East Side,2100,,1987,122,1238,,Active,,,http://www.redfin.com/NY/New-York/300-E-93rd-St-10128/home/160621643,REBNY,UCOM1827205,N,Y,40.7819235,-73.9483354
MLS Listing,,Condo/Co-op,1 Main St Unit 2H,Brooklyn,NY,11201,2599000,2,2.5,Dumbo,2068,,1915,123,1257,,Active,,,http://www.redfin.com/NY/Brooklyn/1-Main-St-11201/home/40681778,REBNY,SOTH2767137,N,Y,40.7036292,-73.9904097
MLS Listing,,Condo/Co-op,330 E 38th St Unit 43D,New York,NY,10016,2550000,2,2,Murray Hill Kips Bay,1372,,1989,123,1859,,Active,,,http://www.redfin.com/NY/New-York/330-E-38th-St-10016/home/45257697,REBNY,CORC5875799,N,Y,40.746393,-73.9727324
MLS Listing,,Condo/Co-op,39 E 29th St Unit 17E,New York,NY,10016,2750000,3,3,Middle East Side,1695,,2008,123,1622,,Active,,,http://www.redfin.com/NY/New-York/39-E-29th-St-10016/home/45222901,REBNY,RUTE1074083,N,Y,40.7444225,-73.9840414
MLS Listing,,Multi-Family (2-4 Unit),337 Stuyvesant Ave,Brooklyn,NY,11233,2590000,,,Bedford Stuyvesant,3600,,,124,719,,Active,,,http://www.redfin.com/NY/Brooklyn/337-Stuyvesant-Ave-11233/home/40723151,REBNY,UCOM77199,N,Y,40.6827838,-73.9318144
MLS Listing,,Condo/Co-op,105 Eighth Ave #2,Brooklyn,NY,11215,2750000,3,3,Park Slope,2159,,1931,125,1274,,Active,,,http://www.redfin.com/NY/Brooklyn/105-8th-Ave-11215/home/130605980,REBNY,CORC5873117,N,Y,40.6725263,-73.973338
MLS Listing,,Multi-Family (2-4 Unit),4152 Ocean Ave,Brooklyn,NY,11235,2750000,6,2.75,Brooklyn,2760,7000,1940,125,996,,Active,,,http://www.redfin.com/NY/Brooklyn/4152-Ocean-Ave-11235/home/40907918,BNYMLS,433134,N,Y,40.5791121,-73.947945
MLS Listing,,Condo/Co-op,653 Bergen St #1,Brooklyn,NY,11238,2500000,2,2.5,Prospect Heights,2477,,2019,125,1009,,Active,,,http://www.redfin.com/NY/Brooklyn/653-Bergen-St-11238/home/168968283,REBNY,UCOM1848067,N,Y,40.679529,-73.967589
MLS Listing,,Condo/Co-op,230 W 56th St Unit 54E,New York,NY,10019,2600000,2,2,Middle West Side,1172,,2002,125,2218,,Active,,,http://www.redfin.com/NY/New-York/230-W-56th-St-10019/home/45120643,REBNY,BHSR19848360,N,Y,40.7655052,-73.9824474
MLS Listing,,Condo/Co-op,27 W 67th St Unit 1FE,New York,NY,10023,2750000,2,3,Upper West Side,,,1902,125,,,Active,January-13-2020 05:30 PM,January-13-2020 07:00 PM,http://www.redfin.com/NY/New-York/27-W-67th-St-10023/home/45203603,REBNY,CORC5874006,N,Y,40.7734746,-73.9789501
MLS Listing,,Condo/Co-op,505 W 43rd St Unit 11C,New York,NY,10036,2550000,2,2,Middle West Side,1226,,2019,126,2080,,Active,,,http://www.redfin.com/NY/New-York/505-W-43rd-St-10036/home/168960276,REBNY,REUV1846842,N,Y,40.7606309,-73.9955084
MLS Listing,,Condo/Co-op,591 Third Ave Unit PHB,New York,NY,10016,2750000,2,2,Murray Hill Kips Bay,1265,,2018,126,2174,,Active,,,http://www.redfin.com/NY/New-York/591-3rd-Ave-10016/home/144573891,REBNY,UCOM1720804,N,Y,40.7484579,-73.9757418
MLS Listing,,Condo/Co-op,1049 Fifth Ave Unit 4D,New York,NY,10028,2700000,2,2,Upper East Side,1228,,1928,126,2199,,Active,,,http://www.redfin.com/NY/New-York/1049-5th-Ave-10028/home/45290818,REBNY,HALS19846186,N,Y,40.7810879,-73.9598154
MLS Listing,,Condo/Co-op,10 E 68th St #5,New York,NY,10065,2750000,2,2.5,Upper East Side,,,1882,126,,,Active,,,http://www.redfin.com/NY/New-York/10-E-68th-St-10065/home/45325966,REBNY,UCOM1847806,N,Y,40.7695646,-73.9684719
MLS Listing,,Multi-Family (2-4 Unit),10 Monroe St,Brooklyn,NY,11238,2595000,6,4,Clinton Hill,3200,,,129,811,,Active,,,http://www.redfin.com/NY/Brooklyn/10-Monroe-St-11238/home/40732538,REBNY,BHSR19848974,N,Y,40.6843501,-73.9586445
MLS Listing,,Condo/Co-op,55 Central Park W Unit 9G,New York,NY,10023,2575000,2,2,Upper West Side,,,1929,129,,,Active,,,http://www.redfin.com/NY/New-York/55-Central-Park-W-10023/home/45149314,REBNY,BHSR19714554,N,Y,40.7722682,-73.9790623
MLS Listing,,Single Family Residential,1849 East 24 St,Brooklyn,NY,11229,2700000,5,2.75,Brooklyn,2938,5000,2008,129,919,,Active,,,http://www.redfin.com/NY/Brooklyn/1849-E-24th-St-11229/home/40846840,BNYMLS,433040,N,Y,40.6055753,-73.9484502
MLS Listing,,Condo/Co-op,1 York St Unit 5B,New York,NY,10013,2730000,2,2,Tribeca,1530,,2009,130,1784,,Active,,,http://www.redfin.com/NY/New-York/1-York-St-10013/home/45220789,REBNY,UCOM1826694,N,Y,40.7213581,-74.0056207
MLS Listing,,Condo/Co-op,116 W 127th St #2,New York,NY,10027,2597500,3,3.5,West Harlem,,,2018,131,,,Active,,,http://www.redfin.com/NY/New-York/116-W-127th-St-10027/home/147301495,REBNY,ISEN1845971,N,Y,40.809221,-73.945493
MLS Listing,,Condo/Co-op,322 W 57th St Unit 21M,New York,NY,10019,2500000,2,2.5,Middle West Side,1355,,1978,131,1845,,Active,,,http://www.redfin.com/NY/New-York/322-W-57th-St-10019/home/168900497,REBNY,DEGI3939885,N,Y,40.7668083,-73.9840819
MLS Listing,,Multi-Family (2-4 Unit),908 59 St,Brooklyn,NY,11219,2550000,12,4,Brooklyn,3000,2500,,131,850,,Active,,,http://www.redfin.com/NY/Brooklyn/908-59th-St-11219/home/40807577,BNYMLS,432966,N,Y,40.6344315,-74.0066379
MLS Listing,,Condo/Co-op,240 E 47th St Unit 37A,New York,NY,10017,2595000,3,4.5,Middle East Side,2000,,1982,131,1298,,Active,,,http://www.redfin.com/NY/New-York/240-E-47th-St-10017/home/45278649,REBNY,DEGI3939515,N,Y,40.7529103,-73.9704044
MLS Listing,,Condo/Co-op,50 Pine St Unit 2NDFLOOR,New York,NY,10005,2699000,3,3,Financial District,2729,,1902,131,989,,Active,,,http://www.redfin.com/NY/New-York/50-Pine-St-10005/home/168879154,REBNY,BHSR19718435,N,Y,40.7069308,-74.0085978
MLS Listing,,Condo/Co-op,77 Greenwich St Unit 20C,New York,NY,10006,2595000,2,2.5,Financial District,1328,,2020,131,1954,,Active,,,http://www.redfin.com/NY/New-York/77-Greenwich-St-10006/home/168878268,REBNY,TMDI1846263,N,Y,40.7074175,-74.0135328
MLS Listing,,Condo/Co-op,138 E 50th St Unit 21D,New York,NY,10022,2675000,2,2,Middle West Side,1207,,,132,2216,,Active,,,http://www.redfin.com/NY/New-York/138-E-50th-St-10022/home/168869337,REBNY,DEGI3471872,N,Y,40.7560086,-73.9717539
MLS Listing,,Condo/Co-op,201 W 89th St Unit 7A,New York,NY,10024,2595000,3,2,Upper West Side,,,1925,132,,,Active,,,http://www.redfin.com/NY/New-York/201-W-89th-St-10024/home/45171248,REBNY,UCOM1789188,N,Y,40.789852,-73.9739133
MLS Listing,,Condo/Co-op,460 E 79th St Unit 19AF,New York,NY,10021,2695000,3,3,Upper East Side,1946,,1960,132,1385,,Active,,,http://www.redfin.com/NY/New-York/460-E-79th-St-10075/home/168865098,REBNY,DEGI3918668,N,Y,40.7712538,-73.950858
MLS Listing,,Multi-Family (2-4 Unit),381 Jefferson Ave,Brooklyn,NY,11221,2650000,,,Brooklyn,,,,134,,,Active,,,http://www.redfin.com/NY/Brooklyn/381-Jefferson-Ave-11221/home/40728487,REBNY,CORC5875094,N,Y,40.684366,-73.94264
MLS Listing,,Single Family Residential,149-57 Powells Cove Blvd,Whitestone,NY,11357,2550000,4,3.5,Whitestone Woods,2516,6060,1965,137,1014,,Active,,,http://www.redfin.com/NY/Flushing/149-57-Powells-Cove-Blvd-11357/home/20868711,MLSLI,3159852,N,Y,40.800294,-73.819078
MLS Listing,,Condo/Co-op,1080 Fifth Ave Unit 15A,New York,NY,10128,2750000,2,2,Upper East Side,,,1961,138,,,Active,,,http://www.redfin.com/NY/New-York/1080-5th-Ave-10128/home/54560734,REBNY,DEGI3930433,N,Y,40.7834883,-73.9586193
MLS Listing,,Condo/Co-op,435 E 76th St Unit 6A,New York,NY,10021,2649000,2,3,Upper East Side,1658,,1900,139,1598,,Active,,,http://www.redfin.com/NY/New-York/435-E-76th-St-10021/home/45131630,REBNY,DEGI3927055,N,Y,40.7698333,-73.9523286
MLS Listing,,Condo/Co-op,211 Schermerhorn St Unit 14A,Brooklyn,NY,11201,2700000,3,3,Downtown Brooklyn,1820,,2018,144,1484,,Active,,,http://www.redfin.com/NY/Brooklyn/211-Schermerhorn-St-11201/home/168700430,REBNY,CORC5863136,N,Y,40.688986,-73.985399
MLS Listing,,Condo/Co-op,21 E 22nd St Unit 3CD,New York,NY,10010,2695000,3,2,Flatiron,2000,,1910,145,1348,,Active,,,http://www.redfin.com/NY/New-York/21-E-22nd-St-10010/home/168698613,REBNY,DEGI3761936,N,Y,40.7404797,-73.9884715
MLS Listing,,Condo/Co-op,65 E 96th St Unit 10A,New York,NY,10128,2595000,3,3,Upper East Side,1600,,1924,146,1622,,Active,,,http://www.redfin.com/NY/New-York/65-E-96th-St-10128/home/45315182,REBNY,RUTE1839347,N,Y,40.787,-73.9531111
MLS Listing,,Condo/Co-op,91 Leonard St Unit 3G,New York,NY,10013,2570000,2,2.5,Tribeca,1674,,2016,151,1535,,Active,,,http://www.redfin.com/NY/New-York/91-Leonard-St-10013/home/168666534,REBNY,TOLL1432109,N,Y,40.7172231,-74.0045792
MLS Listing,,Multi-Family (5+ Unit),218 Cumberland St,Brooklyn,NY,11205,2700000,20,10,Brooklyn,8800,2200,,152,307,,Active,,,http://www.redfin.com/NY/Brooklyn/218-Cumberland-St-11205/home/40734351,BNYMLS,432502,N,Y,40.689241,-73.973372
MLS Listing,,Condo/Co-op,93 Worth St #402,New York,NY,10013,2595000,2,2.5,Tribeca,1244,,1924,155,2086,,Active,,,http://www.redfin.com/NY/New-York/93-Worth-St-10013/home/105859084,REBNY,SEEK1140333,N,Y,40.7166437,-74.0048728
MLS Listing,,Single Family Residential,108-41 67 Ave,Forest Hills,NY,11375,2699000,5,4.5,Forest Hills,2700,5000,2017,158,1000,,Active,,,http://www.redfin.com/NY/Flushing/108-41-67th-Ave-11375/home/20913127,MLSLI,3154598,N,Y,40.729598,-73.84614
MLS Listing,,Multi-Family (2-4 Unit),246 Avenue U,Brooklyn,NY,11223,2500000,5,4,Brooklyn,6560,4100,1931,159,381,,Active,,,http://www.redfin.com/NY/Unknown/246-Avenue-U-11223/home/145543884,BNYMLS,432338,N,Y,40.5965403,-73.9752224
MLS Listing,,Multi-Family (2-4 Unit),430-432 39 St,Brooklyn,NY,11232,2700000,,,Brooklyn,,5000,,159,,,Active,,,http://www.redfin.com/NY/Brooklyn/430-39th-St-11232/home/40690981,BNYMLS,432340,N,Y,40.651927,-74.005504
MLS Listing,,Condo/Co-op,117 E 57th St Unit 31A,New York,NY,10022,2750000,2,2.5,Middle West Side,1831,,1975,160,1502,,Active,,,http://www.redfin.com/NY/New-York/117-E-57th-St-10022/home/45278302,REBNY,DEGI3900798,N,Y,40.7614678,-73.9698441
MLS Listing,,Single Family Residential,2317 E 63 St,Brooklyn,NY,11234,2700000,3,3.5,Brooklyn,3888,4900,1950,161,694,,Active,,,http://www.redfin.com/NY/Brooklyn/2317-E-63rd-St-11234/home/40905346,BNYMLS,432263,N,Y,40.6126355,-73.909459
MLS Listing,,Condo/Co-op,70 Charlton St Unit 5F,New York,NY,10014,2700000,2,2,Soho,1474,,,165,1832,,Active,,,http://www.redfin.com/NY/New-York/70-Charlton-St-10014/home/139912974,REBNY,EXTE98797,N,Y,40.726998,-74.0063103
MLS Listing,,Multi-Family (2-4 Unit),500 Smith St,Brooklyn,NY,11231,2600000,4,1,Brooklyn,3700,1600,,167,703,,Active,,,http://www.redfin.com/NY/Brooklyn/500-Smith-St-11231/home/162667738,BNYMLS,432109,N,Y,40.6740535,-73.9982685
MLS Listing,,Single Family Residential,162 Beach 149 St,Brooklyn,NY,11694,2550000,3,4,Brooklyn,3000,6000,2019,167,850,,Active,,,http://www.redfin.com/NY/Far-Rockaway/1-62-Beach-149th-St-11694/home/20672533,BNYMLS,432108,N,Y,40.5682843,-73.8632204
MLS Listing,,Multi-Family (2-4 Unit),2845 W 19 St,Brooklyn,NY,11224,2749000,22,11,Brooklyn,9816,4721,1930,168,280,,Active,,,http://www.redfin.com/NY/Brooklyn/2845-W-19th-St-11224/home/40851778,BNYMLS,432082,N,Y,40.5768658,-73.9888711
MLS Listing,,Condo/Co-op,150 E 23rd St Unit 14C,New York,NY,10010,2750000,2,2.5,Gramercy Park,1302,,2019,172,2112,,Active,,,http://www.redfin.com/NY/New-York/150-E-23rd-St-10010/home/167935357,REBNY,CANT1839367,N,Y,40.7389572,-73.9841328
MLS Listing,,Condo/Co-op,46-30 Center Blvd Ph 3,New York,NY,11109,2598000,2,3,New York,1500,,2008,173,1732,,Active,,,http://www.redfin.com/NY/Long-Island-City/4630-Center-Blvd-11109/unit-3/home/28684781,HGMLS,5002076,N,Y,40.7466195,-73.9569605
MLS Listing,,Single Family Residential,649 E 24th St,Brooklyn,NY,11210,2599999,,,Ditmas Park,,,,174,,,Active,,,http://www.redfin.com/NY/Brooklyn/649-E-24th-St-11210/home/40790517,REBNY,CORC5782288,N,Y,40.6347876,-73.9539607
MLS Listing,,Condo/Co-op,46 -30 Center Blvd Ph 3,Queens,NY,11109,2598000,2,3,Long Island City,1500,,2008,174,1732,,Active,,,http://www.redfin.com/NY/Queens/46-30-Center-Blvd-11109/home/115208138,REBNY,UCOM802356,N,Y,40.7449081,-73.9569225
MLS Listing,,Multi-Family (2-4 Unit),1117 Jefferson Ave,Brooklyn,NY,11221,2695000,,,Bushwick,4378,2000,,175,616,,Active,,,http://www.redfin.com/NY/Brooklyn/1117-Jefferson-Ave-11221/home/40749004,REBNY,CORE1423970,N,Y,40.6892106,-73.9156635
MLS Listing,,Condo/Co-op,172 Madison Ave Unit 4A,New York,NY,10016,2650000,2,2.5,Middle East Side,1479,,2016,178,1792,,Active,,,http://www.redfin.com/NY/New-York/172-Madison-Ave-10016/home/139909525,REBNY,KWNY234527,N,Y,40.7474307,-73.9835995
MLS Listing,,Condo/Co-op,265 State St #1002,Brooklyn,NY,11201,2675000,3,3,Boerum Hill,1705,,2016,181,1569,,Active,,,http://www.redfin.com/NY/Brooklyn/265-State-St-11201/home/113613604,REBNY,CORC5831854,N,Y,40.6892122,-73.9882785
MLS Listing,,Condo/Co-op,30 W 63rd St Unit 6L,New York,NY,10023,2700000,2,2,Upper West Side,1262,,1980,181,2139,,Active,,,http://www.redfin.com/NY/New-York/30-W-63rd-St-10023/home/45324376,REBNY,STRI1060081,N,Y,40.7707681,-73.981731
MLS Listing,,Condo/Co-op,30 Sutton Pl Unit 14C,New York,NY,10022,2500000,2,3,Middle East Side,2800,,1928,181,893,,Active,,,http://www.redfin.com/NY/New-York/30-Sutton-Pl-10022/home/167150614,REBNY,STRI1834100,N,Y,40.758376,-73.960317
MLS Listing,,Condo/Co-op,570 Broome St Unit 16B,New York,NY,10013,2650000,2,2.5,Soho,1183,,2018,181,2240,,Active,,,http://www.redfin.com/NY/New-York/570-Broome-St-10013/home/144235132,REBNY,STRI1712597,N,Y,40.7244738,-74.0067021
MLS Listing,,Condo/Co-op,170 E 78th St Unit 8E,New York,NY,10075,2750000,2,2,Upper East Side,,,1928,181,,,Active,,,http://www.redfin.com/NY/New-York/170-E-78th-St-10075/home/167453768,REBNY,STRI159963,N,Y,40.7737439,-73.9586221
MLS Listing,,Condo/Co-op,150 Rivington St Unit 2C,New York,NY,10002,2595000,3,2.5,Lower East Side,1378,,2016,181,1883,,Active,,,http://www.redfin.com/NY/New-York/150-Rivington-St-10002/home/115435758,REBNY,STRI1588236,N,Y,40.7193816,-73.9856457
MLS Listing,,Condo/Co-op,2 Fifth Ave Unit 12M,New York,NY,10011,2595000,3,2,Greenwich Village,,,1951,185,,,Active,,,http://www.redfin.com/NY/New-York/2-5th-Ave-10011/home/45337151,REBNY,HALS19748009,N,Y,40.7322523,-73.9966579
MLS Listing,,Condo/Co-op,100 E 53rd St Unit 26B,New York,NY,10022,2695000,1,1.5,Middle East Side,1375,,2017,185,1960,,Active,,,http://www.redfin.com/NY/New-York/100-E-53rd-St-10022/home/167264494,REBNY,UCOM1836890,N,Y,40.7584502,-73.9713338
MLS Listing,,Condo/Co-op,322 W 57th St Unit 49M,New York,NY,10019,2700000,2,2.5,Middle West Side,1355,,1978,188,1993,,Active,,,http://www.redfin.com/NY/New-York/322-W-57th-St-10019/home/167187138,REBNY,DEGI3860464,N,Y,40.7667888,-73.98419
MLS Listing,,Multi-Family (2-4 Unit),392 Jefferson Ave,Brooklyn,NY,11221,2695000,,,Bedford Stuyvesant,3600,,,188,749,,Active,,,http://www.redfin.com/NY/Brooklyn/392-Jefferson-Ave-11221/home/40728042,REBNY,UCOM31835,N,Y,40.6840278,-73.9422507
MLS Listing,,Condo/Co-op,650 W End Ave Unit 9A,New York,NY,10025,2575000,3,2.5,Upper West Side,1839,,1917,189,1400,,Active,,,http://www.redfin.com/NY/New-York/650-W-End-Ave-10025/home/45314214,REBNY,ASHW1413309,N,Y,40.7924213,-73.974968
MLS Listing,,Vacant Land,1072 Utica Ave,Brooklyn,NY,11203,2500000,,,Brooklyn,,6000,,193,,,Active,,,http://www.redfin.com/NY/Unknown/1072-Utica-Ave-11203/home/113054349,MLSLI,3144348,N,Y,40.6466934,-73.9300921
MLS Listing,,Condo/Co-op,260 Park Ave S Unit 4G,New York,NY,10010,2650000,2,2.5,Flatiron,1340,,1913,195,1978,,Active,,,http://www.redfin.com/NY/New-York/260-Park-Ave-S-10010/home/45136812,REBNY,UCOM157100,N,Y,40.7388862,-73.9877132
MLS Listing,,Condo/Co-op,43 W 64th St Unit 4D,New York,NY,10023,2650000,1,2,Upper West Side,1582,,1898,199,1675,,Active,,,http://www.redfin.com/NY/New-York/43-W-64th-St-10023/home/45129521,REBNY,UCOM725648,N,Y,40.7720342,-73.9814275
MLS Listing,,Single Family Residential,364 Putnam Ave,Brooklyn,NY,11216,2599000,,,Bedford Stuyvesant,,,,200,,,Active,,,http://www.redfin.com/NY/Brooklyn/364-Putnam-Ave-11216/home/40727969,REBNY,DEGI3851827,N,Y,40.684221,-73.946513
MLS Listing,,Condo/Co-op,32 Underhill Ave Unit TH32,Brooklyn,NY,11238,2550000,3,3,Prospect Heights,2700,,2017,201,944,,Active,,,http://www.redfin.com/NY/Brooklyn/32-Underhill-Ave-11238/home/167135102,REBNY,UCOM1833653,N,Y,40.6800323,-73.9650756
MLS Listing,,Townhouse,6819 Ft. Hamilton Pkwy,Brooklyn,NY,11219,2700000,6,2,Dyker Heights,4256,,1931,203,634,,Active,,,http://www.redfin.com/NY/Brooklyn/6819-Fort-Hamilton-Pkwy-11219/home/167129176,SIBORMLS,1130086,N,Y,40.6286833,-74.0117309
MLS Listing,,Condo/Co-op,199 Mott St Unit 4B,New York,NY,10012,2750000,2,2,Soho,1225,,2015,208,2245,,Active,,,http://www.redfin.com/NY/New-York/199-Mott-St-10012/home/108581371,REBNY,UCOM1350431,N,Y,40.7212626,-73.9957928
MLS Listing,,Condo/Co-op,730 Park Ave Unit GFMED,New York,NY,10021,2500000,0,,Upper East Side,1700,,1929,209,1471,,Active,,,http://www.redfin.com/NY/New-York/730-Park-Ave-10021/home/167107624,REBNY,CORC5779668,N,Y,40.7704689,-73.9648588
MLS Listing,,Multi-Family (2-4 Unit),511 Meeker Ave,Brooklyn,NY,11222,2500000,4,2,Brooklyn,2475,3742,,210,1010,,Active,,,http://www.redfin.com/NY/Brooklyn/511-Meeker-Ave-11222/home/40741508,BNYMLS,430900,N,Y,40.7206322,-73.9440508
MLS Listing,,Multi-Family (2-4 Unit),292 Lafayette Ave,Brooklyn,NY,11238,2650000,,,Clinton Hill,,,,213,,,Active,,,http://www.redfin.com/NY/Brooklyn/292-Lafayette-Ave-11238/home/40731013,REBNY,CORC5775328,N,Y,40.68819,-73.963776
MLS Listing,,Condo/Co-op,393 W 49th St Unit 5CC/DD,New York,NY,10019,2700000,3,2,Middle West Side,1600,,1988,213,1688,,Active,,,http://www.redfin.com/NY/New-York/393-W-49th-St-10019/home/167094303,REBNY,UCOM1831266,N,Y,40.7628326,-73.9889523
MLS Listing,,Condo/Co-op,325 E 57th St Unit PHA,New York,NY,10022,2600000,2,2,Middle West Side,1400,,1929,216,1857,,Active,,,http://www.redfin.com/NY/New-York/325-E-57th-St-10022/home/45180686,REBNY,DEGI3825924,N,Y,40.759032,-73.9641087
MLS Listing,,Single Family Residential,102 Madison St,Brooklyn,NY,11216,2500000,,,Bedford Stuyvesant,3005,,,217,832,,Active,,,http://www.redfin.com/NY/Brooklyn/102-Madison-St-11216/home/40732506,REBNY,UCOM76404,N,Y,40.6840389,-73.9550283
MLS Listing,,Condo/Co-op,400 E 67th St Unit 7G,New York,NY,10065,2750000,3,3,Upper East Side,1677,,2005,217,1640,,Active,,,http://www.redfin.com/NY/New-York/400-E-67th-St-10065/home/45226092,REBNY,DEGI3789003,N,Y,40.7643329,-73.9582013
MLS Listing,,Condo/Co-op,127 St James Pl #1,Brooklyn,NY,11238,2500000,3,3,Clinton Hill,3000,,1880,217,833,,Active,,,http://www.redfin.com/NY/Brooklyn/127-St-James-Pl-11238/home/40676575,REBNY,CORC5763069,N,Y,40.685694,-73.9639278
MLS Listing,,Condo/Co-op,50 United Nations Plz Unit 10C,New York,NY,10017,2650000,2,2,Middle East Side,1132,,2016,217,2341,,Active,,,http://www.redfin.com/NY/New-York/50-United-Nations-Plz-10017/home/105885374,REBNY,UCOM1458845,N,Y,40.7517606,-73.9682992
MLS Listing,,Multi-Family (2-4 Unit),816 62 St,Brooklyn,NY,11220,2650000,10,6,Brooklyn,4920,2000,,227,539,,Active,,,http://www.redfin.com/NY/Brooklyn/816-62nd-St-11220/home/40807922,BNYMLS,430448,N,Y,40.633894,-74.010453
MLS Listing,,Single Family Residential,11016 67th Rd,Forest Hills,NY,11375,2589000,4,4.5,Forest Hills,,5000,1950,228,,,Active,,,http://www.redfin.com/NY/Flushing/110-16-67th-Rd-11375/home/20913745,MLSLI,3133587,N,Y,40.7289079,-73.84434
MLS Listing,,Condo/Co-op,257 Central Park W Unit 8C,New York,NY,10024,2650000,2,2,Upper West Side,,,1906,228,,,Active,,,http://www.redfin.com/NY/New-York/257-Central-Park-W-10024/home/45335566,REBNY,UCOM974887,N,Y,40.7851979,-73.9697336
MLS Listing,,Condo/Co-op,80 Riverside Blvd Unit 17F,New York,NY,10069,2565000,2,3,Upper West Side,1472,,2006,229,1743,,Active,,,http://www.redfin.com/NY/New-York/80-Riverside-Blvd-10069/home/45224581,REBNY,CORC5762240,N,Y,40.77508,-73.990303
MLS Listing,,Multi-Family (2-4 Unit),234 Kingsland Ave,Brooklyn,NY,11222,2695000,,,Green Point,,,,230,,,Active,,,http://www.redfin.com/NY/Brooklyn/234-Kingsland-Ave-11222/home/40740991,REBNY,NATR11866,N,Y,40.7247956,-73.9412791
MLS Listing,,Condo/Co-op,480 Park Ave Unit 5E,New York,NY,10022,2695000,2,2.5,Middle West Side,,,1929,232,,,Active,,,http://www.redfin.com/NY/New-York/480-Park-Ave-10022/home/166855820,REBNY,DEGI3804965,N,Y,40.7627259,-73.97066
MLS Listing,,Condo/Co-op,97 Franklin St Unit 5FL,New York,NY,10013,2500000,2,2,Tribeca,,,1915,233,,,Active,,,http://www.redfin.com/NY/New-York/97-Franklin-St-10013/home/166852729,REBNY,CORC5760197,N,Y,40.7181573,-74.0052212
MLS Listing,,Condo/Co-op,1010 Fifth Ave Unit 8C,New York,NY,10028,2500000,1,2,Upper East Side,,,1925,234,,,Active,,,http://www.redfin.com/NY/New-York/1010-5th-Ave-10028/home/59313076,REBNY,DEGI3788598,N,Y,40.779186,-73.9617669
MLS Listing,,Condo/Co-op,142 E 71st St Unit 1A1B,New York,NY,10021,2500000,0,5,Upper East Side,2500,,1938,234,1000,,Active,,,http://www.redfin.com/NY/New-York/142-E-71st-St-10021/home/166836401,REBNY,CORC5757573,N,Y,40.7695113,-73.962547
MLS Listing,,Condo/Co-op,825 Fifth Ave Unit 13B,New York,NY,10065,2550000,2,2,Upper East Side,1250,,1927,234,2040,,Active,,,http://www.redfin.com/NY/New-York/825-5th-Ave-10065/home/166836379,REBNY,CORC5744385,N,Y,40.7670351,-73.970568
MLS Listing,,Condo/Co-op,45 W 67th St Unit 23/24D,New York,NY,10023,2650000,2,2.5,Upper West Side,1566,,1984,234,1692,,Active,,,http://www.redfin.com/NY/New-York/45-W-67th-St-10023/home/166836225,REBNY,DEGI3782629,N,Y,40.7741539,-73.9805813
MLS Listing,,Condo/Co-op,115 Central Park W Unit 7J,New York,NY,10023,2600000,2,2,Upper West Side,,,1932,234,,,Active,,,http://www.redfin.com/NY/New-York/115-Central-Park-W-10023/home/115270404,REBNY,SOTH1177411,N,Y,40.7758882,-73.9764703
MLS Listing,,Condo/Co-op,306 Gold St Unit 40F,Brooklyn,NY,11201,2600000,3,3,Downtown Brooklyn,1647,,2008,234,1579,,Active,,,http://www.redfin.com/NY/Brooklyn/306-Gold-St-11201/home/40674352,REBNY,SPIR701981,N,Y,40.6950751,-73.9835386
MLS Listing,,Condo/Co-op,77 Charlton St Unit S13B,New York,NY,10014,2750000,2,2.5,Soho,1234,,2019,234,2229,,Active,,,http://www.redfin.com/NY/New-York/77-Charlton-St-10014/home/166831599,REBNY,TOLL1157339,N,Y,40.727291,-74.00666
MLS Listing,,Condo/Co-op,27 -28 Thomson Ave #340,Queens,NY,11101,2740000,3,3,Long Island City,2192,,1928,234,1250,,Active,,,http://www.redfin.com/NY/Long-Island-City/27-Thomson-Ave-11101/home/166831423,REBNY,UCOM354406,N,Y,40.7463288,-73.9424209
MLS Listing,,Condo/Co-op,192 Eighth Ave #4,New York,NY,10011,2500000,2,2,Chelsea,1261,,2019,234,1983,,Active,,,http://www.redfin.com/NY/New-York/192-8th-Ave-10011/home/166831187,REBNY,UCOM1824789,N,Y,40.743106,-73.9997908
MLS Listing,,Condo/Co-op,252 Seventh Ave Unit 7W,New York,NY,10001,2700000,1,2,Chelsea,1508,,1910,235,1790,,Active,,,http://www.redfin.com/NY/New-York/252-7th-Ave-10001/home/45314099,REBNY,DEGI3807261,N,Y,40.7452249,-73.9950853
MLS Listing,,Condo/Co-op,144 W 27th St Unit 5R,New York,NY,10001,2750000,4,4,Chelsea,3182,,1938,235,864,,Active,,,http://www.redfin.com/NY/New-York/144-W-27th-St-10001/home/45250607,REBNY,CORC5732679,N,Y,40.7460315,-73.9929493
MLS Listing,,Condo/Co-op,165 E 60th St,New York,NY,10022,2500000,2,2,Upper East Side,,,1890,235,,,Active,,,http://www.redfin.com/NY/New-York/165-E-60th-St-10065/home/45156785,REBNY,DEGI3782434,N,Y,40.762566,-73.9667017
MLS Listing,,Condo/Co-op,543 W 122nd St Unit 27B,New York,NY,10027,2700000,2,2.5,Morningside Heights,1460,,2019,235,1849,,Active,,,http://www.redfin.com/NY/New-York/543-W-122nd-St-10027/home/166812650,REBNY,HALS19383481,N,Y,40.8114727,-73.9602154
MLS Listing,,Condo/Co-op,16 E 23rd St,New York,NY,10010,2695000,3,2,Flatiron,,,,245,,,Active,,,http://www.redfin.com/NY/New-York/16-E-23rd-St-10010/home/45251312,REBNY,DEGI3780742,N,Y,40.7407465,-73.9883108
MLS Listing,,Condo/Co-op,252 South St Unit 50K,New York,NY,10002,2617000,2,2,Chinatown,1123,,,246,2330,,Active,,,http://www.redfin.com/NY/New-York/252-South-St-10002/home/166486741,REBNY,EXTE91187,N,Y,40.7110409,-73.9911744
MLS Listing,,Condo/Co-op,450 W 17th St #2403,New York,NY,10011,2595000,2,2,Chelsea,1038,,2008,246,2500,,Active,,,http://www.redfin.com/NY/New-York/450-W-17th-St-10011/home/45222065,REBNY,CORC5731117,N,Y,40.7434891,-74.0063862
MLS Listing,,Condo/Co-op,49 Chambers St Unit 9H,New York,NY,10007,2500000,2,2,Tribeca,1459,,1910,246,1714,,Active,,,http://www.redfin.com/NY/New-York/49-Chambers-St-10007/home/144973041,REBNY,DEGI3550213,N,Y,40.7137715,-74.0050642
MLS Listing,,Single Family Residential,316 W 245th St,Bronx,NY,10471,2500000,5,6,Riverdale,3000,14344,1920,257,833,,Active,,,http://www.redfin.com/NY/The-Bronx/316-W-245th-St-10471/home/44799029,HGMLS,4927362,N,Y,40.8919439,-73.9024809
MLS Listing,,Multi-Family (2-4 Unit),146 Jefferson Ave,Brooklyn,NY,11216,2700000,16,8,Brooklyn,,2000,1900,259,,,Active,,,http://www.redfin.com/NY/Brooklyn/146-Jefferson-Ave-11216/home/40728292,MLSLI,3123618,N,Y,40.682829,-73.951727
MLS Listing,,Condo/Co-op,119 N 11th St Unit 3D,Brooklyn,NY,11211,2550000,3,3,Williamsburg,1920,,1900,263,1328,,Active,,,http://www.redfin.com/NY/Brooklyn/119-N-11th-St-11249/home/163789735,REBNY,CORC5722618,N,Y,40.720748,-73.9562222
MLS Listing,,Multi-Family (2-4 Unit),101 Halsey St,Brooklyn,NY,11216,2595000,,,Brooklyn,,,,264,,,Active,,,http://www.redfin.com/NY/Brooklyn/101-Halsey-St-11216/home/40728897,REBNY,CORC5721513,N,Y,40.6820553,-73.9495568
MLS Listing,,Multi-Family (2-4 Unit),668 Metropolitan Ave,Brooklyn,NY,11211,2650000,,,Williamsburg,,,,264,,,Active,,,http://www.redfin.com/NY/Brooklyn/668-Metropolitan-Ave-11211/home/40742415,REBNY,CORC5689041,N,Y,40.7141441,-73.9467416
MLS Listing,,Condo/Co-op,1 Central Park S #508,New York,NY,10019,2750000,1,1,Middle West Side,,,1907,265,,,Active,,,http://www.redfin.com/NY/New-York/1-Central-Park-S-10019/home/163373147,REBNY,DEGI3766993,N,Y,40.7646455,-73.974393
MLS Listing,,Condo/Co-op,73 Worth St Unit 3D,New York,NY,10013,2750000,2,2,Tribeca,1859,,1920,267,1479,,Active,,,http://www.redfin.com/NY/New-York/73-Worth-St-10013/home/163215561,REBNY,UCOM82140,N,Y,40.7169683,-74.0057338
MLS Listing,,Multi-Family (2-4 Unit),553 Clinton St,Brooklyn,NY,11231,2650000,,,Carroll Gardens,4610,,,269,575,,Active,,,http://www.redfin.com/NY/Brooklyn/553-Clinton-St-11231/home/40686559,REBNY,UCOM75764,N,Y,40.6766587,-74.0007193
MLS Listing,,Multi-Family (2-4 Unit),1385 Pacific St,Brooklyn,NY,11216,2650000,,,Crown Heights,,,,272,,,Active,,,http://www.redfin.com/NY/Brooklyn/1385-Pacific-St-11216/home/40707293,REBNY,CORC5723475,N,Y,40.677668,-73.946046
MLS Listing,,Multi-Family (2-4 Unit),471 Lexington Ave,Brooklyn,NY,11221,2650000,,7,Brooklyn,,2000,,272,,,Active,,,http://www.redfin.com/NY/Brooklyn/471-Lexington-Ave-11221/home/40726159,BNYMLS,429081,N,Y,40.688783,-73.943237
MLS Listing,,Multi-Family (2-4 Unit),314 19th St,Brooklyn,NY,11232,2700000,,,Greenwood,,,,272,,,Active,,,http://www.redfin.com/NY/Brooklyn/314-19th-St-11215/home/40696476,REBNY,CORC5721540,N,Y,40.6606266,-73.9896488
MLS Listing,,Condo/Co-op,160 E 22nd St Unit 19C,New York,NY,10010,2750000,2,2,Gramercy Park,1289,,2014,276,2133,,Active,,,http://www.redfin.com/NY/New-York/160-E-22nd-St-10010/home/63690672,REBNY,UCOM1817171,N,Y,40.738135,-73.9839671
MLS Listing,,Condo/Co-op,147 Hope St Ph 5A,Brooklyn,NY,11211,2500000,3,3,Williamsburg,1754,,2018,277,1425,,Active,,,http://www.redfin.com/NY/Brooklyn/147-Hope-St-11211/home/161537649,REBNY,CORC5573228,N,Y,40.7119605,-73.9523403
MLS Listing,,Condo/Co-op,124 S 2nd St,Brooklyn,NY,11249,2500000,4,3.5,Williamsburg,2200,,1910,277,1136,,Active,,,http://www.redfin.com/NY/Brooklyn/124-S-2nd-St-11249/home/40737933,REBNY,VERU1816989,N,Y,40.7133742,-73.962823
MLS Listing,,Condo/Co-op,188 E 64th St #1906,New York,NY,10021,2550000,2,2.5,Upper East Side,1380,,1987,277,1848,,Active,,,http://www.redfin.com/NY/New-York/188-E-64th-St-10065/home/45284498,REBNY,DEGI3752568,N,Y,40.7645034,-73.9648503
MLS Listing,,Multi-Family (2-4 Unit),96-06 Northern Blvd,Corona,NY,11368,2500000,7,2,Corona,,2300,1930,279,,,Active,,,http://www.redfin.com/NY/Corona/96-6-Northern-Blvd-11368/home/161416271,MLSLI,3117440,N,Y,40.7567625,-73.8718608
MLS Listing,,Condo/Co-op,39 W 67th St #401301402,New York,NY,10023,2750000,3,2.5,Upper West Side,2050,,1906,283,1341,,Active,,,http://www.redfin.com/NY/New-York/39-W-67th-St-10023/home/161128745,REBNY,DEGI3739748,N,Y,40.7740931,-73.9802252
MLS Listing,,Condo/Co-op,121 W 19th St Unit 3B,New York,NY,10011,2695000,3,2,Chelsea,1920,,1903,284,1404,,Active,,,http://www.redfin.com/NY/New-York/121-W-19th-St-10011/home/45189730,REBNY,DEGI3738787,N,Y,40.741057,-73.9955827
MLS Listing,,Condo/Co-op,950 Park Ave #1,New York,NY,10028,2500000,0,4,Upper East Side,2300,,1921,285,1087,,Active,,,http://www.redfin.com/NY/New-York/950-Park-Ave-10028/home/45334381,REBNY,CORC5715749,N,Y,40.7775996,-73.9595628
MLS Listing,,Condo/Co-op,404 E 79th St Unit 22FG,New York,NY,10075,2520000,3,3,Upper East Side,1800,,1985,285,1400,,Active,,,http://www.redfin.com/NY/New-York/404-E-79th-St-10075/home/161028157,REBNY,CORC5715316,N,Y,40.7719586,-73.952317
MLS Listing,,Condo/Co-op,100 United Nations Plz Unit 25EF,New York,NY,10017,2500000,3,2.5,Middle East Side,2001,,1986,287,1249,,Active,,,http://www.redfin.com/NY/New-York/100-United-Nations-Plz-10017/home/160939299,REBNY,REDA1814032,N,Y,40.753132,-73.9678051
MLS Listing,,Condo/Co-op,5 Beekman St Unit 22A,New York,NY,10038,2745000,2,2.5,Lower Manhattan,1625,,2015,287,1689,,Active,,,http://www.redfin.com/NY/New-York/5-Beekman-St-10038/home/114610485,REBNY,DEGI3737358,N,Y,40.7111978,-74.0068856
MLS Listing,,Multi-Family (2-4 Unit),38-04 150th St,Flushing,NY,11354,2680000,4,2.5,Flushing,,4750,1910,289,,,Active,,,http://www.redfin.com/NY/Flushing/38-04-150th-St-11354/home/20855582,MLSLI,3114022,N,Y,40.764596,-73.81515
MLS Listing,,Condo/Co-op,493 10th St Unit TWHSE,Brooklyn,NY,11215,2695000,4,3,Park Slope,2550,,,300,1057,,Active,,,http://www.redfin.com/NY/Brooklyn/493-10th-St-11215/home/160705739,REBNY,IPGL1984,N,Y,40.6670398,-73.983221
MLS Listing,,Condo/Co-op,959 First Ave Unit 10D,New York,NY,10022,2695000,2,2.5,Middle East Side,1367,,2016,303,1971,,Active,,,http://www.redfin.com/NY/New-York/959-1st-Ave-10022/home/115021397,REBNY,DEGI2085313,N,Y,40.7557059,-73.9652383
MLS Listing,,Condo/Co-op,258 Broadway Unit 7E,New York,NY,10007,2598000,3,2,Tribeca,2000,,1915,304,1299,,Active,,,http://www.redfin.com/NY/New-York/258-Broadway-10007/home/45139758,REBNY,CORC5694875,N,Y,40.7137377,-74.0073854
MLS Listing,,Single Family Residential,4115 Quentin Rd,Brooklyn,NY,11234,2500000,,,Marine Park,5600,,,311,446,,Active,,,http://www.redfin.com/NY/Brooklyn/4115-Quentin-Rd-11234/home/40881477,REBNY,UCOM74929,N,Y,40.6174254,-73.9329052
MLS Listing,,Condo/Co-op,21 W 20th St #6,New York,NY,10011,2650000,2,2,Flatiron,1302,,2014,313,2035,,Active,,,http://www.redfin.com/NY/New-York/21-W-20th-St-10011/home/108581474,REBNY,UCOM1359814,N,Y,40.7405139,-73.9923802
MLS Listing,,Condo/Co-op,401 E 60th St Unit 37B,New York,NY,10022,2500000,3,3,Upper East Side,1560,,2000,317,1603,,Active,,,http://www.redfin.com/NY/New-York/401-E-60th-St-10022/home/45315386,REBNY,DEGI3701395,N,Y,40.7603548,-73.9609971
MLS Listing,,Condo/Co-op,380 W 12th St Unit 4G,New York,NY,10014,2750000,2,2,West Village,1850,,1898,321,1486,,Active,,,http://www.redfin.com/NY/New-York/380-W-12th-St-10014/home/45143901,REBNY,DEGI3693359,N,Y,40.7374333,-74.0088274
MLS Listing,,Condo/Co-op,645 W End Ave Unit 5A,New York,NY,10025,2595000,4,3,Upper West Side,,,1913,321,,,Active,,,http://www.redfin.com/NY/New-York/645-W-End-Ave-10025/home/160539604,REBNY,DEGI3693236,N,Y,40.7926408,-73.9754271
MLS Listing,,Single Family Residential,208 Dover St,Brooklyn,NY,11235,2650000,5,5,Brooklyn,3600,4000,2008,321,736,,Active,,,http://www.redfin.com/NY/Brooklyn/208-Dover-St-11235/home/40642962,BNYMLS,427544,N,Y,40.5769147,-73.9493686
MLS Listing,,Condo/Co-op,145 President St Unit 3C,Brooklyn,NY,11231,2625000,3,2.5,Carroll Gardens,1796,,2018,335,1462,,Active,,,http://www.redfin.com/NY/Unknown/145-President-St-11231/home/143813841,REBNY,SEEK1805101,N,Y,40.6832183,-74.0010209
MLS Listing,,Condo/Co-op,300 E 23rd St Unit 17B,New York,NY,10010,2500000,3,2.5,Gramercy Park,1491,,2010,341,1677,,Active,,,http://www.redfin.com/NY/New-York/300-E-23rd-St-10010/home/45340010,REBNY,HALS19371253,N,Y,40.7375213,-73.980868
MLS Listing,,Condo/Co-op,1050 Park Ave Unit 10A,New York,NY,10128,2650000,2,2.5,Upper East Side,2200,,1923,367,1205,,Active,,,http://www.redfin.com/NY/New-York/1050-Park-Ave-10028/home/148705042,REBNY,UCOM1796366,N,Y,40.7808925,-73.957221
MLS Listing,,Single Family Residential,44 -46 Decatur St,Brooklyn,NY,11216,2600000,,,Brooklyn,4504,,,406,577,,Active,,,http://www.redfin.com/NY/Unknown/44-Decatur-St-11216/home/147151839,REBNY,BEDF81819,N,Y,40.6803544,-73.9416192
MLS Listing,,Condo/Co-op,35 E 75th St Unit 10B,New York,NY,10021,2595000,2,2,Upper East Side,,,1959,406,,,Active,,,http://www.redfin.com/NY/New-York/35-E-75th-St-10021/home/145245865,REBNY,DEGI3571959,N,Y,40.7737134,-73.9636473
MLS Listing,,Condo/Co-op,169 E 78th St Unit 1D,New York,NY,10021,2600000,2,2,Upper East Side,,,1928,409,,,Active,,,http://www.redfin.com/NY/New-York/169-E-78th-St-10075/home/45182534,REBNY,BHSR19249315,N,Y,40.7741027,-73.9584378
MLS Listing,,Multi-Family (2-4 Unit),1217 70 St,Brooklyn,NY,11228,2750000,11,6.5,Brooklyn,,4000,,416,,,Active,,,http://www.redfin.com/NY/Brooklyn/1217-70th-St-11228/home/40821396,BNYMLS,425388,N,Y,40.624316,-74.005976
MLS Listing,,Condo/Co-op,160 E 22nd St Unit 11E,New York,NY,10010,2749000,3,2,Gramercy Park,1540,,2014,430,1785,,Active,,,http://www.redfin.com/NY/New-York/160-E-22nd-St-10010/home/63689859,REBNY,KWNY223829,N,Y,40.738135,-73.9839671
MLS Listing,,Condo/Co-op,40 W -42 17th St Unit 9A,,NY,10011,2650000,3,2,,1500,,1910,430,1767,,Active,,,http://www.redfin.com/NY/New-York/55-W-17th-St-10011/home/167327802,REBNY,UCOM130606,N,Y,40.7391649,-73.9947465
MLS Listing,,Condo/Co-op,721 Fifth Ave Unit 33E,New York,NY,10022,2600000,1,1.5,Middle East Side,1115,,1983,430,2332,,Active,,,http://www.redfin.com/NY/New-York/721-5th-Ave-10022/home/45277495,REBNY,DOMU186136,N,Y,40.762394,-73.9739039
MLS Listing,,Condo/Co-op,11 Hoyt St Unit 35G,Brooklyn,NY,11201,2545000,3,2,Downtown Brooklyn,1410,,,430,1805,,Active,January-15-2020 12:00 PM,January-15-2020 03:00 PM,http://www.redfin.com/NY/Unknown/11-Hoyt-St-11201/home/148048334,REBNY,CORC5586562,N,Y,40.6899456,-73.9850466
MLS Listing,,Condo/Co-op,390 W End Ave Unit 2KS,New York,NY,10024,2500000,2,2,Upper West Side,1454,,1908,434,1719,,Active,,,http://www.redfin.com/NY/New-York/390-W-End-Ave-10024/home/117730778,REBNY,BHSR19173986,N,Y,40.7838965,-73.9811668
MLS Listing,,Single Family Residential,7407 Fifth Ave,Brooklyn,NY,11209,2699000,,,Bay Ridge,6000,,,448,450,,Active,,,http://www.redfin.com/NY/Brooklyn/7407-5th-Ave-11209/home/40814446,REBNY,RELI77727,N,Y,40.6299355,-74.0222209
MLS Listing,,Single Family Residential,4 St James Pl,Staten Island,NY,10304,2649999,4,5,Todt Hill,5794,11718,2008,458,457,,Active,,,http://www.redfin.com/NY/Staten-Island/4-St-James-Pl-10304/home/56086459,SIBORMLS,1123406,N,Y,40.5965761,-74.1060564
MLS Listing,,Condo/Co-op,200 W End Ave Unit 19A,New York,NY,10023,2750000,2,2.5,Upper West Side,1486,,2006,461,1851,,Active,,,http://www.redfin.com/NY/New-York/200-W-End-Ave-10023/home/45223713,REBNY,HALS19078374,N,Y,40.7779612,-73.9854593
MLS Listing,,Condo/Co-op,125 Greenwich St Unit 19E,New York,NY,10006,2739900,2,2.5,Lower Manhattan,1270,,2017,466,2157,,Active,,,http://www.redfin.com/NY/New-York/125-Greenwich-St-10013/home/147406029,REBNY,DEGI2836637,N,Y,40.7091812,-74.0128162
MLS Listing,,Condo/Co-op,426 W Broadway Ph 6F,New York,NY,10012,2750000,2,2,Soho,1350,,1880,466,2037,,Active,,,http://www.redfin.com/NY/New-York/426-W-Broadway-10012/home/45242950,REBNY,ROYS1000,N,Y,40.7253847,-74.0016002
MLS Listing,,Condo/Co-op,175 E 62nd St Unit 20C,New York,NY,10065,2595000,3,3.5,Upper East Side,,,1960,472,,,Active,,,http://www.redfin.com/NY/New-York/175-E-62nd-St-10065/home/53324593,REBNY,UCOM973774,N,Y,40.7636632,-73.9655082
MLS Listing,,Condo/Co-op,200 E 59th St Unit 15C,New York,NY,10022,2500000,1,1.5,Middle West Side,1208,,,472,2070,,Active,,,http://www.redfin.com/NY/New-York/200-E-59th-St-10022/home/115660099,REBNY,DEGI3497267,N,Y,40.7613257,-73.9663398
MLS Listing,,Multi-Family (2-4 Unit),94-31 120 St,Richmond Hill,NY,11419,2600000,6,2,Richmond Hill,,4306,1910,482,,,Active,,,http://www.redfin.com/NY/Jamaica/94-31-120th-St-11419/home/20773542,MLSLI,3066176,N,Y,40.693451,-73.826164
MLS Listing,,Condo/Co-op,91 Leonard St Unit 5G,New York,NY,10013,2650000,2,2.5,Tribeca,1674,,2016,543,1583,,Active,,,http://www.redfin.com/NY/New-York/91-Leonard-St-10013/home/144919542,REBNY,TOLL341033,N,Y,40.7172231,-74.0045792
MLS Listing,,Single Family Residential,645 W 252nd St,Bronx,NY,10471,2650000,5,5.5,Riverdale,4836,16099,1930,598,548,,Active,,,http://www.redfin.com/NY/The-Bronx/645-W-252nd-St-10471/home/44762882,HGMLS,4823986,N,Y,40.9001744,-73.9103776
MLS Listing,,Single Family Residential,767 Grand St,Brooklyn,NY,11211,2650000,1,1,Brooklyn,155155,2015,1925,707,17,,Active,,,http://www.redfin.com/NY/Unknown/767-Grand-St-11211/home/112396681,BNYMLS,417634,N,Y,40.7118969,-73.9425022
MLS Listing,,Single Family Residential,4930 Goodridge Ave,Bronx,NY,10471,2690000,5,5,Riverdale,4800,19654,1910,720,560,,Active,,,http://www.redfin.com/NY/The-Bronx/4930-Goodridge-Ave-10471/home/44761339,HGMLS,4802791,N,Y,40.896407,-73.903626
For-Sale-by-Owner Listing,,Multi-Family (2-4 Unit),21-71 36th St,Long Island City,NY,11105,2599000,5,5,Long Island City,2600,,1930,38,1000,,Active,,,http://www.redfin.com/NY/Long-Island-City/21-71-36th-St-11105/home/20947182,Fizber.com,5038931,N,Y,40.774498,-73.907602
New Construction Home,,Condo/Co-op,91 Leonard Unit 4g,New York,NY,10013,2620000,2,2.5,91 Leonard,1674,,2019,68,1565,,Active,,,http://www.redfin.com/NY/New-York/91-Leonard-St-10013/unit-4g/home/169663163,NewHomeSource.com,1758373,N,Y,40.7175485,-74.0051254
New Construction Home,,Condo/Co-op,77 Charlton Unit s13b,New York,NY,10013,2750000,2,2.5,77 Charlton,1234,,2019,241,2229,,Active,,,http://www.redfin.com/NY/New-York/155-6th-Ave-10013/unit-s13b/home/166730146,NewHomeSource.com,1634336,N,Y,40.725395,-74.0048036
New Construction Home,,Condo/Co-op,121 E 22nd Unit n301,New York,NY,10010,2600000,2,2.5,121 East 22nd,1349,,2018,649,1927,,Active,,,http://www.redfin.com/NY/New-York/121-E-22nd-St-10010/unit-N301/home/145248464,NewHomeSource.com,1436109,N,Y,40.7391216,-73.985647
New Construction Home,,Condo/Co-op,91 Leonard Unit 6c,New York,NY,10013,2630000,2,2.5,91 Leonard,1513,,2017,801,1738,,Active,,,http://www.redfin.com/NY/New-York/91-Leonard-St-10013/unit-6C/home/144148043,NewHomeSource.com,1386777,N,Y,40.7172231,-74.0045792
Local rules require that we limit downloads to 250 results from REBNY.,,,,,,,,,,,,,,,,,,,,,,,,,,
