SALE TYPE,SOLD DATE,PROPERTY TYPE,ADDRESS,CITY,STATE OR PROVINCE,ZIP OR POSTAL CODE,PRICE,BEDS,BATHS,LOCATION,SQUARE FEET,LOT SIZE,YEAR BUILT,DAYS ON MARKET,$/SQUARE FEET,HOA/MONTH,STATUS,NEXT OPEN HOUSE START TIME,NEXT OPEN HOUSE END TIME,URL (SEE http://www.redfin.com/buy-a-home/comparative-market-analysis FOR INFO ON PRICING),SOURCE,MLS#,FAVORITE,INTERESTED,LATITUDE,LONGITUDE
MLS Listing,,Condo/Co-op,213-06 75th Ave Unit 3N,Bayside,NY,11364,248888,1,1,Windsor Park,,,1955,1,,,Active,,,http://www.redfin.com/NY/Flushing/213-06-75th-Ave-11364/unit-3N/home/25707019,MLSLI,3190231,N,Y,40.7380641,-73.758538
MLS Listing,,Condo/Co-op,225-33 Hillside Ave Unit A,Queens Village,NY,11427,249999,2,1,Bell Park Manor Terrace,,,1938,1,,,Active,,,http://www.redfin.com/NY/Queens-Village/22533-Hillside-Ave-11427/unit-A/home/169253329,MLSLI,3190198,N,Y,40.7317935,-73.7417008
MLS Listing,,Vacant Land,57-01 39 Ave,Woodside,NY,11377,239000,,,Woodside,,450,,1,,,Active,,,http://www.redfin.com/NY/Woodside/5701-39th-Ave-11377/home/146688789,MLSLI,3189984,N,Y,40.748205,-73.906059
MLS Listing,,Condo/Co-op,84-20 153rd Ave Unit 2J,Howard Beach,NY,11414,229000,1,1,Cumberland,,,1960,1,,,Active,,,http://www.redfin.com/NY/Howard-Beach/84-20-153rd-Ave-11414/unit-2J/home/20644697,MLSLI,3189944,N,Y,40.6662441,-73.8489373
MLS Listing,,Condo/Co-op,43-42 45th St Unit 2R,Sunnyside,NY,11104,249000,0,1,The Playmouth,,,1936,2,,,Active,,,http://www.redfin.com/NY/Sunnyside/43-42-45th-St-11104/unit-2R/home/105429895,MLSLI,3189758,N,Y,40.7437578,-73.9197804
MLS Listing,,Condo/Co-op,40-40 203 St Unit 3B,Bayside,NY,11361,229998,0,1,Norther Blvd & 203 St,500,,1932,2,460,,Active,January-11-2020 03:00 PM,January-11-2020 04:00 PM,http://www.redfin.com/NY/Bayside/40-40-203rd-St-11361/unit-3B/home/170219332,MLSLI,3189718,N,Y,40.7604229,-73.7816441
MLS Listing,,Condo/Co-op,77-03 Commonwealth Blvd Unit 3F161,Bellerose,NY,11426,239900,1,1,Glen Oaks Village,599,,1947,2,401,,Active,January-11-2020 11:00 AM,January-11-2020 01:00 PM,http://www.redfin.com/NY/Jamaica/82-03-Commonwealth-Blvd-11426/unit-3F161/home/170218029,MLSLI,3189651,N,Y,40.7381481,-73.7230648
MLS Listing,,Condo/Co-op,333 Bronx River Rd #506,Yonkers,NY,10704,230000,2,1,Yonkers,950,,1966,2,242,,Active,,,http://www.redfin.com/NY/Yonkers/333-Bronx-River-Rd-10704/unit-506/home/28630472,HGMLS,6001808,N,Y,40.9112066,-73.8538685
MLS Listing,,Condo/Co-op,892 Armstrong Ave,Staten Island,NY,10308,240000,1,1,Great Kills,540,540,1972,2,444,250,Active,,,http://www.redfin.com/NY/Staten-Island/892-Armstrong-Ave-10308/unit-B3/home/56138582,SIBORMLS,1134617,N,Y,40.5565172,-74.1627222
MLS Listing,,Condo/Co-op,153-25 88 St Unit 6K,Howard Beach,NY,11414,247000,2,2,Ardsley,,,1965,2,,,Active,,,http://www.redfin.com/NY/Howard-Beach/153-25-88th-St-11414/unit-6K/home/21454783,MLSLI,3189457,N,Y,40.6661012,-73.8471882
MLS Listing,,Condo/Co-op,Unit at 336 101st St,Brooklyn,NY,11209,238000,0,1,Bay Ridge,,,,3,,,Active,,,http://www.redfin.com/NY/Brooklyn/336-101st-St-11209/home/40652278,REBNY,FSRN107223,N,Y,40.612561,-74.0347496
MLS Listing,,Condo/Co-op,114-20 Queens Blvd Unit D3,Forest Hills,NY,11375,228000,0,1,Romney Hall,,,1940,3,,,Active,,,http://www.redfin.com/NY/Forest-Hills/11420-Queens-Blvd-11375/unit-D3/home/144211395,MLSLI,3189358,N,Y,40.7171699,-73.83495
MLS Listing,,Condo/Co-op,Unit at 9902 Third Ave,Brooklyn,NY,11209,250000,0,1,Bay Ridge,,,,4,,,Active,,,http://www.redfin.com/NY/Brooklyn/9902-3rd-Ave-11209/home/145508110,REBNY,CORC5950087,N,Y,40.6141658,-74.0353827
MLS Listing,,Condo/Co-op,89-15 Parsons Blvd,Jamaica Hills,NY,11432,249900,2,1,Jamaica Towers,,,1970,4,,,Active,,,http://www.redfin.com/NY/Jamaica/89-15-Parsons-Blvd-11432/home/20765977,MLSLI,3189304,N,Y,40.7055595,-73.8012395
MLS Listing,,Condo/Co-op,1170 Ocean Pkwy Unit PHF,Brooklyn,NY,11230,249000,1,1,Brooklyn,800,,1965,5,311,,Active,January-12-2020 01:00 PM,January-12-2020 03:00 PM,http://www.redfin.com/NY/Brooklyn/1170-Ocean-Pkwy-11230/unit-PHF/home/40906701,BNYMLS,435659,N,Y,40.6200947,-73.970242
MLS Listing,,Condo/Co-op,2251 Knapp St Unit 1E,Brooklyn,NY,11229,230000,2,1,Brooklyn,850,,,5,271,,Active,,,http://www.redfin.com/NY/Brooklyn/2251-Knapp-St-11229/unit-1E/home/40674106,BNYMLS,435657,N,Y,40.598354,-73.9335111
MLS Listing,,Condo/Co-op,Unit at 676 St Nicholas Ave,New York,NY,10030,225000,2,1,Harlem,,,,6,,,Active,,,http://www.redfin.com/NY/New-York/676-Saint-Nicholas-Ave-10030/home/170195292,REBNY,CORC5957416,N,Y,40.8231348,-73.9449168
MLS Listing,,Condo/Co-op,87-10 51 Ave Unit 4N,Elmhurst,NY,11373,245000,0,1,The Continental,500,,1960,6,490,,Active,,,http://www.redfin.com/NY/Flushing/87-10-51st-Ave-11373/unit-4N/home/20637226,MLSLI,3188672,N,Y,40.7385497,-73.8759989
MLS Listing,,Condo/Co-op,123-40 83 Ave Unit 3C,Kew Gardens,NY,11415,229000,1,1,Park Chateau,,,1960,6,,,Active,,,http://www.redfin.com/NY/Kew-Gardens/123-40-83rd-Ave-11415/unit-3C/home/170213252,MLSLI,3188669,N,Y,40.7112411,-73.826808
MLS Listing,,Condo/Co-op,84-50 169th St #606,Jamaica,NY,11432,249000,2,1,Gothic Tenants Corp,,,1955,6,,,Active,,,http://www.redfin.com/NY/Jamaica/84-50-169th-St-11432/unit-606/home/20640444,MLSLI,3188579,N,Y,40.7147444,-73.7955162
MLS Listing,,Condo/Co-op,3901 Independence Ave Unit 3R,Bronx,NY,10463,250000,2,2,Riverdale,1350,,1950,7,185,,Active,,,http://www.redfin.com/NY/The-Bronx/3901-Independence-Ave-10463/unit-3R/home/170193024,HGMLS,5126423,N,Y,40.8901468,-73.9133401
MLS Listing,,Condo/Co-op,2260 Burnett St Unit 1C,Brooklyn,NY,11229,229000,2,1,Brooklyn,900,,,8,254,,Active,,,http://www.redfin.com/NY/Brooklyn/2260-Burnett-St-11229/unit-1C/home/170185448,BNYMLS,435503,N,Y,40.6014996,-73.9324298
MLS Listing,,Condo/Co-op,16-04 212 St #279,Bayside,NY,11360,249000,1,1,Bay Terrace,,,1958,9,,,Active,,,http://www.redfin.com/NY/Bayside/1604-212th-St-11360/unit-279/home/170176430,MLSLI,3188209,N,Y,40.7838199,-73.78072
MLS Listing,,Condo/Co-op,246 Cornelia St,Brooklyn,NY,11221,225000,1,1,Llc Holdings,,,1950,11,,,Active,,,http://www.redfin.com/NY/Brooklyn/246-Cornelia-St-11221/unit-D7/home/21452696,MLSLI,3187967,N,Y,40.6933281,-73.912077
MLS Listing,,Condo/Co-op,105-37 64 Ave Unit 1C,Forest Hills,NY,11375,225000,0,1,Aero Owners Inc.,,,1950,12,,,Active,,,http://www.redfin.com/NY/Forest-Hills/105-37-64th-Ave-11375/unit-1C/home/160358009,MLSLI,3187781,N,Y,40.733035,-73.8504522
MLS Listing,,Condo/Co-op,83-85 Woodhaven Blvd Unit 1F,Woodhaven,NY,11421,245000,1,1,Forest Park,,,1955,13,,,Active,,,http://www.redfin.com/NY/Jamaica/83-85-Woodhaven-Blvd-11421/unit-1f/home/160887738,MLSLI,3187721,N,Y,40.6987644,-73.8520759
MLS Listing,,Condo/Co-op,224-16 Stronghurst Ave,Queens Village,NY,11427,249000,2,1,Bell Park Manor Terrace,,,1955,13,,,Active,January-12-2020 12:30 PM,January-12-2020 02:00 PM,http://www.redfin.com/NY/Queens-Village/224-16-Stronghurst-Ave-11427/Uppr/home/170057861,MLSLI,3187710,N,Y,40.7329621,-73.7445074
MLS Listing,,Condo/Co-op,Unit at 125 -10 Queens Blvd,Queens,NY,11415,235000,0,1,Kew Gardens,,,,13,,,Active,,,http://www.redfin.com/NY/Kew-Gardens/125-28-Queens-Blvd-11415/home/170163059,REBNY,ELEG1863284,N,Y,40.7119297,-73.8263611
MLS Listing,,Condo/Co-op,190 E Mosholu Pkwy S Unit 6-D,Bronx,NY,10458,234900,2,1,Bronx,991,,1939,16,237,,Active,,,http://www.redfin.com/NY/The-Bronx/190-E-Mosholu-Pkwy-S-10458/unit-6D/home/44801996,HGMLS,5118011,N,Y,40.8742949,-73.883753
MLS Listing,,Condo/Co-op,67-38 108th St Unit D55,Forest Hills,NY,11375,229000,1,1,Grover Cleveland,750,,1947,16,305,,Active,,,http://www.redfin.com/NY/Unknown/67-38-108th-St-11375/unit-D55/home/108416801,MLSLI,3187494,N,Y,40.7278735,-73.8475577
MLS Listing,,Condo/Co-op,245-34 77 Cres #1,Bellerose,NY,11426,245900,1,1,Glen Oaks Village,,,1945,17,,,Active,,,http://www.redfin.com/NY/Jamaica/245-34-77th-Cres-11426/unit-1/home/170155129,MLSLI,3187367,N,Y,40.7428771,-73.7249032
MLS Listing,,Condo/Co-op,84-01 Main St #422,Briarwood,NY,11435,235000,1,1,Eden Rock,,,1956,17,,,Active,,,http://www.redfin.com/NY/Jamaica/8401-Main-St-11435/unit-422/home/20631694,MLSLI,3187346,N,Y,40.7134699,-73.81675
MLS Listing,,Condo/Co-op,7002 Ridge Blvd,Bay Ridge,NY,11220,250000,1,1,Pre-War,950,,1961,19,263,,Active,January-11-2020 12:00 PM,January-11-2020 02:00 PM,http://www.redfin.com/NY/Brooklyn/7002-Ridge-Blvd-11220/unit-D7/home/114468891,MLSLI,3187218,N,Y,40.6385229,-74.0153231
MLS Listing,,Condo/Co-op,215-40 47th Ave Unit 1D,Bayside,NY,11361,239000,1,1,Rocky Hill Terrace,,,1950,19,,,Active,,,http://www.redfin.com/NY/Bayside/215-40-47th-Ave-11361/unit-1D/home/170148080,MLSLI,3187173,N,Y,40.757327,-73.7649763
MLS Listing,,Condo/Co-op,58-07 246th Cres,Douglaston,NY,11362,249000,2,1,Beech Hills,,,1953,19,,,Active,,,http://www.redfin.com/NY/Queens/5807-246th-Cres-11362/Lowr/home/170146898,MLSLI,3187145,N,Y,40.7576805,-73.7338836
MLS Listing,,Single Family Residential,,Bronx,NY,10472,225000,3,1,Unionport,1088,2266,1940,20,207,,Active,,,http://www.redfin.com/NY/The-Bronx/Undisclosed-address-10472/home/44723615,MLSLI,3187013,N,Y,40.829631,-73.855198
MLS Listing,,Condo/Co-op,47-30 217 St Unit 1A,Bayside,NY,11361,245000,1,1,Jeffrey Gardens,,,1950,20,,,Active,,,http://www.redfin.com/NY/Bayside/47-30-217th-St-11361/unit-1A/home/170134068,MLSLI,3186961,N,Y,40.7568757,-73.763805
MLS Listing,,Condo/Co-op,144-21 79 Ave Unit 1G,Kew Garden Hills,NY,11367,249000,1,1,Kew Terrace,750,,1955,21,332,,Active,,,http://www.redfin.com/NY/Flushing/144-21-79th-Ave-11367/unit-1G/home/21723432,MLSLI,3186790,N,Y,40.7193177,-73.816488
MLS Listing,,Condo/Co-op,Unit at 95 Park Ter E,New York,NY,10034,247000,0,1,Inwood,,,,22,,,Active,,,http://www.redfin.com/NY/New-York/95-Park-Ter-E-10034/home/170124550,REBNY,NEWH1863059,N,Y,40.871327,-73.9158203
MLS Listing,,Condo/Co-op,Unit at 2 E 55th St,New York,NY,10022,235000,2,2,Middle East Side,,,,22,,,Active,,,http://www.redfin.com/NY/New-York/2-E-55th-St-10022/home/170123888,REBNY,UCOM620765,N,Y,40.7613979,-73.9746128
MLS Listing,,Single Family Residential,,Annadale,NY,10312,249000,2,2,,527,2040,,22,472,,Active,,,http://www.redfin.com/NY/Staten-Island/Undisclosed-address-10312/home/164559676,BNYMLS,435426,N,Y,40.555548,-74.1827119
MLS Listing,,Condo/Co-op,88-29 155th Ave Unit 2B,Howard Beach,NY,11414,234999,2,1,Carlton Ii,,,1965,23,,,Active,,,http://www.redfin.com/NY/Howard-Beach/88-29-155th-Ave-11414/unit-2B/home/20648813,MLSLI,3186508,N,Y,40.6663817,-73.8459103
MLS Listing,,Condo/Co-op,5609 Avenue T Unit 48C,Brooklyn,NY,11234,239000,2,1,Brooklyn,900,,,23,266,,Active,,,http://www.redfin.com/NY/Brooklyn/5609-Avenue-T-11234/unit-48C/home/40654152,BNYMLS,435388,N,Y,40.614341,-73.9202084
MLS Listing,,Condo/Co-op,68-75 Bell Blvd #2,Bayside,NY,11364,238000,1,1,Bell Blvd & 69 Ave,,,1950,23,,,Active,January-11-2020 10:30 AM,January-11-2020 11:30 AM,http://www.redfin.com/NY/Oakland-Gardens/68-75-Bell-Blvd-11364/unit-2/home/170110977,MLSLI,3186401,N,Y,40.7421173,-73.758182
MLS Listing,,Condo/Co-op,66-01 Burns St Unit 6M,Rego Park,NY,11374,249999,1,1,Thornton Burns Owners,850,,1963,23,294,,Active,,,http://www.redfin.com/NY/Rego-Park/66-01-Burns-St-11374/unit-6M/home/169840607,MLSLI,3186400,N,Y,40.7241051,-73.8581707
MLS Listing,,Condo/Co-op,175-20 Wexford Ter Unit - 16 J,Jamaica Estates,NY,11432,238000,1,1,The Camelot,,,1969,25,,,Active,,,http://www.redfin.com/NY/Jamaica/175-20-Wexford-Ter-11432/unit-16-J/home/160699133,MLSLI,3186280,N,Y,40.7123926,-73.7875442
MLS Listing,,Condo/Co-op,Unit at 2299 E 13th St,Brooklyn,NY,11229,229000,0,1,Sheepshead Bay,,,,27,,,Active,,,http://www.redfin.com/NY/Brooklyn/2299-E-13th-St-11229/home/170068075,REBNY,KWNY238786,N,Y,40.5943015,-73.957198
MLS Listing,,Condo/Co-op,2199 Holland Ave Unit 4M,Bronx,NY,10462,244999,2,1,Bronx,850,,1930,28,288,,Active,,,http://www.redfin.com/NY/The-Bronx/2199-Holland-Ave-10462/unit-4M/home/169039301,HGMLS,5126075,N,Y,40.8563029,-73.8659969
MLS Listing,,Condo/Co-op,2741 East 28 St Unit 5C,Brooklyn,NY,11235,249000,2,1,Brooklyn,1000,,,28,249,,Active,,,http://www.redfin.com/NY/Brooklyn/2741-E-28th-St-11235/unit-5C/home/166645568,BNYMLS,435295,N,Y,40.5862693,-73.9407123
MLS Listing,,Condo/Co-op,3299 Cambridge Ave Unit 3K,Bronx,NY,10463,249000,1,1,Bronx,900,,1955,29,277,,Active,,,http://www.redfin.com/NY/The-Bronx/3299-Cambridge-Ave-10463/unit-3K/home/44804166,HGMLS,5125890,N,Y,40.8850633,-73.9084715
MLS Listing,,Condo/Co-op,209-80 18th Ave Unit 4A,Bayside,NY,11360,250000,2,1,Bay Terrace,,,1950,29,,,Active,January-11-2020 12:00 PM,January-11-2020 01:30 PM,http://www.redfin.com/NY/Bayside/209-80-18th-Ave-11360/unit-4A/home/160295168,MLSLI,3185475,N,Y,40.7818627,-73.7823871
MLS Listing,,Condo/Co-op,2234 Ocean Ave Unit C4,Brooklyn,NY,11229,250000,1,1,Brooklyn,700,,1927,29,357,,Active,,,http://www.redfin.com/NY/Brooklyn/2234-Ocean-Ave-11229/unit-C4/home/170054168,BNYMLS,435029,N,Y,40.6070957,-73.9532948
MLS Listing,,Condo/Co-op,2555 Batchelder St Unit 2E,Brooklyn,NY,11235,239000,2,1,Brooklyn,1000,,,29,239,,Active,,,http://www.redfin.com/NY/Brooklyn/2555-Batchelder-St-11235/unit-2E/home/40920512,BNYMLS,435283,N,Y,40.5903327,-73.9367595
MLS Listing,,Condo/Co-op,26910 Grand Central Pkwy Unit 8R,Floral Park,NY,11005,239000,1,1,North Shore Towers,680,,1975,29,351,,Active,,,http://www.redfin.com/NY/Queens/26910-Grand-Central-Pkwy-11005/unit-8R/home/20626043,MLSLI,3185341,N,Y,40.757181,-73.714414
MLS Listing,,Condo/Co-op,2390 Palisade Ave Unit 6H,Bronx,NY,10463,245000,1,1,Riverdale,850,,1964,30,288,,Active,,,http://www.redfin.com/NY/The-Bronx/2390-Palisade-Ave-10463/unit-6H/home/167112273,HGMLS,5125556,N,Y,40.8797408,-73.9204193
MLS Listing,,Condo/Co-op,84-01 Main St #714,Briarwood,NY,11435,229000,1,1,Eden Rock,,,1955,30,,,Active,,,http://www.redfin.com/NY/Briarwood/8401-Main-St-11435/unit-714/home/170038346,MLSLI,3185173,N,Y,40.713372,-73.8163053
MLS Listing,,Condo/Co-op,213-08 73 Ave Unit 5P,Bayside,NY,11364,249000,1,1,Windsor Park,,,1955,31,,,Active,,,http://www.redfin.com/NY/Oakland-Gardens/213-08-73rd-Ave-11364/unit-5P/home/20642618,MLSLI,3184966,N,Y,40.7398843,-73.760823
MLS Listing,,Condo/Co-op,84-01 Main St #616,Briarwood,NY,11435,249000,2,1,Eden Rock,,,1956,32,,,Active,,,http://www.redfin.com/NY/Jamaica/8401-Main-St-11435/unit-616/home/20647368,MLSLI,3184878,N,Y,40.7134699,-73.81675
MLS Listing,,Condo/Co-op,33-04 93rd St Unit 2X,Jackson Heights,NY,11372,229000,1,1,Southridge,,,1958,33,,,Active,,,http://www.redfin.com/NY/Jackson-Heights/33-04-93rd-St-11372/unit-2X/home/169823823,MLSLI,3184779,N,Y,40.7563313,-73.8751896
MLS Listing,,Condo/Co-op,Unit at 759 E 10th St,Brooklyn,NY,11230,225000,0,1,Midwood,,,,33,,,Active,,,http://www.redfin.com/NY/Brooklyn/759-E-10th-St-11230/home/63688178,REBNY,UCOM1340632,N,Y,40.6305464,-73.9669786
MLS Listing,,Condo/Co-op,210-15 23 Ave Unit 6 B,Bayside,NY,11360,239000,1,1,Bay Terrace Section X,,,1969,35,,,Active,,,http://www.redfin.com/NY/Unknown/210-15-23rd-Ave-11360/unit-6B/home/146463536,MLSLI,3184266,N,Y,40.7795237,-73.7810994
MLS Listing,,Condo/Co-op,160-40 16th Ave,Whitestone,NY,11357,235000,1,1,Clearview Gardens,,,1950,35,,,Active,January-11-2020 01:00 PM,January-11-2020 03:00 PM,http://www.redfin.com/NY/Whitestone/160-40-16th-Ave-11357/home/170010862,MLSLI,3184257,N,Y,40.7842549,-73.8010538
MLS Listing,,Condo/Co-op,3535 Kings College Unit 6D,Bronx,NY,10467,235000,2,1,Bronx,900,,1954,35,261,,Active,,,http://www.redfin.com/NY/The-Bronx/3535-Kings-College-Pl-10467/unit-6D/home/76493485,HGMLS,5124244,N,Y,40.880833,-73.8758596
MLS Listing,,Condo/Co-op,67-12 Yellowstone Blvd Unit C3,Forest Hills,NY,11375,225000,0,1,Colorado,680,,1951,36,331,,Active,,,http://www.redfin.com/NY/Forest-Hills/6712-Yellowstone-Blvd-11375/unit-C3/home/112928037,MLSLI,3183901,N,Y,40.7284499,-73.8492399
MLS Listing,,Condo/Co-op,Unit at 1777 Madison Ave,New York,NY,10035,235000,0,1,East Harlem,,,,36,,,Active,,,http://www.redfin.com/NY/New-York/1777-Madison-Ave-10035/home/168043466,REBNY,HALS19973266,N,Y,40.8003738,-73.9443172
MLS Listing,,Single Family Residential,1 Metropolitan Oval,Bronx,NY,10462,225000,,,Parkchester,,,,37,,,Active,,,http://www.redfin.com/NY/The-Bronx/1-Metropolitan-Oval-10462/home/44599908,REBNY,CITI5943205,N,Y,40.83904,-73.8604773
MLS Listing,,Condo/Co-op,1000 Clove Rd Unit 5M,Staten  Island,NY,10314,228000,1,1,Staten  Island,750,,,37,304,,Active,,,http://www.redfin.com/NY/Staten-Island/1000-Clove-Rd-10301/unit-5M/home/77421589,BNYMLS,435097,N,Y,40.6202645,-74.1099106
MLS Listing,,Condo/Co-op,36-25 192nd St #191,Flushing,NY,11358,229000,1,1,Baydale Tenants Corp,,,1950,37,,,Active,,,http://www.redfin.com/NY/Flushing/3625-192nd-St-11358/unit-191/home/21510347,MLSLI,3183737,N,Y,40.7636499,-73.79025
MLS Listing,,Condo/Co-op,65-38 Booth St Unit 3K,Rego Park,NY,11374,248000,0,1,65-38 Booth St Owners,650,,1940,37,382,,Active,,,http://www.redfin.com/NY/Flushing/65-38-Booth-St-11374/unit-3K/home/20658262,MLSLI,3183731,N,Y,40.726787,-73.858789
MLS Listing,,Condo/Co-op,Unit at 720 E 31st St,Brooklyn,NY,11210,249000,1,1,Flatbush,,,,39,,,Active,,,http://www.redfin.com/NY/Brooklyn/720-E-31st-St-11210/home/143345559,REBNY,CORC5941931,N,Y,40.633515,-73.9470496
MLS Listing,,Condo/Co-op,42-30 Douglaston Pkwy Unit 2E,Douglaston,NY,11363,248000,0,,Wellesley Gardens,750,,1964,41,331,,Active,,,http://www.redfin.com/NY/Little-Neck/4230-Douglaston-Pkwy-11362/unit-2E/home/20644374,MLSLI,3183236,N,Y,40.767787,-73.7474748
MLS Listing,,Condo/Co-op,25-12 Union St #4,Flushing,NY,11354,249888,1,1,Mg,,,1952,41,,,Active,,,http://www.redfin.com/NY/Flushing/25-12-Union-St-11354/unit-4/home/169974782,MLSLI,3183217,N,Y,40.7754741,-73.8262458
MLS Listing,,Condo/Co-op,195-05 39th Ave,Flushing,NY,11358,239990,1,1,Auburndale,900,,1950,44,267,,Active,,,http://www.redfin.com/NY/Flushing/19505-39th-Ave-11358/home/20849709,MLSLI,3182802,N,Y,40.7622598,-73.7870157
MLS Listing,,Condo/Co-op,2 W Mill Dr Unit 3E,Great Neck,NY,11021,239000,1,1,Town Of North Hempstead,,,1950,44,,,Active,,,http://www.redfin.com/NY/Great-Neck/2-W-Mill-Dr-11021/unit-3E/home/25722454,MLSLI,3182708,N,Y,40.776203,-73.7365921
MLS Listing,,Condo/Co-op,37-50 E 87th St Apt 3C,call Listing Agent,NY,11372,249000,1,1,Jackson Heights,550,,1951,44,453,,Active,,,http://www.redfin.com/NY/Jackson-Heights/3750-87th-St-11372/unit-3C/home/169938205,HGMLS,5120849,N,Y,40.748944,-73.8797307
MLS Listing,,Condo/Co-op,55 E 190 St #66,Bronx,NY,10468,229000,1,1,Bronx,887,,1941,44,258,,Active,,,http://www.redfin.com/NY/The-Bronx/55-E-190th-St-10468/unit-66/home/169937811,HGMLS,5120151,N,Y,40.8634176,-73.8989817
MLS Listing,,Condo/Co-op,Unit at 665 Thwaites Pl,New York,NY,10467,247900,1,1,Inwood,,,,45,,,Active,,,http://www.redfin.com/NY/The-Bronx/665-Thwaites-Pl-10467/home/169937027,REBNY,HGLR3391,N,Y,40.8589791,-73.8689782
MLS Listing,,Condo/Co-op,Unit at 825 Walton Ave,Bronx,NY,10451,225000,1,1,The Bronx ( Other),,,,47,,,Active,,,http://www.redfin.com/NY/The-Bronx/825-Walton-Ave-10451/home/59302322,REBNY,BOND1601378,N,Y,40.8259888,-73.9251666
MLS Listing,,Single Family Residential,10019 Avenue N,Brooklyn,NY,11236,232900,1,1,Brooklyn,572,1424,1915,48,407,,Active,,,http://www.redfin.com/NY/Brooklyn/10019-Avenue-N-11236/home/40895656,MLSLI,3182178,N,Y,40.6374534,-73.8888695
MLS Listing,,Condo/Co-op,Unit at 3210 Arlington Ave,Bronx,NY,10463,245000,1,1,Spuyten Duyvil,,,,48,,,Active,,,http://www.redfin.com/NY/The-Bronx/3210-Arlington-Ave-10463/home/44601318,REBNY,LLGI1428943,N,Y,40.8841699,-73.9121918
MLS Listing,,Condo/Co-op,724 E 221 St Unit 3A,Bronx,NY,10467,225000,2,1,Bronx,682,,2005,50,330,259,Active,,,http://www.redfin.com/NY/The-Bronx/724-E-221st-St-10467/unit-3A/home/44800118,HGMLS,5120871,N,Y,40.8845587,-73.8611791
MLS Listing,,Condo/Co-op,2555 Batchelder St Unit 6-E,Brooklyn,NY,11235,249900,2,1,Brooklyn,1000,,,51,250,,Active,,,http://www.redfin.com/NY/Brooklyn/2555-Batchelder-St-11235/unit-6E/home/40925592,BNYMLS,434852,N,Y,40.5903327,-73.9367595
MLS Listing,,Condo/Co-op,71-57 252nd St,Bellerose,NY,11426,244999,1,1,Parkwood Estates,,,1950,51,,,Active,January-12-2020 01:30 PM,January-12-2020 03:00 PM,http://www.redfin.com/NY/Jamaica/71-57-252nd-St-11426/Lowr/home/20626027,MLSLI,3181182,N,Y,40.7501919,-73.722287
MLS Listing,,Condo/Co-op,491 Riverdale Ave Unit 4F,Yonkers,NY,10705,239000,3,1,Yonkers,1200,,1958,52,199,,Active,,,http://www.redfin.com/NY/Yonkers/491-Riverdale-Ave-10705/unit-4F/home/54974286,HGMLS,5120596,N,Y,40.9156932,-73.9025004
MLS Listing,,Vacant Land,221 Barbey St,Brooklyn,NY,11207,250000,,,Brooklyn,,2375,,52,,,Active,,,http://www.redfin.com/NY/Brooklyn/221-Barbey-St-11207/home/40758560,MLSLI,3181090,N,Y,40.677801,-73.888533
MLS Listing,,Condo/Co-op,211-06 75 Ave Unit 2C,Oakland Gardens,NY,11364,229000,1,1,N/A,720,,,53,318,,Active,,,http://www.redfin.com/NY/Oakland-Gardens/211-06-75th-Ave-11364/unit-2C/home/20638764,MLSLI,3181018,N,Y,40.7372068,-73.760706
MLS Listing,,Condo/Co-op,83-85 Woodhaven Blvd Unit 1P,Woodhaven,NY,11421,235000,2,1,Elton,,,1954,54,,,Active,,,http://www.redfin.com/NY/Jamaica/83-85-Woodhaven-Blvd-11421/unit-1P/home/20629789,MLSLI,3180777,N,Y,40.6987644,-73.8520759
MLS Listing,,Condo/Co-op,80-35 Springfield Blvd Unit 1H,Bayside,NY,11364,250000,1,1,Cambridge Hall,,,1950,54,,,Active,,,http://www.redfin.com/NY/Bayside/8035-Springfield-Blvd-11364/unit-1H/home/146074217,MLSLI,3180720,N,Y,40.73492,-73.74569
MLS Listing,,Condo/Co-op,32-22 89th St Unit E606,E. Elmhurst,NY,11369,245000,1,1,Northridge 3,750,,1956,54,327,,Active,,,http://www.redfin.com/NY/East-Elmhurst/32-22-89th-St-11369/unit-E606/home/169836222,MLSLI,3180718,N,Y,40.7575317,-73.8793768
MLS Listing,,Condo/Co-op,32-45 91 St Unit A307,E. Elmhurst,NY,11369,239000,1,1,Northridge  1,700,,1952,55,341,,Active,,,http://www.redfin.com/NY/Flushing/32-45-91st-St-11369/unit-A307/home/169801248,MLSLI,3180445,N,Y,40.7570605,-73.8768765
MLS Listing,,Condo/Co-op,33-45 90 St Unit 5E,Jackson Heights,NY,11372,228000,1,1,South Reach Coop Sec #3,,,1940,55,,,Active,,,http://www.redfin.com/NY/Jackson-Heights/33-45-90th-St-11372/unit-5E/home/40012784,MLSLI,3180428,N,Y,40.7548053,-73.8774919
MLS Listing,,Condo/Co-op,123-25 82nd Ave Unit 4G,Kew Gardens,NY,11415,239000,1,1,The Curtis,,,1950,55,,,Active,January-12-2020 01:00 PM,January-12-2020 02:30 PM,http://www.redfin.com/NY/Kew-Gardens/123-25-82nd-Ave-11415/unit-4G/home/20637191,MLSLI,3180411,N,Y,40.7126829,-73.8283853
MLS Listing,,Condo/Co-op,2265 Gerritsen Ave Unit 4R,Brooklyn,NY,11229,225000,1,1,Brooklyn,800,,1960,56,281,,Active,January-12-2020 01:00 PM,January-12-2020 03:00 PM,http://www.redfin.com/NY/Brooklyn/2265-Gerritsen-Ave-11229/unit-4R/home/163842957,BNYMLS,434709,N,Y,40.600681,-73.933424
MLS Listing,,Condo/Co-op,83-75 Woodhaven Blvd Unit 3S,Woodhaven,NY,11421,249000,2,1,Forest Park,,,1960,56,,,Active,,,http://www.redfin.com/NY/Jamaica/83-75-Woodhaven-Blvd-11421/unit-3S/home/169880782,MLSLI,3180238,N,Y,40.6996832,-73.8528872
MLS Listing,,Condo/Co-op,227-03 88 Ave,Bellerose Manor,NY,11427,229900,2,1,Bellrose Manor,,,1951,56,,,Active,,,http://www.redfin.com/NY/Queens-Village/22703-88th-Ave-11427/Lowr/home/112382735,MLSLI,3180229,N,Y,40.7306743,-73.7401506
MLS Listing,,Condo/Co-op,69-07 150th St Unit 321A,Kew Garden Hills,NY,11367,247000,1,1,Flushing,750,,1955,57,329,,Active,,,http://www.redfin.com/NY/Flushing/6907-150th-St-11367/unit-321A/home/40029909,MLSLI,3180008,N,Y,40.7317921,-73.8192689
MLS Listing,,Condo/Co-op,2550 Olinville Ave Unit 17J,Bronx,NY,10467,240000,2,1,Bronx,1100,,1968,57,218,,Active,,,http://www.redfin.com/NY/The-Bronx/2550-Olinville-Ave-10467/unit-17J/home/44765182,HGMLS,5119595,N,Y,40.8644237,-73.8680481
MLS Listing,,Condo/Co-op,125-10 Queens Blvd #520,Kew Gardens,NY,11415,247000,1,1,Silver Towers,,,1960,58,,,Active,,,http://www.redfin.com/NY/Kew-Gardens/12510-Queens-Blvd-11415/unit-520/home/20656332,MLSLI,3179586,N,Y,40.7124099,-73.8264399
MLS Listing,,Condo/Co-op,Unit at 300 Eighth Ave,Brooklyn,NY,11215,245000,0,1,Park Slope,,,,60,,,Active,,,http://www.redfin.com/NY/Brooklyn/300-8th-Ave-11215/home/169764364,REBNY,GARF105633,N,Y,40.669315,-73.9766659
MLS Listing,,Condo/Co-op,Unit at 300 Eighth Ave,Brooklyn,NY,11215,245000,0,1,Park Slope,,,,60,,,Active,,,http://www.redfin.com/NY/Brooklyn/300-8th-Ave-11215/home/169764363,REBNY,GARF105630,N,Y,40.669315,-73.9766659
MLS Listing,,Condo/Co-op,Unit at 345 Webster Ave,Brooklyn,NY,11230,239000,0,1,Kensington,,,,63,,,Active,,,http://www.redfin.com/NY/Brooklyn/345-Webster-Ave-11230/home/59292581,REBNY,DEGI4014419,N,Y,40.634005,-73.968892
MLS Listing,,Condo/Co-op,214-35B Hillside Ave,Queens Village,NY,11427,237000,2,1,Hillside Gardens,,,1950,63,,,Active,,,http://www.redfin.com/NY/Queens-Village/214-35-Hillside-Ave-11427/unit-35B/home/20631648,MLSLI,3178498,N,Y,40.726973,-73.7503961
MLS Listing,,Condo/Co-op,209-80 18 Ave Unit 3J,Bayside,NY,11360,235000,1,1,Bay Terrace,,,1960,64,,,Active,,,http://www.redfin.com/NY/Bayside/209-80-18th-Ave-11360/unit-3J/home/147857923,MLSLI,3178318,N,Y,40.7818708,-73.7824088
MLS Listing,,Condo/Co-op,99-25 60 Ave Unit 4G,Corona,NY,11368,250000,1,1,Sherwood Village C,850,,1950,65,294,,Active,,,http://www.redfin.com/NY/Flushing/99-25-60th-Ave-11368/unit-4G/home/56545019,MLSLI,3178040,N,Y,40.736926,-73.8577614
MLS Listing,,Condo/Co-op,112-24 Northern Blvd Unit 6F,Corona,NY,11368,240000,2,1,Dorie Miller,,,1950,65,,,Active,,,http://www.redfin.com/NY/Corona/112-24-Northern-Blvd-11368/unit-6F/home/169648635,MLSLI,3178014,N,Y,40.7579713,-73.8567832
MLS Listing,,Condo/Co-op,147-83 Grand Central Pkwy Unit 96A,Briarwood,NY,11435,250000,2,1,Parkway Village,,,1947,65,,,Active,,,http://www.redfin.com/NY/Jamaica/147-83-Grand-Central-Pkwy-11435/unit-96A/home/160294376,MLSLI,3177871,N,Y,40.7163134,-73.8108199
MLS Listing,,Condo/Co-op,2550 Olinville Ave Unit 5F,Bronx,NY,10467,250000,2,1,Bronx,974,,1968,65,257,,Active,,,http://www.redfin.com/NY/The-Bronx/2550-Olinville-Ave-10467/unit-5F/home/169646082,HGMLS,5118039,N,Y,40.8644237,-73.8680481
MLS Listing,,Condo/Co-op,29-30 137th St Unit 5H,Flushing,NY,11354,250000,1,1,Linden Towers #5,,,1960,67,,,Active,,,http://www.redfin.com/NY/Flushing/29-30-137th-St-11354/unit-5H/home/49702375,MLSLI,3177651,N,Y,40.7707942,-73.8325469
MLS Listing,,Condo/Co-op,120-12 85th Ave Unit 5C,Kew Gardens,NY,11415,249000,1,1,120-10/12 Owners Corp,,,1951,69,,,Active,,,http://www.redfin.com/NY/Kew-Gardens/120-12-85th-Ave-11415/unit-5C/home/21469142,MLSLI,3177223,N,Y,40.7030365,-73.830674
MLS Listing,,Condo/Co-op,142-14 26th Ave Unit 2G,Flushing,NY,11354,242800,1,1,Linden Hills #2,,,1955,69,,,Active,,,http://www.redfin.com/NY/Flushing/142-14-26th-Ave-11354/unit-2G/home/28562964,MLSLI,3177011,N,Y,40.7742444,-73.8255267
MLS Listing,,Condo/Co-op,129 Beach 118th St Unit 6G,Rockaway Park,NY,11694,245000,1,1,Beach View,675,,1961,69,363,,Active,,,http://www.redfin.com/NY/Rockaway-Park/129-Beach-118th-St-11694/unit-6G/home/20645522,MLSLI,3176984,N,Y,40.5773119,-73.838049
MLS Listing,,Single Family Residential,267 Colony Ave,Staten Island,NY,10306,230000,2,1,Midland Beach,450,1120,1910,70,511,,Active,,,http://www.redfin.com/NY/Staten-Island/267-Colony-Ave-10306/home/56110301,SIBORMLS,1133454,N,Y,40.5725404,-74.0924156
MLS Listing,,Condo/Co-op,202-35 Foot Hill Ave #43,Hollis,NY,11423,249000,2,1,Hill Top Village,,,1954,70,,,Active,,,http://www.redfin.com/NY/Hollis/202-35-Foothill-Ave-11423/unit-43/home/169601338,MLSLI,3176596,N,Y,40.7211693,-73.7621732
MLS Listing,,Condo/Co-op,3121 Middletown Rd Unit 1N,Bronx,NY,10461,242500,2,1,Bronx,1000,,1963,71,243,,Active,,,http://www.redfin.com/NY/Bronx/3121-Middletown-Rd-10461/unit-1N/home/44600871,HGMLS,5112473,N,Y,40.8455961,-73.8264218
MLS Listing,,Condo/Co-op,33-45 90 St Unit 2G,Jackson Heights,NY,11372,250000,1,1,Southrigh,,,1950,71,,,Active,,,http://www.redfin.com/NY/Unknown/3345-90th-St-11372/unit-2G/home/142937341,MLSLI,3176299,N,Y,40.7548053,-73.8774919
MLS Listing,,Vacant Land,413 Howe Ave,Bronx,NY,10473,250000,,,Bronx,2706,2705,,72,92,,Active,,,http://www.redfin.com/NY/The-Bronx/413-Howe-Ave-10473/home/44769500,HGMLS,5115048,N,Y,40.815223,-73.848523
MLS Listing,,Condo/Co-op,800 Grand Concourse Unit GON,Bronx,NY,10451,249000,1,1,Bronx,650,,1954,72,383,,Active,January-11-2020 12:00 PM,January-11-2020 02:00 PM,http://www.redfin.com/NY/The-Bronx/800-Grand-Concourse-10451/unit-GON/home/169591230,HGMLS,5115228,N,Y,40.8251597,-73.9233277
MLS Listing,,Condo/Co-op,150-17 Grand Central Pkwy Unit 101B,Jamaica,NY,11432,249500,2,1,Briarwood & Kgh Borders,1058,,1945,73,236,,Active,,,http://www.redfin.com/NY/Jamaica/150-17-Grand-Central-Pkwy-11432/unit-101B/home/62654878,MLSLI,3175927,N,Y,40.7163532,-73.8098024
MLS Listing,,Condo/Co-op,139-09 28Rd #5,Flushing,NY,11354,239000,1,1,Mitchell Garden,,,1955,73,,,Active,,,http://www.redfin.com/NY/Flushing/139-09-28th-Rd-11354/unit-5/home/169584367,MLSLI,3175876,N,Y,40.7724874,-73.8290936
MLS Listing,,Condo/Co-op,29-13 Foster Ave Unit 1D,Brooklyn,NY,11210,225000,1,1,Co-Op,,,1931,74,,,Active,,,http://www.redfin.com/NY/Brooklyn/2913-Foster-Ave-11210/unit-1D/home/40650177,MLSLI,3175832,N,Y,40.6387484,-73.9486565
MLS Listing,,Condo/Co-op,86-16 60th Ave Unit 6H,Elmhurst,NY,11373,235000,1,1,Caroline Gardens,,,1963,75,,,Active,,,http://www.redfin.com/NY/Elmhurst/86-16-60th-Ave-11373/unit-6H/home/21643061,MLSLI,3175542,N,Y,40.7306154,-73.8731934
MLS Listing,,Condo/Co-op,269 W 153rd St #12,New York,NY,10037,225000,4,1,New York,,,1920,75,,,Active,,,http://www.redfin.com/NY/New-York/269-W-153rd-St-10039/unit-12/home/169565622,HGMLS,5112522,N,Y,40.8278328,-73.9375665
MLS Listing,,Condo/Co-op,2241 Plumb 1 St Unit 1T,Brooklyn,NY,11229,239000,2,1,Brooklyn,800,,,76,299,,Active,,,http://www.redfin.com/NY/Brooklyn/2241-Plumb-1st-St-11229/unit-1T/home/169558233,BNYMLS,434282,N,Y,40.598735,-73.932414
MLS Listing,,Condo/Co-op,33-24 93 St Unit 2X,Jackson Heights,NY,11372,230000,1,1,Briarley,750,,1958,76,307,,Active,,,http://www.redfin.com/NY/Jackson-Heights/3324-93rd-St-11372/unit-2X/home/20638266,MLSLI,3175254,N,Y,40.7556017,-73.8754456
MLS Listing,,Condo/Co-op,2265 Gerritsen Ave Unit 4N,Brooklyn,NY,11229,250000,2,1,Brooklyn,868,,1962,76,288,,Active,January-12-2020 01:00 PM,January-12-2020 03:00 PM,http://www.redfin.com/NY/Brooklyn/2265-Gerritsen-Ave-11229/unit-4N/home/40665087,BNYMLS,434249,N,Y,40.600681,-73.933424
MLS Listing,,Condo/Co-op,83-15 116 St Unit 2B,Kew Gardens,NY,11415,234000,1,1,Windsor Court,,,1930,76,,,Active,,,http://www.redfin.com/NY/Jamaica/83-15-116th-St-11418/unit-2B/home/20628629,MLSLI,3175169,N,Y,40.70617,-73.835733
MLS Listing,,Condo/Co-op,3239 Barker Unit g,Bronx,NY,10467,229999,2,1,Bronx,750,,1953,76,307,,Active,,,http://www.redfin.com/NY/Bronx/3239-Barker-10465/unit-g/home/161384189,HGMLS,5112413,N,Y,40.8262186,-73.8242621
MLS Listing,,Condo/Co-op,110-20 71 Ave #104,Forest Hills,NY,11375,247000,1,1,The Majestic,,,1955,77,,,Active,,,http://www.redfin.com/NY/Forest-Hills/11020-71st-Ave-11375/unit-104/home/20644169,MLSLI,3175009,N,Y,40.7223099,-73.84153
MLS Listing,,Condo/Co-op,1000 Clove Rd Unit 8m,Staten Island,NY,10301,239000,1,1,Clove Lake,750,750,1966,77,319,,Active,,,http://www.redfin.com/NY/Staten-Island/1000-Clove-Rd-10301/unit-8M/home/77405089,SIBORMLS,1133287,N,Y,40.6202645,-74.1099106
MLS Listing,,Condo/Co-op,1332 Metropolitan Ave Unit 5G,Bronx,NY,10462,229000,2,1.5,Bronx,925,,1950,78,248,,Active,,,http://www.redfin.com/NY/The-Bronx/1332-Metropolitan-Ave-10462/unit-5G/home/44804165,HGMLS,5111390,N,Y,40.834227,-73.8605138
MLS Listing,,Condo/Co-op,251-03 61st Ave,Little Neck,NY,11362,239000,1,1,Deepdale Gardens,,,1952,78,,,Active,,,http://www.redfin.com/NY/Little-Neck/25103-61st-Ave-11362/Uppr/home/169517277,MLSLI,3174751,N,Y,40.7576308,-73.7274901
MLS Listing,,Condo/Co-op,61-20 Grand Central Pkwy Unit B609,Forest Hills,NY,11375,239999,1,1,The Fairview,719,,1964,79,334,,Active,January-11-2020 12:00 PM,January-11-2020 04:00 PM,http://www.redfin.com/NY/Unknown/61-20-Grand-Central-Pkwy-11375/unit-B609/home/147471092,MLSLI,3174513,N,Y,40.7380691,-73.8473845
MLS Listing,,Condo/Co-op,102-30 Queens Blvd Unit 2H,Forest Hills,NY,11375,239000,0,1,Hadden Hall,600,,1960,79,398,,Active,,,http://www.redfin.com/NY/Forest-Hills/10230-Queens-Blvd-11375/unit-2H/home/169501830,MLSLI,3174361,N,Y,40.7251366,-73.8509752
MLS Listing,,Condo/Co-op,Unit at 140 -21 Burden Cres,Queens,NY,11435,235000,1,1,Briarwood,,,,79,,,Active,,,http://www.redfin.com/NY/Jamaica/140-85-Burden-Cres-11435/home/169500429,REBNY,ARGO275218,N,Y,40.711561,-73.815799
MLS Listing,,Condo/Co-op,99-40 63rd Rd Unit 1F,Rego Park,NY,11374,239000,1,1,Anita Terrace,500,,,81,478,,Active,,,http://www.redfin.com/NY/Rego-Park/99-40-63rd-Rd-11374/unit-1F/home/142974842,MLSLI,3174042,N,Y,40.7323435,-73.8555591
MLS Listing,,Condo/Co-op,63-89 Saunders St Unit 3J,Rego Park,NY,11374,229000,0,1,Saunders Owners,,,1952,82,,,Active,,,http://www.redfin.com/NY/Flushing/63-89-Saunders-St-11374/unit-3J/home/169468349,MLSLI,3173929,N,Y,40.7291666,-73.8619839
MLS Listing,,Condo/Co-op,33-07 91st St Unit 1K,Jackson Heights,NY,11372,242000,1,1,Southridge 2,,,1958,83,,,Active,,,http://www.redfin.com/NY/Jackson-Heights/33-7-91st-St-11372/unit-1K/home/169449821,MLSLI,3173528,N,Y,40.7562935,-73.8768362
MLS Listing,,Condo/Co-op,115-25 84th Ave Unit 3F,Kew Gardens,NY,11415,249000,1,1,Rose Smith,,,1928,83,,,Active,,,http://www.redfin.com/NY/Jamaica/115-25-84th-Ave-11418/unit-3F/home/22076444,MLSLI,3173436,N,Y,40.70375,-73.83591
MLS Listing,,Condo/Co-op,2550 Olinville Ave Unit 2A,Bronx,NY,10467,250000,2,1,Bronx,950,,1968,84,263,,Active,,,http://www.redfin.com/NY/The-Bronx/2550-Olinville-Ave-10467/unit-2A/home/169439402,HGMLS,5104665,N,Y,40.8644237,-73.8680481
MLS Listing,,Condo/Co-op,Unit at 157 W 123rd St,New York,NY,10027,225000,1,1,Mt. Morris Park,,,,85,,,Active,,,http://www.redfin.com/NY/New-York/157-W-123rd-St-10027/home/164440343,REBNY,UCOM1821157,N,Y,40.8076433,-73.9487626
MLS Listing,,Condo/Co-op,,Briarwood,NY,11435,240000,1,1,The Eden Rock,,,1960,85,,,Active,,,http://www.redfin.com/NY/Jamaica/Undisclosed-address-11435/home/21963433,MLSLI,3172956,N,Y,40.7134699,-73.81675
MLS Listing,,Condo/Co-op,2750 Olinville Ave Unit 1K,Bronx,NY,10467,229999,2,1,Bronx,900,24972,1955,85,256,,Active,,,http://www.redfin.com/NY/Bronx/2750-Olinville-Ave-10467/unit-1K/home/103649009,HGMLS,5103272,N,Y,40.866317,-73.8680941
MLS Listing,,Condo/Co-op,3220 Avenue H Unit 1a,Brooklyn,NY,11210,249000,1,1,3220 Avenue H,800,,1941,85,311,,Active,,,http://www.redfin.com/NY/Brooklyn/3220-Avenue-H-11210/unit-1A/home/40661552,MLSLI,3172781,N,Y,40.6313585,-73.9449372
MLS Listing,,Condo/Co-op,27-04 Parsons Blvd Unit 4F,Flushing,NY,11354,250000,1,1,Linden Hill #2,750,,1955,85,333,,Active,,,http://www.redfin.com/NY/Flushing/27-04-Parsons-Blvd-11354/unit-4F/home/20638840,MLSLI,3172760,N,Y,40.7736953,-73.8251152
MLS Listing,,Vacant Land,4310 Edson (lot5) Ave,Bronx,NY,10466,250000,,,Bronx,2185,2186,,89,114,,Active,,,http://www.redfin.com/NY/The-Bronx/4310-Edson-Ave-10466/home/44783327,HGMLS,5095695,N,Y,40.896789,-73.845825
MLS Listing,,Condo/Co-op,142-14 26th Ave Unit 1G,Flushing,NY,11354,248000,1,1,Linden Hill # 2 Coop,,,1960,89,,,Active,,,http://www.redfin.com/NY/Flushing/142-14-26th-Ave-11354/unit-1G/home/40273445,MLSLI,3172006,N,Y,40.7742444,-73.8255267
MLS Listing,,Condo/Co-op,333 Bronx Riv #415,Yonkers,NY,10704,239000,2,2,Yonkers,1200,,1960,89,199,,Active,,,http://www.redfin.com/NY/Yonkers/333-Bronx-River-Rd-10704/unit-415/home/169399483,HGMLS,5098159,N,Y,40.9112066,-73.8538685
MLS Listing,,Condo/Co-op,Unit at 52 -30 39th Dr,Queens,NY,11377,250000,0,1,Woodside,,,,90,,,Active,,,http://www.redfin.com/NY/Woodside/52-40-39th-Dr-11377/home/45111474,REBNY,UCOM1853927,N,Y,40.746702,-73.9106845
MLS Listing,,Condo/Co-op,36-06 213 St,Bayside,NY,11361,229000,1,1,Bell Court,,,1945,90,,,Active,,,http://www.redfin.com/NY/Flushing/36-06-213th-St-11361/home/20835075,MLSLI,3171689,N,Y,40.767045,-73.774105
MLS Listing,,Condo/Co-op,26-16 Union St Unit 4 F,Flushing,NY,11354,248000,1,1,Mitchell Garden,,,1951,90,,,Active,,,http://www.redfin.com/NY/Flushing/26-16-Union-St-11354/unit-4F/home/20656288,MLSLI,3171666,N,Y,40.7741633,-73.8267687
MLS Listing,,Condo/Co-op,1110 Stadium Ave Unit LB,Bronx,NY,10465,225000,2,1,Bronx,900,,1950,92,250,,Active,,,http://www.redfin.com/NY/The-Bronx/1110-Stadium-Ave-10465/unit-LB/home/44805402,HGMLS,5094959,N,Y,40.836247,-73.817012
MLS Listing,,Condo/Co-op,20 Soundview Ter #20,Bronx,NY,10465,229000,2,1,Bronx,790,,1930,93,290,,Active,,,http://www.redfin.com/NY/The-Bronx/20-Soundview-Ter-10465/unit-20/home/169291630,HGMLS,5090700,N,Y,40.8098565,-73.8044812
MLS Listing,,Condo/Co-op,770 Ocean Pkwy Unit 5E,Brooklyn,NY,11230,225000,0,1,Brooklyn,650,,1963,93,346,,Active,,,http://www.redfin.com/NY/Brooklyn/770-Ocean-Pkwy-11230/unit-5E/home/169291559,BNYMLS,433859,N,Y,40.6293686,-73.9721374
MLS Listing,,Condo/Co-op,Unit at 915 E 17th St,Brooklyn,NY,11230,236000,0,1,Midwood,,,,94,,,Active,,,http://www.redfin.com/NY/Brooklyn/915-E-17th-St-11230/home/169289546,REBNY,AVEN1853008,N,Y,40.6288723,-73.9596742
MLS Listing,,Condo/Co-op,32-42 89th St Unit C102,E. Elmhurst,NY,11369,235000,1,1,Northridge 3,750,,1956,96,313,,Active,,,http://www.redfin.com/NY/Unknown/32-42-89th-St-11369/unit-C102/home/101685129,MLSLI,3170272,N,Y,40.7568216,-73.8792449
MLS Listing,,Condo/Co-op,8502 Fort Hamilton Pkwy Unit 4C,Brooklyn,NY,11209,235000,0,1,Brooklyn,500,,1934,96,470,,Active,,,http://www.redfin.com/NY/Brooklyn/8502-Fort-Hamilton-Pkwy-11209/unit-4C/home/169283357,BNYMLS,433776,N,Y,40.6209976,-74.0241118
MLS Listing,,Single Family Residential,0 Sheldon Ave,Staten  Island,NY,10312,249900,,,Staten  Island,,3000,,96,,,Active,,,http://www.redfin.com/NY/Staten-Island/Sheldon-Ave-10312/home/56034429,BNYMLS,433797,N,Y,40.545385,-74.185568
MLS Listing,,Vacant Land,0 Sheldon Ave,Staten Island,NY,10312,235000,0,,Huguenot,,3000,,97,,,Active,,,http://www.redfin.com/NY/Staten-Island/Sheldon-Ave-10312/home/56034702,SIBORMLS,1132747,N,Y,40.542701,-74.190066
MLS Listing,,Vacant Land,535 Beach 67th St,Arverne,NY,11692,250000,,,Arverne,,4000,,97,,,Active,,,http://www.redfin.com/NY/Arverne/535-Beach-67th-St-11692/home/20673337,MLSLI,3169811,N,Y,40.5958098,-73.7967128
MLS Listing,,Condo/Co-op,84-49 168th St Unit 3E,Jamaica Hills,NY,11432,245000,1,1,The Beechhaven,,,1939,98,,,Active,,,http://www.redfin.com/NY/Jamaica/84-49-168-St-11432/unit-3E/home/169259029,MLSLI,3169551,N,Y,40.714626,-73.796475
MLS Listing,,Condo/Co-op,7 Edgewater Park Unit D,Bronx,NY,10465,249999,1,1,Bronx,650,,,99,385,,Active,,,http://www.redfin.com/NY/The-Bronx/7-Edgewater-Park-10465/unit-D/home/169251973,HGMLS,5076254,N,Y,40.8224932,-73.810984
MLS Listing,,Condo/Co-op,2323 Loring Pl N #1,Bronx,NY,10468,239000,2,1,Bronx,960,,1912,99,249,,Active,,,http://www.redfin.com/NY/Bronx/2323-Loring-Pl-N-10468/unit-1/home/53614314,HGMLS,5080924,N,Y,40.8624599,-73.9081959
MLS Listing,,Condo/Co-op,2390 Palisade Ave Unit 2G,Bronx,NY,10463,225000,2,1,Riverdale,850,,1964,100,265,,Active,,,http://www.redfin.com/NY/Bronx/2390-Palisade-Ave-10463/unit-2G/home/53614673,HGMLS,5085283,N,Y,40.8797408,-73.9204193
MLS Listing,,Condo/Co-op,138-20 31Rd Unit 1H,Flushing,NY,11354,245000,1,1,L T 1,750,,1055,102,327,,Active,,,http://www.redfin.com/NY/Flushing/138-20-31st-Rd-11354/unit-1H/home/169230422,MLSLI,3168489,N,Y,40.7703665,-73.8299957
MLS Listing,,Condo/Co-op,84-19 51st St Unit 1G,Elmhurst,NY,11373,249000,0,1,"Elmhurst, Ny",,,1952,104,,,Active,,,http://www.redfin.com/NY/Flushing/84-19-51st-Ave-11373/unit-1G/home/169210327,MLSLI,3167949,N,Y,40.7385876,-73.8787063
MLS Listing,,Condo/Co-op,36-31 170th St #13,Flushing,NY,11358,245000,1,1,Crocheron Tenants,700,,1951,105,350,,Active,,,http://www.redfin.com/NY/Flushing/3631-170th-St-11358/unit-13/home/20622525,MLSLI,3167740,N,Y,40.7616399,-73.79625
MLS Listing,,Condo/Co-op,2260 Burnett St Unit 6H,Brooklyn,NY,11229,235000,2,1,Brooklyn,900,,,106,261,,Active,,,http://www.redfin.com/NY/Brooklyn/2260-Burnett-St-11229/unit-6H/home/40661799,BNYMLS,433534,N,Y,40.6014996,-73.9324298
MLS Listing,,Condo/Co-op,88-30 155 Ave Unit LR,Howard Beach,NY,11414,239000,3,1,Lindenwood,,,1968,107,,,Active,,,http://www.redfin.com/NY/Howard-Beach/88-30-155th-Ave-11414/unit-LR/home/169196352,MLSLI,3167053,N,Y,40.6655644,-73.8465071
MLS Listing,,Condo/Co-op,28-02 141st Unit 2F,Flushing,NY,11354,248000,1,1,Mg,,,1955,108,,,Active,,,http://www.redfin.com/NY/Flushing/2802-141st-St-11354/unit-2F/home/169149531,MLSLI,3166639,N,Y,40.7730831,-73.8282225
MLS Listing,,Condo/Co-op,32-42 89th St #306,E. Elmhurst,NY,11369,239000,1,1,Northridge,,,1950,111,,,Active,,,http://www.redfin.com/NY/East-Elmhurst/32-42-89th-St-11369/unit-306/home/169118311,MLSLI,3165835,N,Y,40.7568216,-73.8792449
MLS Listing,,Condo/Co-op,228-02 Stronghurst Ave #1,Queens Village,NY,11427,240000,3,1,Bell Park Manor,,,1951,112,,,Active,,,http://www.redfin.com/NY/Unknown/22802-Stronghurst-Ave-11427/unit-1/home/109262026,MLSLI,3165513,N,Y,40.7372083,-73.7401666
MLS Listing,,Condo/Co-op,97-40 62nd Dr Unit 2A,Rego Park,NY,11374,235000,0,1,Park City 3&4,500,,1954,113,470,,Active,,,http://www.redfin.com/NY/Flushing/9740-62nd-Dr-11374/unit-2A/home/169090802,MLSLI,3165240,N,Y,40.7322685,-73.859883
MLS Listing,,Condo/Co-op,18-70 211 St Unit 6J,Bayside,NY,11360,239000,2,1,Bay Terrace X,,,1959,116,,,Active,,,http://www.redfin.com/NY/Bayside/1870-211th-St-11360/unit-6J/home/40222169,MLSLI,3164424,N,Y,40.780452,-73.781947
MLS Listing,,Condo/Co-op,90-11 35th Ave Unit 1 N,Jackson Heights,NY,11372,250000,0,1,Southview Owners Corp.,600,,1956,117,417,,Active,January-11-2020 01:00 PM,January-11-2020 03:00 PM,http://www.redfin.com/NY/Flushing/90-11-35th-Ave-11372/unit-1-N/home/40010071,MLSLI,3164264,N,Y,40.7528037,-73.876822
MLS Listing,,Condo/Co-op,33-45 94th St Unit 6G,Jackson Heights,NY,11372,249000,1,1,Jackson Heights/,850,,1957,118,293,,Active,,,http://www.redfin.com/NY/Jackson-Heights/33-45-94th-St-11372/unit-6G/home/20661294,MLSLI,3163875,N,Y,40.7552857,-73.8737625
MLS Listing,,Condo/Co-op,26-25 Union St Unit G,Flushing,NY,11354,238000,1,1,Linden Hill # 2 Coop,,,1955,119,,,Active,,,http://www.redfin.com/NY/Flushing/2625-Union-St-11354/unit-G/home/169208182,MLSLI,3163721,N,Y,40.7731489,-73.8259128
MLS Listing,,Condo/Co-op,33-06 92nd St Unit 2X,Jackson Heights,NY,11372,235000,1,1,Jackson Heights,600,,1958,119,392,,Active,,,http://www.redfin.com/NY/Jackson-Heights/3306-92nd-St-11372/unit-2X/home/40222385,MLSLI,3163452,N,Y,40.7561533,-73.876464
MLS Listing,,Condo/Co-op,102-32 65th Ave Unit A35,Forest Hills,NY,11375,238888,0,1,Stephen Apartments,500,,1952,120,478,,Active,,,http://www.redfin.com/NY/Forest-Hills/10232-65th-Ave-11375/unit-A35/home/148740998,MLSLI,3163309,N,Y,40.7304299,-73.85287
MLS Listing,,Condo/Co-op,33-47 91 St Unit 2E,Jackson Heights,NY,11372,230000,1,1,Southridge 2,600,,1958,121,383,,Active,January-11-2020 02:00 PM,January-11-2020 04:00 PM,http://www.redfin.com/NY/Jackson-Heights/33-47-91st-St-11372/unit-2E/home/20660231,MLSLI,3162685,N,Y,40.7550901,-73.876501
MLS Listing,,Vacant Land,147,Jamaica,NY,11436,250000,,,Jamaica,,2000,,121,,,Active,,,http://www.redfin.com/NY/Jamaica/147th-St-11436/home/20715211,MLSLI,3162668,N,Y,40.684527,-73.796124
MLS Listing,,Vacant Land,115-33 147 St,Jamacia,NY,11436,250000,,,Jamacia,,2000,,121,,,Active,,,http://www.redfin.com/NY/Jamaica/115-33-147th-St-11436/home/50822411,BNYMLS,432970,N,Y,40.6829609,-73.79476
MLS Listing,,Condo/Co-op,3636 Greystone Ave Unit 7F,call Listing Agent,NY,10463,230000,1,1,Riverdale,900,,1939,122,256,,Active,,,http://www.redfin.com/NY/The-Bronx/3636-Greystone-Ave-10463/unit-7F/home/168947153,HGMLS,5056404,N,Y,40.8867601,-73.9052563
MLS Listing,,Condo/Co-op,Unit at 100 W 57th St,New York,NY,10019,248000,0,1,Middle West Side,,,,124,,,Active,,,http://www.redfin.com/NY/New-York/100-W-57th-St-10019/home/45200077,REBNY,UCOM1806164,N,Y,40.7641081,-73.9776418
MLS Listing,,Condo/Co-op,141-05 Pershing Crst Unit B1,Briarwood,NY,11435,239000,1,1,The Griswald,,,1959,125,,,Active,,,http://www.redfin.com/NY/Jamaica/14105-Pershing-Cres-11435/unit-B1/home/21716895,MLSLI,3161703,N,Y,40.7075234,-73.8184546
MLS Listing,,Single Family Residential,227 Anderson St,Staten Island,NY,10305,249000,3,1,Rosebank,800,2500,1901,127,311,,Active,,,http://www.redfin.com/NY/Staten-Island/227-Anderson-St-10305/home/56106691,SIBORMLS,1131914,N,Y,40.6121482,-74.0666499
MLS Listing,,Condo/Co-op,144-44 38 Ave Unit 4F,Flushing,NY,11354,229000,0,1,Lincoln Garden Owners,400,,1955,127,573,,Active,,,http://www.redfin.com/NY/Flushing/144-44-38th-Ave-11354/unit-4F/home/168867614,MLSLI,3160958,N,Y,40.7623976,-73.8208379
MLS Listing,,Condo/Co-op,72-15 37 Ave Unit 3C,Jackson Heights,NY,11372,230000,0,1,The Salem,488,,1937,127,471,,Active,,,http://www.redfin.com/NY/Jackson-Heights/7215-37th-Ave-11372/unit-3C/home/21691135,MLSLI,3160941,N,Y,40.7490267,-73.8932921
MLS Listing,,Condo/Co-op,86-70 Francis Lewis Blvd Unit B-74,Queens Village,NY,11427,250000,2,1,The Ivy Ridge Building,,,1950,131,,,Active,,,http://www.redfin.com/NY/QUEENS-VILLAGE/8670-FRANCIS-LEWIS-BLVD-11427/unit-B74/home/20628451,MLSLI,3160326,N,Y,40.723159,-73.763529
MLS Listing,,Condo/Co-op,9524 Fort Hamilton Pkwy #301,Brooklyn,NY,11209,228000,1,1,Brooklyn,600,,1928,132,380,,Active,January-12-2020 03:00 PM,January-12-2020 04:00 PM,http://www.redfin.com/NY/Brooklyn/9524-Fort-Hamilton-Pkwy-11209/unit-301/home/40651842,BNYMLS,432834,N,Y,40.6147936,-74.0296192
MLS Listing,,Condo/Co-op,220-18 Stronghurst Ave,Queens Village,NY,11427,248000,2,1,Bell Park Manor Terrace,,,1955,132,,,Active,,,http://www.redfin.com/NY/Queens-Village/220-18-Stronghurst-Ave-11427/home/28463084,MLSLI,3159939,N,Y,40.7322773,-73.745422
MLS Listing,,Condo/Co-op,601 Pelham Pkwy N #515,Bronx,NY,10467,229900,1,1,Bronx,850,,1937,133,270,,Active,,,http://www.redfin.com/NY/The-Bronx/601-Pelham-Pkwy-N-10467/unit-515/home/168805945,HGMLS,5041640,N,Y,40.8577513,-73.8706667
MLS Listing,,Condo/Co-op,88-12 151st Ave Unit 4B,Howard Beach,NY,11414,249000,2,1,Barclay East,,,1965,133,,,Active,January-11-2020 01:30 PM,January-11-2020 03:00 PM,http://www.redfin.com/NY/Howard-Beach/88-12-151st-Ave-11414/unit-4B/home/20631581,MLSLI,3159748,N,Y,40.6679271,-73.8463631
MLS Listing,,Condo/Co-op,229 W 144 St #53,New York,NY,10013,250000,2,1,New York,800,,1930,133,313,,Active,,,http://www.redfin.com/NY/New-York/229-W-144th-St-10030/unit-53/home/168803882,HGMLS,5041594,N,Y,40.8217,-73.9407812
MLS Listing,,Condo/Co-op,139-15 83rd Ave #604,Briarwood,NY,11435,235000,1,1,Arlington Owners,800,,1958,134,294,,Active,,,http://www.redfin.com/NY/Briarwood/139-15-83rd-Ave-11435/unit-604/home/20633622,MLSLI,3159469,N,Y,40.7133443,-73.8194372
MLS Listing,,Condo/Co-op,139-15 83rd Ave #236,Briarwood,NY,11435,229000,1,1,Arlington Owners,800,,1958,134,286,,Active,,,http://www.redfin.com/NY/Briarwood/139-15-83rd-Ave-11435/unit-236/home/20647429,MLSLI,3159450,N,Y,40.7133443,-73.8194372
MLS Listing,,Condo/Co-op,Unit at 828 Gerard Ave,Bronx,NY,10451,249000,1,1,The Bronx ( Other),,,,134,,,Active,,,http://www.redfin.com/NY/The-Bronx/828-Gerard-Ave-10451/home/168780438,REBNY,DEGI3924082,N,Y,40.8260891,-73.9254652
MLS Listing,,Condo/Co-op,5803 Calloway St Unit 2F,Corona,NY,11368,249000,1,1,Forest Hills Chateau,,,1965,134,,635,Active,,,http://www.redfin.com/NY/Corona/58-03-Calloway-St-11368/unit-2F/home/20660034,MLSLI,3159355,N,Y,40.7381853,-73.8581248
MLS Listing,,Condo/Co-op,214-01 Hillside Ave Unit B,Queens Village,NY,11427,249999,2,1,Hillside Gardens,1100,,1950,135,227,,Active,,,http://www.redfin.com/NY/Queens-Village/214-1-Hillside-Ave-11427/unit-B/home/168764106,MLSLI,3159189,N,Y,40.7261824,-73.7518112
MLS Listing,,Vacant Land,,Jamaica,NY,11434,250000,,,Jamaica,,,,135,,,Active,,,http://www.redfin.com/NY/Jamaica/Undisclosed-address-11434/home/168762344,MLSLI,3159172,N,Y,40.6881747,-73.7868733
MLS Listing,,Condo/Co-op,490 Clove Rd Unit 2e,Staten Island,NY,10310,242000,1,1,West Brighton,900,3030,1989,135,269,143,Active,,,http://www.redfin.com/NY/Staten-Island/490-Clove-Rd-10310/unit-2E/home/56131457,SIBORMLS,1131757,N,Y,40.6284817,-74.1226655
MLS Listing,,Condo/Co-op,32-23 88th St. St #305,E. Elmhurst,NY,11369,225000,1,1,Northridge Iii,,,1952,135,,,Active,,,http://www.redfin.com/NY/East-Elmhurst/32-23-88th-St-11369/unit-305/home/168754466,MLSLI,3159031,N,Y,40.7574971,-73.879754
MLS Listing,,Condo/Co-op,151-31 88th St Unit 4G,Howard Beach,NY,11414,239000,1,1,Dorchester,,,1960,135,,,Active,,,http://www.redfin.com/NY/Jamaica/151-31-88th-St-11414/unit-4G/home/40327931,MLSLI,3158944,N,Y,40.6668092,-73.8471901
MLS Listing,,Condo/Co-op,460 Ovington Ave Unit 1I,Brooklyn,NY,11209,246900,1,1,Ovington Tenants Corp,520,,1950,138,475,,Active,,,http://www.redfin.com/NY/Brooklyn/460-Ovington-Ave-11209/unit-1I/home/40925979,MLSLI,3158647,N,Y,40.6327714,-74.022251
MLS Listing,,Condo/Co-op,21-06 35th St Unit 5D,Astoria,NY,11105,225000,1,1,Acropolis,,,1923,140,,749,Active,,,http://www.redfin.com/NY/Astoria/21-06-35th-St-11105/unit-5D/home/20644537,MLSLI,3158026,N,Y,40.7767185,-73.9070706
MLS Listing,,Vacant Land,430 & 431 Beach 43rd St,Far Rockaway,NY,11691,250000,,,Far Rockaway,,4000,,141,,,Active,,,http://www.redfin.com/NY/Far-Rockaway/4-31-Beach-43rd-St-11691/home/23127747,MLSLI,3157748,N,Y,40.596604,-73.775161
MLS Listing,,Condo/Co-op,1275 Grant Ave Unit 3H,Bronx,NY,10456,250000,3,1.5,Bronx,1100,,2010,143,227,,Active,,,http://www.redfin.com/NY/The-Bronx/1275-Grant-Ave-10456/unit-3H/home/44769979,HGMLS,5023818,N,Y,40.8349989,-73.9144424
MLS Listing,,Condo/Co-op,87-40 Francis Lewis Blvd Unit A38,Queens Village,NY,11427,247500,2,1,Hilltop Village,,,1950,145,,,Active,,,http://www.redfin.com/NY/Queens-Village/87-40-Francis-Lewis-Blvd-11427/unit-A38/home/40478091,MLSLI,3156823,N,Y,40.7224173,-73.7616979
MLS Listing,,Condo/Co-op,21-28 35th St Unit 5 E,Astoria,NY,11105,239000,1,1,Acropolis,,,1928,146,,,Active,,,http://www.redfin.com/NY/Queens/21-28-35th-St-11105/unit-5E/home/20640278,MLSLI,3156284,N,Y,40.7761669,-73.9075299
MLS Listing,,Condo/Co-op,3324 Junction Blvd Blvd Unit 6R,Jackson Heights,NY,11372,249000,1,1,Jackson Heights,700,,,147,356,,Active,,,http://www.redfin.com/NY/Jackson-Heights/33-24-Junction-Blvd-11372/unit-6R/home/40217502,MLSLI,3155950,N,Y,40.7557689,-73.8734231
MLS Listing,,Condo/Co-op,69-60 108th St #414,Forest Hills,NY,11375,249000,2,1,Cromwell Owners Corp,1100,,1951,148,226,,Active,,,http://www.redfin.com/NY/Forest-Hills/6960-108th-St-11375/unit-414/home/92322697,MLSLI,3155801,N,Y,40.7236399,-73.84481
MLS Listing,,Condo/Co-op,67-66 108th St Unit C54,Forest Hills,NY,11375,249000,1,1,George Washington,675,,1949,148,369,,Active,,,http://www.redfin.com/NY/Flushing/67-66-108th-St-11375/unit-C54/home/168655322,MLSLI,3155787,N,Y,40.7271058,-73.8471227
MLS Listing,,Condo/Co-op,25-15 Union St Unit 3F,Flushing,NY,11354,239010,1,1,Linden Hill 1,,,1955,148,,,Active,,,http://www.redfin.com/NY/Flushing/25-15-Union-St-11354/unit-3F/home/20637715,MLSLI,3155769,N,Y,40.7752785,-73.8257542
MLS Listing,,Condo/Co-op,1001 E 108 St Unit 3C,Brooklyn,NY,11236,225000,2,1,Brooklyn,700,,,148,321,,Active,,,http://www.redfin.com/NY/Brooklyn/1001-E-108th-St-11236/unit-3C/home/168653893,BNYMLS,432464,N,Y,40.647157,-73.8899859
MLS Listing,,Condo/Co-op,3210 Arlington Ave Unit 2E,Bronx,NY,10463,239000,1,1,Riverdale,800,,1955,151,299,,Active,,,http://www.redfin.com/NY/The-Bronx/3210-Arlington-Ave-10463/unit-2E/home/44601813,HGMLS,5019193,N,Y,40.8841699,-73.9121918
MLS Listing,,Condo/Co-op,83-84 116th St Unit 3-A,Richmond Hill,NY,11418,239000,1,1,The Ivanhoe,,,1930,152,,,Active,,,http://www.redfin.com/NY/Jamaica/83-84-116th-St-11418/unit-3-A/home/168628635,MLSLI,3154941,N,Y,40.704103,-73.836034
MLS Listing,,Condo/Co-op,138-20 31 Rd Unit 5L,Flushing,NY,11354,238000,1,1,N/A,,,1960,153,,,Active,,,http://www.redfin.com/NY/Flushing/138-20-31st-Rd-11354/unit-5L/home/20638265,MLSLI,3154442,N,Y,40.7703665,-73.8299957
MLS Listing,,Condo/Co-op,251-01 60th Ave #186,Little Neck,NY,11362,229000,1,1,Deepdale Gardens,650,,1950,160,352,,Active,January-12-2020 01:00 PM,January-12-2020 03:00 PM,http://www.redfin.com/NY/Little-Neck/25101-60th-Ave-11362/unit-186/home/168142899,MLSLI,3152303,N,Y,40.7595502,-73.7268689
MLS Listing,,Condo/Co-op,61 Bronx River Rd Unit 7A,Yonkers,NY,10704,225000,2,1,Yonkers,1050,,1958,161,214,,Active,,,http://www.redfin.com/NY/Yonkers/61-Bronx-River-Rd-10704/unit-7A/home/160601883,HGMLS,5009129,N,Y,40.9029789,-73.8602666
MLS Listing,,Condo/Co-op,58-03 Calloway St Unit 6Mm,Corona,NY,11368,228000,1,1,Forest Hills Chateau,,,1965,161,,,Active,,,http://www.redfin.com/NY/Corona/5803-Calloway-St-11368/unit-6MM/home/49742103,MLSLI,3152044,N,Y,40.7381099,-73.85836
MLS Listing,,Condo/Co-op,175-06 Devonshire Rd Unit 3A,Jamaica Estates,NY,11432,225000,1,1,Henley Hall,950,,1953,162,237,,Active,,,http://www.redfin.com/NY/Jamaica/175-06-Devonshire-Rd-11432/unit-3A/home/20648536,MLSLI,3151825,N,Y,40.714422,-73.788665
MLS Listing,,Condo/Co-op,2785 Ocean Pkwy Unit LE,Brooklyn,NY,11235,249000,3,1,Brooklyn,1450,,1964,162,172,,Active,,,http://www.redfin.com/NY/Brooklyn/2785-Ocean-Pkwy-11235/unit-LE/home/168014254,BNYMLS,431989,N,Y,40.581752,-73.966663
MLS Listing,,Condo/Co-op,147-24 Village Rd Unit 81B,Jamaica,NY,11432,225000,2,1,Briarwood,,,1950,162,,,Active,January-12-2020 01:00 PM,January-12-2020 03:30 PM,http://www.redfin.com/NY/Jamaica/147-24-Village-Rd-11435/unit-81B/home/168006111,MLSLI,3151650,N,Y,40.7165153,-73.8131161
MLS Listing,,Condo/Co-op,32-42 92 St Unit B206,E. Elmhurst,NY,11369,239000,1,1,Northridge  1,,,,163,,,Active,,,http://www.redfin.com/NY/Unknown/32-42-92nd-St-11369/unit-B206/home/104314384,MLSLI,3151429,N,Y,40.7570755,-73.8763089
MLS Listing,,Condo/Co-op,3105 Avenue V Unit 1G,Brooklyn,NY,11229,239900,2,1,Brooklyn,955,,,165,251,,Active,,,http://www.redfin.com/NY/Brooklyn/3105-Avenue-V-11229/unit-1G/home/144051982,BNYMLS,432030,N,Y,40.5997081,-73.9344974
MLS Listing,,Condo/Co-op,351 Bay 8 St Unit 1B,Brooklyn,NY,11228,249000,1,1,Brooklyn,650,,1953,166,383,,Active,,,http://www.redfin.com/NY/Brooklyn/351-Bay-8th-St-11228/unit-1B/home/167957986,BNYMLS,432025,N,Y,40.6048317,-74.0173853
MLS Listing,,Single Family Residential,86 Warren St,Staten Island,NY,10304,238777,3,2,Clifton,1136,2475,1930,175,210,,Active,,,http://www.redfin.com/NY/Staten-Island/86-Warren-St-10304/home/56046345,SIBORMLS,1130714,N,Y,40.6207008,-74.0820234
MLS Listing,,Condo/Co-op,545 Castleton Ave,Staten Island,NY,10301,239900,2,1,Randall Manor,760,29000,1950,176,316,878,Active,,,http://www.redfin.com/NY/Staten-Island/545-Castleton-Ave-10301/home/56029885,SIBORMLS,1130669,N,Y,40.634612,-74.100983
MLS Listing,,Condo/Co-op,5615 Netherland Ave Unit 6A,Bronx,NY,10471,245000,2,1,Riverdale,950,,1950,177,258,,Active,,,http://www.redfin.com/NY/The-Bronx/5615-Netherland-Ave-10471/unit-6A/home/44602436,HGMLS,4990815,N,Y,40.9049703,-73.9066342
MLS Listing,,Condo/Co-op,67-08 152nd St Unit 266A,Flushing,NY,11367,249000,1,1,Georgetown Mews,750,,1955,178,332,,Active,,,http://www.redfin.com/NY/Flushing/6708-152nd-St-11367/unit-266A/home/40550203,MLSLI,3147179,N,Y,40.7336339,-73.8176579
MLS Listing,,Condo/Co-op,Unit at 9265 Shore Rd,Brooklyn,NY,11209,235000,0,1,Bay Ridge,,,,178,,,Active,,,http://www.redfin.com/NY/Brooklyn/9265-Shore-Rd-11209/home/167404891,REBNY,FSRN97299,N,Y,40.6193447,-74.0398672
MLS Listing,,Condo/Co-op,555 Kappock St Unit 2N,Bronx,NY,10463,239000,1,1,Riverdale,900,,1968,180,266,,Active,,,http://www.redfin.com/NY/The-Bronx/555-Kappock-St-10463/unit-2N/home/44768438,HGMLS,4987621,N,Y,40.8780303,-73.9169226
MLS Listing,,Condo/Co-op,144-17 79th Ave Unit 3C,Kew Garden Hills,NY,11367,233888,1,1,Kew Terrace,700,,1955,181,334,,Active,,,http://www.redfin.com/NY/Flushing/144-17-79th-Ave-11367/unit-3C/home/167227918,MLSLI,3146316,N,Y,40.7189939,-73.8170923
MLS Listing,,Condo/Co-op,340 E Mosholu Pkwy S Unit 3C,Bronx,NY,10458,225000,2,1,Bronx,938,,1937,184,240,,Active,,,http://www.redfin.com/NY/The-Bronx/340-E-Mosholu-Pkwy-S-10458/unit-3C/home/44800362,HGMLS,4975567,N,Y,40.8704816,-73.8823104
MLS Listing,,Condo/Co-op,90-11 35th Ave Unit 3H,Jackson Heights,NY,11372,239900,2,1,Southview,530,,1958,190,453,,Active,,,http://www.redfin.com/NY/Unknown/90-11-35th-Ave-11372/unit-3H/home/112904279,MLSLI,3143893,N,Y,40.7528037,-73.876822
MLS Listing,,Condo/Co-op,Unit at 230 W 105th St,New York,NY,10025,225000,1,1,Upper West Side,,,,190,,,Active,,,http://www.redfin.com/NY/New-York/230-W-105th-St-10025/home/45163794,REBNY,BHSR19696580,N,Y,40.8001792,-73.9674977
MLS Listing,,Condo/Co-op,5635 Netherland Ave Unit 5G,call Listing Agent,NY,10471,245000,2,1,Riverdale,900,,1949,191,272,,Active,January-11-2020 12:00 PM,January-11-2020 01:30 PM,http://www.redfin.com/NY/The-Bronx/5635-Netherland-Ave-10471/unit-5G/home/44764137,HGMLS,4973565,N,Y,40.9047914,-73.9064174
MLS Listing,,Condo/Co-op,90-11 35th Ave Unit 4N,Jackson Heights,NY,11372,249000,1,1,Southview Owners Corp.,,,1956,194,,674,Active,,,http://www.redfin.com/NY/Flushing/90-11-35th-Ave-11372/unit-4N/home/20629076,MLSLI,3142923,N,Y,40.7528037,-73.876822
MLS Listing,,Condo/Co-op,117-14 Union Tpke Unit FC2,Kew Gardens,NY,11415,246000,1,1,Kew Terrace,,,1923,210,,,Active,,,http://www.redfin.com/NY/Kew-Gardens/117-14-Union-Tpke-11415/unit-FC2/home/20657945,MLSLI,3137743,N,Y,40.7114417,-73.835244
MLS Listing,,Condo/Co-op,69-30 Kissena Blvd #2,Flushing,NY,11367,228000,1,1,Geortown,720,,1945,223,317,,Active,,,http://www.redfin.com/NY/Flushing/6930-Kissena-Blvd-11367/unit-2/home/161140059,MLSLI,3133349,N,Y,40.7328647,-73.8151204
MLS Listing,,Condo/Co-op,1910 Pelham Parkway South Unit 1C,Bronx,NY,10461,250000,2,1.5,Bronx,1100,,1994,229,227,,Active,,,http://www.redfin.com/NY/The-Bronx/1910-Pelham-Pkwy-S-10461/unit-1C/home/44800239,HGMLS,4935168,N,Y,40.8554751,-73.8287353
MLS Listing,,Condo/Co-op,104-20 W 68th Drive Dr Unit B25,Forest Hills,NY,11375,225000,1,1,James Monrow,800,,1950,233,281,,Active,,,http://www.redfin.com/NY/Forest-Hills/103-11-68th-Dr-11375/unit-B25/home/166756250,MLSLI,3130533,N,Y,40.724348,-73.8503272
MLS Listing,,Condo/Co-op,3 Fordham Hill Oval Unit 3C,Bronx,NY,10468,249000,2,1.5,Bronx,950,,1951,233,262,,Active,,,http://www.redfin.com/NY/The-Bronx/3-Fordham-Hill-Oval-10468/unit-3C/home/166753149,HGMLS,4938388,N,Y,40.8646489,-73.9082109
MLS Listing,,Condo/Co-op,629 Kappock St Unit 6N,Bronx,NY,10463,229000,1,1,Riverdale,800,,1960,237,286,,Active,,,http://www.redfin.com/NY/The-Bronx/629-Kappock-St-10463/unit-6N/home/108524522,HGMLS,4928836,N,Y,40.8802503,-73.9168307
MLS Listing,,Condo/Co-op,144-55 Melbourne Ave Unit 5G,Flushing,NY,11367,229000,3,1,Mainstay 1,1200,,1955,240,191,,Active,,,http://www.redfin.com/NY/Flushing/144-55-Melbourne-Ave-11367/unit-5G/home/166583038,MLSLI,3128343,N,Y,40.734848,-73.8232512
MLS Listing,,Condo/Co-op,5614 Netherland Unit 2A,Bronx,NY,10471,230000,2,1,Riverdale,900,,1965,246,256,,Active,,,http://www.redfin.com/NY/The-Bronx/5614-Netherland-Ave-10471/unit-2A/home/165437594,HGMLS,4930827,N,Y,40.9050945,-73.906337
MLS Listing,,Condo/Co-op,83-11 139th St Unit 1D,Briarwood,NY,11435,247888,1,1,Braodmoor,,,1960,251,,,Active,,,http://www.redfin.com/NY/Briarwood/83-11-139th-St-11435/unit-1D/home/164672484,MLSLI,3124737,N,Y,40.7126342,-73.8194141
MLS Listing,,Condo/Co-op,29-50 137 St Unit 3H,Flushing,NY,11354,239900,1,1,north flushing,750,,1960,258,320,,Active,,,http://www.redfin.com/NY/Flushing/29-50-137th-St-11354/unit-3H/home/45466096,MLSLI,3122384,N,Y,40.7702656,-73.8318623
MLS Listing,,Condo/Co-op,14021 Burden Cres,Briarwood,NY,11435,250000,1,1,28,1000,,1952,259,250,,Active,,,http://www.redfin.com/NY/Jamaica/14021-Burden-Cres-11435/unit-508/home/20622699,MLSLI,3122202,N,Y,40.7109399,-73.81505
MLS Listing,,Condo/Co-op,Unit at 35 -40 82nd St,Queens,NY,11372,235000,0,1,Jackson Heights,,,,264,,,Active,,,http://www.redfin.com/NY/Flushing/35-30-82nd-St-11372/home/162731811,REBNY,AKAM1818897,N,Y,40.750805,-73.884783
MLS Listing,,Condo/Co-op,35-40 82 St Unit 4K,Jackson Heights,NY,11372,235000,0,1,Stephen Hall,550,,1936,264,427,,Active,,,http://www.redfin.com/NY/Flushing/35-40-82nd-St-11372/unit-4K/home/162731634,MLSLI,3120852,N,Y,40.7505242,-73.8847507
MLS Listing,,Condo/Co-op,601 Pelham Pkwy N #415,Bronx,NY,10467,230000,1,1,Bronx,900,,1937,266,256,,Active,,,http://www.redfin.com/NY/The-Bronx/601-Pelham-Pkwy-N-10467/unit-415/home/162448318,HGMLS,4922423,N,Y,40.8577513,-73.8706667
MLS Listing,,Condo/Co-op,580 84th St,Brooklyn,NY,11209,250000,1,1,Bay Ridge,819,819,1954,267,305,,Active,,,http://www.redfin.com/NY/Brooklyn/580-84th-St-11209/home/40818351,SIBORMLS,1128013,N,Y,40.6214889,-74.0235749
MLS Listing,,Condo/Co-op,46-01 39 Ave #226,Sunnyside,NY,11104,228000,0,1,Alcove Studio,500,,1961,271,456,,Active,,,http://www.redfin.com/NY/Unknown/46-01-39th-Ave-11104/unit-226/home/147103862,MLSLI,3118962,N,Y,40.749546,-73.917132
MLS Listing,,Condo/Co-op,2711 Avenue X Unit 2K,Brooklyn,NY,11235,250000,1,1,Brooklyn,730,,1961,279,342,,Active,,,http://www.redfin.com/NY/Brooklyn/2711-Avenue-X-11235/unit-2K/home/71608836,BNYMLS,428703,N,Y,40.5937293,-73.9431003
MLS Listing,,Condo/Co-op,Unit at 5900 Arlington Ave,Bronx,NY,10471,245000,1,1,Riverdale,,,,280,,,Active,,,http://www.redfin.com/NY/The-Bronx/5900-Arlington-Ave-10471/home/44769043,REBNY,ARGO1814374,N,Y,40.9092281,-73.9056859
MLS Listing,,Condo/Co-op,Unit at 100 Remsen St,Brooklyn,NY,11201,250000,0,1,Brooklyn Heights,,,,282,,,Active,,,http://www.redfin.com/NY/Brooklyn/100-Remsen-St-11201/home/21745212,REBNY,CITI5711706,N,Y,40.693802,-73.994493
MLS Listing,,Condo/Co-op,37-31 149 St Unit 2L,Flushing,NY,11354,239000,0,1,3731 149 st,600,,1955,282,398,,Active,January-11-2020 02:00 PM,January-11-2020 04:00 PM,http://www.redfin.com/NY/Unknown/3731-149th-St-11354/unit-2L/home/145449029,MLSLI,3114718,N,Y,40.7646349,-73.8165972
MLS Listing,,Condo/Co-op,Unit at 5800 Arlington Ave,Bronx,NY,10471,225000,0,1,Riverdale,,,,282,,,Active,,,http://www.redfin.com/NY/Bronx/5800-Arlington-Ave-10471/home/147794549,REBNY,ARGO941604,N,Y,40.9080135,-73.9055787
MLS Listing,,Condo/Co-op,147-52 charter Rd Unit 37B,Briarwood,NY,11435,249000,2,1,Parkway Village,,,1948,287,,,Active,,,http://www.redfin.com/NY/Jamaica/147-52-Charter-Rd-11435/unit-37B/home/160766412,MLSLI,3112993,N,Y,40.7177385,-73.812474
MLS Listing,,Condo/Co-op,Unit at 4901 Henry Hudson Pkwy W,Bronx,NY,10471,245000,1,1,Riverdale,,,,301,,,Active,,,http://www.redfin.com/NY/Bronx/4901-Henry-Hudson-Pkwy-W-10471/home/160678162,REBNY,SOTH774190,N,Y,40.8968048,-73.9087471
MLS Listing,,Condo/Co-op,1973 81 St Unit F5,Brooklyn,NY,11214,234888,1,1,Brooklyn,450,,,308,522,,Active,,,http://www.redfin.com/NY/Brooklyn/1973-81-St-11214/unit-F5/home/160605672,BNYMLS,427806,N,Y,40.607756,-73.99533
MLS Listing,,Condo/Co-op,57-15 246 Cres,Douglaston,NY,11362,239000,1,1,Beech Hills,,,1952,309,,,Active,,,http://www.redfin.com/NY/Unknown/57-15-246th-Cres-11362/Lowr/home/101779732,MLSLI,3106357,N,Y,40.7580414,-73.7359058
MLS Listing,,Condo/Co-op,9 Argyle Rd Unit 3A,Brooklyn,NY,11218,249000,0,1,Brooklyn,500,,,328,498,,Active,,,http://www.redfin.com/NY/Unknown/9-Argyle-Rd-11218/unit-3A/home/145304088,BNYMLS,427270,N,Y,40.6493238,-73.9675525
MLS Listing,,Condo/Co-op,260 Beach 81 St Unit 2G,Rockaway Beach,NY,11693,249000,2,1,Holland,,,2006,345,,,Active,,,http://www.redfin.com/NY/Far-Rockaway/260-Beach-81st-St-11693/unit-2G/home/23181912,MLSLI,3096695,N,Y,40.5894261,-73.8070759
MLS Listing,,Condo/Co-op,Unit at 3725 Henry Hudson Pkwy W,Bronx,NY,10463,225000,1,1,Riverdale,,,,351,,,Active,,,http://www.redfin.com/NY/Bronx/3725-Henry-Hudson-Pkwy-W-10463/home/148752526,REBNY,BHSR19385832,N,Y,40.8889197,-73.9106761
MLS Listing,,Condo/Co-op,9 Argyle Rd Unit 1B,Brooklyn,NY,11218,235000,0,1,Brooklyn,400,,,359,588,,Active,January-11-2020 01:30 PM,January-11-2020 02:30 PM,http://www.redfin.com/NY/Unknown/9-Argyle-Rd-11218/unit-1B/home/145307460,BNYMLS,426442,N,Y,40.6493238,-73.9675525
MLS Listing,,Condo/Co-op,9 Argyle Rd Unit 1A,Brooklyn,NY,11218,249000,0,1,Brooklyn,500,,,359,498,,Active,January-11-2020 01:30 PM,January-11-2020 02:30 PM,http://www.redfin.com/NY/Unknown/9-Argyle-Rd-11218/unit-1A/home/145317256,BNYMLS,426437,N,Y,40.6493238,-73.9675525
MLS Listing,,Condo/Co-op,Unit at 409 Edgecombe Ave,New York,NY,10031,230999,1,1,Harlem,,,,362,,,Active,,,http://www.redfin.com/NY/New-York/409-Edgecombe-Ave-10032/home/148704522,REBNY,DEGI3589305,N,Y,40.829362,-73.940078
MLS Listing,,Condo/Co-op,28-02 Parsons Blvd Unit 2D,Flushing,NY,11354,245000,1,1,Linden Hill,,,1960,454,,,Active,,,http://www.redfin.com/NY/Flushing/28-02-Parsons-Blvd-11354/unit-2D/home/147556752,MLSLI,3072595,N,Y,40.7729922,-73.8249376
MLS Listing,,Condo/Co-op,3855 Shore Pkwy Unit 4A,Brooklyn,NY,11235,234000,2,1,Brooklyn,900,,,491,260,,Active,,,http://www.redfin.com/NY/Brooklyn/3855-Shore-Pkwy-11235/unit-4A/home/40661879,BNYMLS,423291,N,Y,40.5873198,-73.9331348
MLS Listing,,Condo/Co-op,1199 E 53 St Unit 6U,Brooklyn,NY,11234,238999,2,1,Brooklyn,900,,,496,266,,Active,,,http://www.redfin.com/NY/Brooklyn/1199-E-53rd-St-11234/unit-6U/home/40661231,BNYMLS,423212,N,Y,40.6296166,-73.9245466
MLS Listing,,Condo/Co-op,Unit at 37 -31 73rd St,Queens,NY,11372,249000,1,1,Jackson Heights,,,,825,,,Active,,,http://www.redfin.com/NY/Jackson-Heights/37-49-73rd-St-11372/home/146214242,REBNY,HALS17594687,N,Y,40.7475009,-73.892352
MLS Listing,,Condo/Co-op,Unit at 5715 Mosholu Ave,Bronx,NY,10471,249000,2,1,North Riverdale,,,,945,,,Active,,,http://www.redfin.com/NY/Bronx/5715-Mosholu-Ave-10471/home/114948772,REBNY,BACH12764207,N,Y,40.9057959,-73.90002
MLS Listing,,Vacant Land,64 Cedarcliff Rd,Staten Island,NY,10301,229900,0,,Grymes Hill,,5708,,1526,,,Active,,,http://www.redfin.com/NY/Staten-Island/64-Cedarcliff-Rd-10301/home/77422923,SIBORMLS,1099780,N,Y,40.6172148,-74.0900061
For-Sale-by-Owner Listing,,Condo/Co-op,750B Brook Ave Unit 2b,The Bronx,NY,10451,249000,2,1,Bronx,,,1994,271,,,Active,,,http://www.redfin.com/NY/The-Bronx/750B-Brook-Ave-10451/unit-2b/home/161577787,Fizber.com,5011879,N,Y,40.81991,-73.911066
