SALE TYPE,SOLD DATE,PROPERTY TYPE,ADDRESS,CITY,STATE OR PROVINCE,ZIP OR POSTAL CODE,PRICE,BEDS,BATHS,LOCATION,SQUARE FEET,LOT SIZE,YEAR BUILT,DAYS ON MARKET,$/SQUARE FEET,HOA/MONTH,STATUS,NEXT OPEN HOUSE START TIME,NEXT OPEN HOUSE END TIME,URL (SEE http://www.redfin.com/buy-a-home/comparative-market-analysis FOR INFO ON PRICING),SOURCE,MLS#,FAVORITE,INTERESTED,LATITUDE,LONGITUDE
MLS Listing,,Condo/Co-op,Unit at 18 -40 211th St,Queens,NY,11360,275000,1,1,Bayside,,,,1,,,Active,,,http://www.redfin.com/NY/Bayside/18-65-211th-St-11360/home/170270756,REBNY,DEGI4075559,N,Y,40.780811,-73.7810179
MLS Listing,,Condo/Co-op,4240 Bowne St Unit 1fl,Flushing,NY,11355,299900,1,1,Bowne House,,,1950,3,,,Active,,,http://www.redfin.com/NY/Flushing/42-40-Bowne-St-11355/unit-1fl/home/170268601,MLSLI,3191042,N,Y,40.756144,-73.8213672
MLS Listing,,Single Family Residential,16A Dunne Pl,Brooklyn,NY,11235,299000,3,1,Brooklyn,740,2337,1920,3,404,,Active,,,http://www.redfin.com/NY/Brooklyn/16-Dunne-Pl-11235/unit-A/home/40909189,BNYMLS,435850,N,Y,40.585174,-73.937402
MLS Listing,,Condo/Co-op,70-25 Yellowstone Blvd Unit 14B,Forest Hills,NY,11375,278000,0,1,Gerard Towers,,,1964,3,,,Active,,,http://www.redfin.com/NY/Forest-Hills/7025-Yellowstone-Blvd-11375/unit-14B/home/85822280,MLSLI,3190939,N,Y,40.722153,-73.849255
MLS Listing,,Single Family Residential,84 Mclaughlin St,Staten Island,NY,10305,298000,2,1,South Beach,378,2400,1925,3,788,,Active,,,http://www.redfin.com/NY/Staten-Island/84-McLaughlin-St-10305/home/56107935,SIBORMLS,1134774,N,Y,40.5893477,-74.0731466
MLS Listing,,Condo/Co-op,125-10 Queens Blvd Unit 21-06,Kew Gardens,NY,11415,299000,1,1,Silver Towers,,,1960,3,,,Active,,,http://www.redfin.com/NY/Kew-Gardens/12510-Queens-Blvd-11415/unit-2106/home/21689218,MLSLI,3190815,N,Y,40.7124099,-73.8264399
MLS Listing,,Condo/Co-op,102-35 67th Rd Unit 3M,Forest Hills,NY,11375,299000,1,1,River Gardens,800,,1957,3,374,,Active,,,http://www.redfin.com/NY/Forest-Hills/102-35-67th-Rd-11375/unit-3M/home/21692190,MLSLI,3190777,N,Y,40.7274558,-73.8505206
MLS Listing,,Condo/Co-op,209-15 18 Ave Unit 3K,Bayside,NY,11360,275000,2,1,Bay Terrace,,,1960,4,,,Active,,,http://www.redfin.com/NY/Unknown/209-15-18th-Ave-11360/unit-3K/home/147265122,MLSLI,3190683,N,Y,40.7820858,-73.7844721
MLS Listing,,Condo/Co-op,3875 Waldo Ave Unit 10P,Bronx,NY,10463,280000,1,1,Bronx,900,,1931,4,311,,Active,,,http://www.redfin.com/NY/The-Bronx/3875-Waldo-Ave-10463/unit-10P/home/44766074,HGMLS,6003025,N,Y,40.8890553,-73.9033819
MLS Listing,,Multi-Family (2-4 Unit),518 Mclean Ave,Yonkers,NY,10705,300000,4,2.5,Yonkers,1440,2909,1964,4,208,,Active,,,http://www.redfin.com/NY/Yonkers/518-McLean-Ave-10705/home/20181338,HGMLS,6003012,N,Y,40.912027,-73.881245
MLS Listing,,Condo/Co-op,15054 Melbourne Ave Unit 257A,Flushing,NY,11367,285000,1,1,Flushing,780,,1951,4,365,,Active,,,http://www.redfin.com/NY/Flushing/15054-Melbourne-Ave-11367/unit-257A/home/170241372,BNYMLS,435781,N,Y,40.7337,-73.8182009
MLS Listing,,Condo/Co-op,162-40 9th Ave Unit 9C,Beechhurst,NY,11357,295000,1,1,Lehavre On The Water,,,1954,4,,,Active,,,http://www.redfin.com/NY/Whitestone/162-40-9th-Ave-11357/unit-9C/home/20625640,MLSLI,3190528,N,Y,40.7927628,-73.7982877
MLS Listing,,Multi-Family (2-4 Unit),520 Mclean Ave,Yonkers,NY,10705,300000,4,2.5,Yonkers,1440,,1964,5,208,,Active,,,http://www.redfin.com/NY/Yonkers/520-McLean-Ave-10705/home/20181637,HGMLS,6002688,N,Y,40.912095,-73.88118
MLS Listing,,Condo/Co-op,1020 Grand Concourse Unit 18X,Bronx,NY,10451,295000,1,1,Bronx,,,1963,5,,,Active,,,http://www.redfin.com/NY/The-Bronx/1020-Grand-Concourse-10451/unit-18X/home/44801221,HGMLS,6002584,N,Y,40.8301176,-73.9202637
MLS Listing,,Condo/Co-op,822A Leland Ave Unit A,Bronx,NY,10473,275000,2,2,Bronx,936,35479,1988,5,294,,Active,,,http://www.redfin.com/NY/The-Bronx/822A-Leland-Ave-10473/unit-A/home/170230714,HGMLS,5127728,N,Y,40.822719,-73.861198
MLS Listing,,Condo/Co-op,32-25 90th St #310,Elmhurst,NY,11373,280000,1,1,Northridge Sect 2,,,1952,6,,,Active,,,http://www.redfin.com/NY/Elmhurst/3225-90th-ST-11373/unit-310/home/170226815,MLSLI,3190092,N,Y,40.737975,-73.8801301
MLS Listing,,Condo/Co-op,Unit at 37 -30 73rd St,Queens,NY,11372,280000,0,1,Jackson Heights,,,,6,,,Active,,,http://www.redfin.com/NY/Jackson-Heights/37-49-73rd-St-11372/home/170226513,REBNY,DEGI4067728,N,Y,40.7475009,-73.892352
MLS Listing,,Condo/Co-op,35-30 73rd St Unit 1G,Jackson Heights,NY,11372,275000,0,1,The Surrey,,,1937,6,,,Active,,,http://www.redfin.com/NY/Jackson-Heights/35-30-73rd-St-11372/unit-1G/home/148445636,MLSLI,3190027,N,Y,40.7499931,-73.8930492
MLS Listing,,Single Family Residential,4199 Amboy Rd Unit 5b,Staten Island,NY,10308,289000,1,1,Great Kills,693,693,1984,6,417,230,Active,,,http://www.redfin.com/NY/Staten-Island/4199A-Amboy-Rd-10308/unit-5B/home/56096607,SIBORMLS,1134679,N,Y,40.5481699,-74.1564175
MLS Listing,,Condo/Co-op,880 Boynton Ave Unit 4K,Bronx,NY,10473,299000,2,1,Bronx,900,,1962,6,332,,Active,,,http://www.redfin.com/NY/The-Bronx/880-Boynton-Ave-10473/unit-4K/home/59301928,HGMLS,6002186,N,Y,40.8214086,-73.8759497
MLS Listing,,Condo/Co-op,145 Lincoln Ave Unit 7t,Staten Island,NY,10306,299000,2,1,Grant City,878,878,1965,6,341,567,Active,,,http://www.redfin.com/NY/Staten-Island/145-Lincoln-Ave-10306/unit-7T/home/56075851,SIBORMLS,1134670,N,Y,40.579062,-74.1076165
MLS Listing,,Condo/Co-op,Unit at 282 E 35th St,Brooklyn,NY,11203,275000,1,1,Flatbush,,,,6,,,Active,,,http://www.redfin.com/NY/Brooklyn/282-E-35th-St-11203/home/143294569,REBNY,DEGI4062289,N,Y,40.648202,-73.944799
MLS Listing,,Condo/Co-op,875 Morrison Ave Unit 3F,Bronx,NY,10473,299000,2,1,Bronx,900,,1962,6,332,,Active,,,http://www.redfin.com/NY/The-Bronx/875-Morrison-Ave-10473/unit-3F/home/59301812,HGMLS,6002167,N,Y,40.8216704,-73.873469
MLS Listing,,Condo/Co-op,Unit at 102-10 66th Rd,Queens,NY,11375,295000,0,1,Forest Hills,,,,6,,,Active,,,http://www.redfin.com/NY/Flushing/102-10-66th-Rd-11375/home/20655648,REBNY,HALS20009350,N,Y,40.7282586,-73.8513251
MLS Listing,,Condo/Co-op,1100 Clove Rd Unit 10e,Staten Island,NY,10301,285000,1,1,Clove Lake,800,800,1968,6,356,1045,Active,,,http://www.redfin.com/NY/Staten-Island/1100-Clove-Rd-10301/unit-10E/home/77420551,SIBORMLS,1134661,N,Y,40.6189484,-74.1071576
MLS Listing,,Condo/Co-op,880 Boynton Ave Unit 9E,Bronx,NY,10473,299000,2,1,Bronx,900,,1962,6,332,,Active,,,http://www.redfin.com/NY/The-Bronx/880-Boynton-Ave-10473/unit-9E/home/59302086,HGMLS,6002097,N,Y,40.8214086,-73.8759497
MLS Listing,,Condo/Co-op,820 Boynton Ave Unit 9G,Bronx,NY,10473,299000,2,1,Bronx,900,,1962,7,332,,Active,,,http://www.redfin.com/NY/The-Bronx/820-Boynton-Ave-10473/unit-9G/home/59302047,HGMLS,6001923,N,Y,40.8203107,-73.8756463
MLS Listing,,Condo/Co-op,875 Morrison Ave Unit 18C,Bronx,NY,10473,299000,2,1,Bronx,900,,1962,7,332,,Active,,,http://www.redfin.com/NY/The-Bronx/875-Morrison-Ave-10473/unit-18C/home/59302251,HGMLS,6001901,N,Y,40.8216704,-73.873469
MLS Listing,,Condo/Co-op,167-05 12th Ave Unit 7D,Beechhurst,NY,11357,279000,1,1,Le-Harve On The Water,,,1958,7,,,Active,,,http://www.redfin.com/NY/Flushing/167-05-12th-Ave-11357/unit-7D/home/144517221,MLSLI,3189615,N,Y,40.791758,-73.796695
MLS Listing,,Condo/Co-op,10104 4 Ave Unit 1D,Brooklyn,NY,11209,278000,1,1,Brooklyn,750,,1926,7,371,,Active,,,http://www.redfin.com/NY/Brooklyn/10104-4th-Ave-11209/unit-1D/home/40672317,BNYMLS,435655,N,Y,40.6123655,-74.0344873
MLS Listing,,Single Family Residential,66 Washington Blvd,Mount Vernon,NY,10550,300000,4,3,Mount Vernon,1800,3145,1910,7,167,,Active,,,http://www.redfin.com/NY/Mt-Vernon/66-Washington-Blvd-10550/home/20212473,HGMLS,6000185,N,Y,40.8931118,-73.8295693
MLS Listing,,Condo/Co-op,83-77 Woodhaven Unit 4K,Woodhaven,NY,11421,293000,2,1,Hudson,,,1954,7,,658,Active,,,http://www.redfin.com/NY/Woodhaven/83-77-Woodhaven-Blvd-11421/unit-4K/home/148540526,MLSLI,3189485,N,Y,40.6992759,-73.8526984
MLS Listing,,Condo/Co-op,61-15 98 St Unit 15L,Rego Park,NY,11374,290000,1,1,Park City Estates,,,1960,9,,,Active,,,http://www.redfin.com/NY/Flushing/61-15-98th-St-11374/unit-15L/home/170214357,MLSLI,3189289,N,Y,40.7346339,-73.8602384
MLS Listing,,Condo/Co-op,2331 Ocean Ave Unit 5B,Brooklyn,NY,11229,290000,1,1,Brooklyn,780,,,10,372,,Active,,,http://www.redfin.com/NY/Brooklyn/2331-Ocean-Ave-11229/unit-5B/home/40652583,BNYMLS,435648,N,Y,40.6048368,-73.9521009
MLS Listing,,Condo/Co-op,83-30 98th St Unit 5A,Woodhaven,NY,11421,279900,2,1,Forest Park Coops,,,1955,10,,,Active,,,http://www.redfin.com/NY/Woodhaven/83-30-98th-St-11421/unit-5A/home/170206087,MLSLI,3189017,N,Y,40.6993567,-73.8506876
MLS Listing,,Condo/Co-op,86-10 151 Ave Unit 6L,Howard Beach,NY,11414,275000,2,2,Greenwood Arms 1,,,1965,10,,1016,Active,,,http://www.redfin.com/NY/Jamaica/86-10-151st-Ave-11414/unit-6L/home/144211701,MLSLI,3188997,N,Y,40.667896,-73.848862
MLS Listing,,Condo/Co-op,241-20 Northern Blvd Unit 5P,Douglaston,NY,11362,279900,1,1,Manor House,,,1964,10,,,Active,,,http://www.redfin.com/NY/Douglaston/24120-Northern-BLVD-11363/unit-5P/home/163741077,MLSLI,3188970,N,Y,40.7640151,-73.7433727
MLS Listing,,Condo/Co-op,11 Windham Loop Unit 4jj,Staten Island,NY,10314,299900,1,1,New Springville,753,753,1981,10,398,381,Active,,,http://www.redfin.com/NY/Staten-Island/11-Windham-Loop-10314/unit-4JJ/home/56082354,SIBORMLS,1134557,N,Y,40.5779054,-74.1622904
MLS Listing,,Condo/Co-op,75-08 Bell Blvd Unit 4L,Bayside,NY,11364,280000,1,1,Windsor Park,,,1955,11,,,Active,,,http://www.redfin.com/NY/Oakland-Gardens/75-08-Bell-Blvd-11364/unit-4L/home/170195217,MLSLI,3188802,N,Y,40.7382817,-73.7575341
MLS Listing,,Condo/Co-op,11-01 162nd St Unit 7B,Beechhurst,NY,11357,298888,1,1,Le Havre On The Water,,,1953,11,,,Active,,,http://www.redfin.com/NY/Flushing/11-01-162nd-St-11357/unit-7B/home/170194139,MLSLI,3188623,N,Y,40.7916391,-73.7996514
MLS Listing,,Condo/Co-op,Unit at 649 Second Ave,New York,NY,10016,295000,0,1,Middle East Side,,,,11,,,Active,,,http://www.redfin.com/NY/New-York/649-2nd-Ave-10016/home/45147978,REBNY,DEGI4047638,N,Y,40.7458821,-73.9754313
MLS Listing,,Condo/Co-op,27110 Grand Central Pkwy Unit 2Y,Floral Park,NY,11005,299000,1,1,North Shore Towers,830,,1975,12,360,,Active,,,http://www.redfin.com/NY/Queens/271-10-Grand-Central-Pkwy-11005/unit-2Y/home/20637894,MLSLI,3188406,N,Y,40.7574839,-73.7138635
MLS Listing,,Vacant Land,202 Sheffield Ave,Brooklyn,NY,11207,299000,,,Brooklyn,,2100,,13,,,Active,,,http://www.redfin.com/NY/Brooklyn/202-Sheffield-Ave-11207/home/166943546,BNYMLS,435583,N,Y,40.6726255,-73.8975665
MLS Listing,,Condo/Co-op,2680 E 19 St Unit 3G,Brooklyn,NY,11235,275000,1,1,Brooklyn,760,,,13,362,,Active,,,http://www.redfin.com/NY/Brooklyn/2680-E-19th-St-11235/unit-3G/home/40661509,BNYMLS,435519,N,Y,40.5864358,-73.9504828
MLS Listing,,Condo/Co-op,1507 Metropolitan Ave Unit TH,Bronx,NY,10462,275000,2,1,Bronx,811,,1940,14,339,813,Active,,,http://www.redfin.com/NY/The-Bronx/1507-Metropolitan-Ave-10462/unit-TH/home/44807474,HGMLS,5130210,N,Y,40.8402554,-73.8597879
MLS Listing,,Condo/Co-op,83-60 Vietor Ave Unit 6H,Elmhurst,NY,11373,275000,0,1,8360 Vietor Av Associate,525,,,14,524,,Active,,,http://www.redfin.com/NY/Flushing/83-60-Vietor-Ave-11373/unit-6H/home/170176314,MLSLI,3188204,N,Y,40.743618,-73.880514
MLS Listing,,Condo/Co-op,139-50 35Ave Unit 7F,Flushing,NY,11354,288000,2,1,Nb Owners Corp,,,1950,14,,,Active,,,http://www.redfin.com/NY/Flushing/139-50-35th-Ave-11354/unit-7F/home/21955283,MLSLI,3188202,N,Y,40.765021,-73.825585
MLS Listing,,Single Family Residential,227-14 106th Ave,Queens Village,NY,11429,299000,0,,Queens Village,,9500,,17,,,Active,,,http://www.redfin.com/NY/Queens-Village/227-14-106th-Ave-11429/home/57250416,MLSLI,3187889,N,Y,40.7085926,-73.728713
MLS Listing,,Condo/Co-op,1496 212 St,Bayside,NY,11360,279000,1,1,Bay Terrace Gardens,,,1953,17,,,Active,,,http://www.redfin.com/NY/Bayside/14-96-212th-St-11360/Lowr/home/50259751,MLSLI,3187871,N,Y,40.7855723,-73.7819528
MLS Listing,,Condo/Co-op,601 Kappock St Unit 3M,Bronx,NY,10463,284900,1,1,Riverdale,900,,1961,18,317,,Active,,,http://www.redfin.com/NY/The-Bronx/601-Kappock-St-10463/unit-3M/home/44755455,HGMLS,5129378,N,Y,40.8789773,-73.916004
MLS Listing,,Condo/Co-op,Unit at 110 Cambridge Pl,Brooklyn,NY,11238,300000,2,1,Clinton Hill,,,,18,,,Active,,,http://www.redfin.com/NY/Brooklyn/110-Cambridge-Pl-11238/home/170164270,REBNY,DEGI4052976,N,Y,40.683784,-73.96319
MLS Listing,,Condo/Co-op,1530 E 8 St Unit 3K,Brooklyn,NY,11230,279000,1,1,Brooklyn,690,,1963,18,404,,Active,,,http://www.redfin.com/NY/Brooklyn/1530-E-8th-St-11230/unit-3K/home/170164125,BNYMLS,435533,N,Y,40.6113352,-73.9658108
MLS Listing,,Condo/Co-op,Unit at 2 E 55th St,New York,NY,10022,300000,2,2,Middle West Side,,,,18,,,Active,,,http://www.redfin.com/NY/New-York/2-E-55th-St-10022/home/115310653,REBNY,DEGI4055623,N,Y,40.7613979,-73.9746128
MLS Listing,,Condo/Co-op,Unit at 225 E 36th St,New York,NY,10016,295000,0,1,Murray Hill Kips Bay,,,,18,,,Active,,,http://www.redfin.com/NY/New-York/225-E-36th-St-10016/home/170163075,REBNY,UCOM1863360,N,Y,40.746657,-73.975801
MLS Listing,,Condo/Co-op,Unit at 120 Bennett Ave,New York,NY,10033,299000,0,1,Washington Heights,,,,18,,,Active,,,http://www.redfin.com/NY/New-York/120-Bennett-Ave-10033/home/45165830,REBNY,CITI5953580,N,Y,40.8542791,-73.9350293
MLS Listing,,Condo/Co-op,Unit at 2 E 55th St,New York,NY,10022,295000,2,3,Middle West Side,,,,18,,,Active,,,http://www.redfin.com/NY/New-York/2-E-55th-St-10022/home/114847480,REBNY,DEGI4053693,N,Y,40.7613979,-73.9746128
MLS Listing,,Condo/Co-op,Unit at 35 -38 75th St,Queens,NY,11372,289000,0,1,Jackson Heights,,,,18,,,Active,,,http://www.redfin.com/NY/Jackson-Heights/35-48-75th-St-11372/home/170163051,REBNY,ARGO1863133,N,Y,40.7498493,-73.8912216
MLS Listing,,Condo/Co-op,38-15 149th St Unit L1,Flushing,NY,11354,295000,1,1,Murray Hill,,,1955,21,,,Active,,,http://www.redfin.com/NY/Flushing/38-15-149th-St-11354/unit-L1/home/170157635,MLSLI,3187516,N,Y,40.763716,-73.816271
MLS Listing,,Condo/Co-op,288 Bay 19 St Unit B,Brooklyn,NY,11214,300000,1,1,Brooklyn,650,,,21,462,,Active,,,http://www.redfin.com/NY/Brooklyn/288-Bay-19th-St-11214/unit-B/home/40652005,BNYMLS,435516,N,Y,40.6011088,-74.0081285
MLS Listing,,Condo/Co-op,3090 Voorhies Ave Unit 1K,Brooklyn,NY,11235,299000,2,1,Brooklyn,1000,,,22,299,,Active,,,http://www.redfin.com/NY/Brooklyn/3090-Voorhies-Ave-11235/unit-1K/home/40654534,BNYMLS,435494,N,Y,40.5877511,-73.933092
MLS Listing,,Condo/Co-op,2209 Knapp St Unit 4F,Brooklyn,NY,11229,299000,3,1,Brooklyn,1100,,1951,23,272,,Active,,,http://www.redfin.com/NY/Brooklyn/2209-Knapp-St-11229/unit-4F/home/40654678,BNYMLS,435496,N,Y,40.5992244,-73.9336377
MLS Listing,,Condo/Co-op,150-40 71st Ave Unit 4L,Kew Garden Hills,NY,11367,298000,1,1,Dara Gardens,780,,1952,24,382,720,Active,,,http://www.redfin.com/NY/Flushing/150-40-71st-Ave-11367/unit-4L/home/20627673,MLSLI,3187253,N,Y,40.7292716,-73.8167417
MLS Listing,,Single Family Residential,292 Lockman Ave,Staten Island,NY,10303,299000,3,2,Mariners Harbor,1040,880,1989,25,288,,Active,,,http://www.redfin.com/NY/Staten-Island/292-Lockman-Ave-10303/home/56115881,SIBORMLS,1134389,N,Y,40.629741,-74.161989
MLS Listing,,Condo/Co-op,117-14 Union Tpke Unit BE2,Kew Gardens,NY,11415,279000,1,1,Kew Terrace,,,1923,26,,,Active,,,http://www.redfin.com/NY/Kew-Gardens/117-14-Union-Tpke-11415/unit-BE2/home/20637727,MLSLI,3186943,N,Y,40.7114417,-73.835244
MLS Listing,,Condo/Co-op,84-51 Beverly Rd Unit 4E,Kew Gardens,NY,11415,280000,1,1,Beverly House,800,,1940,26,350,,Active,,,http://www.redfin.com/NY/Kew-Gardens/84-51-Beverly-Rd-11415/unit-4E/home/20629058,MLSLI,3186907,N,Y,40.7074953,-73.8294945
MLS Listing,,Condo/Co-op,3025 Ocean Ave Unit B1,Brooklyn,NY,11235,295000,2,1,Brooklyn,925,,,26,319,,Active,January-16-2020 07:00 PM,January-16-2020 08:30 PM,http://www.redfin.com/NY/Brooklyn/3025-Ocean-Ave-11235/unit-B1/home/170126689,BNYMLS,435435,N,Y,40.5874249,-73.9487987
MLS Listing,,Condo/Co-op,2160 E Tremont Ave Unit 3B,Bronx,NY,10462,279999,2,1,Bronx,834,,1940,27,336,855,Active,,,http://www.redfin.com/NY/The-Bronx/2160-E-Tremont-Ave-10462/unit-3B/home/44746392,HGMLS,5127471,N,Y,40.8411852,-73.8561732
MLS Listing,,Condo/Co-op,145 Lincoln Ave Unit 7 N,Staten Island,NY,10305,279999,2,1,Grant City,862,862,1965,27,325,562,Active,,,http://www.redfin.com/NY/Staten-Island/145-Lincoln-Ave-10306/unit-7N/home/56075311,SIBORMLS,1134357,N,Y,40.579062,-74.1076165
MLS Listing,,Condo/Co-op,18 Metropolitan Oval Unit 8A,Bronx,NY,10462,275000,2,1,Bronx,829,,1941,28,332,,Active,,,http://www.redfin.com/NY/The-Bronx/18-Metropolitan-Oval-10462/unit-8A/home/44791988,HGMLS,5127239,N,Y,40.8385841,-73.8577823
MLS Listing,,Condo/Co-op,Unit at 828 Gerard Ave,Bronx,NY,10451,280000,1,1,The Bronx ( Other),,,,28,,,Active,,,http://www.redfin.com/NY/The-Bronx/828-Gerard-Ave-10451/home/170112106,REBNY,DEGI4025797,N,Y,40.8260891,-73.9254652
MLS Listing,,Condo/Co-op,103-30 68 Ave Unit 4C,Forest Hills,NY,11375,275000,1,1,Boulevard Apts,750,,1949,30,367,792,Active,,,http://www.redfin.com/NY/Forest-Hills/103-30A-68th-Ave-11375/unit-4C/home/170106294,MLSLI,3186279,N,Y,40.7258473,-73.8498146
MLS Listing,,Condo/Co-op,861 Underhill Ave Unit C,Bronx,NY,10473,290000,2,1.5,Bronx,936,,1988,31,310,495,Active,,,http://www.redfin.com/NY/The-Bronx/861-Underhill-Ave-10473/unit-C/home/170088958,HGMLS,5126336,N,Y,40.8232351,-73.8606939
MLS Listing,,Condo/Co-op,118-17 Union Tpke Unit 7A,Forest Hills,NY,11375,299000,1,1,Park Lane North,800,,1973,32,374,,Active,,,http://www.redfin.com/NY/Forest-Hills/118-17-Union-Tpke-11375/unit-7A/home/21618347,MLSLI,3185871,N,Y,40.7129779,-73.8345967
MLS Listing,,Condo/Co-op,67-96 223 Pl Unit A,Bayside,NY,11364,299999,2,1,Estate Of Bayside,620,,1947,32,484,,Active,,,http://www.redfin.com/NY/Oakland-Gardens/67-96-223rd-Pl-11364/unit-A/home/170065991,MLSLI,3185824,N,Y,40.7448177,-73.7518694
MLS Listing,,Condo/Co-op,,Forest Hills,NY,11375,287000,1,1,Quality & Ruskin,,,1955,33,,,Active,,,http://www.redfin.com/NY/Forest-Hills/Undisclosed-address-11375/home/40176386,MLSLI,3185702,N,Y,40.7293604,-73.847976
MLS Listing,,Condo/Co-op,102-17 64 Rd Unit 5F,Forest Hills,NY,11375,299999,1,1,64 Apartment Corp,819,,1949,33,366,,Active,,,http://www.redfin.com/NY/Forest-Hills/102-17-64th-Rd-11375/unit-5F/home/170058358,MLSLI,3185672,N,Y,40.7314663,-73.8527035
MLS Listing,,Condo/Co-op,105-38 64 Rd Unit 6J,Forest Hills,NY,11375,299000,1,1,Boulevard Tenants Corp.,,,1950,33,,,Active,,,http://www.redfin.com/NY/Forest-Hills/105-38-64th-Rd-11375/unit-6J/home/170058075,MLSLI,3185643,N,Y,40.7316491,-73.8500977
MLS Listing,,Condo/Co-op,2427 East 29 St Unit 4L,Brooklyn,NY,11235,295000,2,1,Brooklyn,900,,1958,34,328,,Active,,,http://www.redfin.com/NY/Brooklyn/2427-E-29th-St-11235/unit-4L/home/166867173,BNYMLS,435231,N,Y,40.5928037,-73.9412171
MLS Listing,,Single Family Residential,113-25 204 St,St. Albans,NY,11412,300000,3,1,St. Albans,,2000,1930,35,,,Active,,,http://www.redfin.com/NY/Jamaica/113-25-204th-St-11412/home/20738981,MLSLI,3185209,N,Y,40.701587,-73.751109
MLS Listing,,Condo/Co-op,138-33 Jewel Ave Unit 1A,Kew Garden Hills,NY,11367,285000,1,1,Joyce Equities,,,1950,35,,,Active,,,http://www.redfin.com/NY/Flushing/138-33-Jewel-Ave-11367/unit-1A/home/39524010,MLSLI,3185202,N,Y,40.7299538,-73.8271311
MLS Listing,,Condo/Co-op,252 Beach 129 St Unit 4A,Belle Harbor,NY,11694,279000,1,1,Beller Harbor Co-Op,,,1960,35,,,Active,,,http://www.redfin.com/NY/Rockaway-Park/252-Beach-129th-St-11694/unit-4A/home/21683662,MLSLI,3185095,N,Y,40.577598,-73.84851
MLS Listing,,Vacant Land,111-29 Van Wyck Expy,Jamaica,NY,11435,279000,,,Jamaica,,2480,,35,,,Active,,,http://www.redfin.com/NY/Jamaica/111-29-Van-Wyck-Expy-11435/home/20715331,MLSLI,3185067,N,Y,40.684062,-73.805366
MLS Listing,,Condo/Co-op,Unit at 204 W 118th St,New York,NY,10026,285000,1,1,Central Harlem,,,,38,,,Active,,,http://www.redfin.com/NY/New-York/204-W-118th-St-10026/home/170023145,REBNY,HALS19981488,N,Y,40.804536,-73.952219
MLS Listing,,Condo/Co-op,23-20 Bell Blvd Unit 6d,Bayside,NY,11360,279000,1,1,Section 12,,,1963,38,,,Active,,,http://www.redfin.com/NY/Bayside/23-20-Bell-Blvd-11360/unit-6D/home/20653922,MLSLI,3184751,N,Y,40.781705,-73.7765137
MLS Listing,,Condo/Co-op,Unit at 100 W 57th St,New York,NY,10019,299000,1,1,Middle West Side,,,,39,,,Active,,,http://www.redfin.com/NY/New-York/100-W-57th-St-10019/home/170016640,REBNY,ASHW2822797,N,Y,40.764034,-73.9777228
MLS Listing,,Condo/Co-op,144-44 41Ave,Flushing,NY,11355,288000,1,1,Birchwood,,,1959,39,,,Active,,,http://www.redfin.com/NY/Flushing/144-44-41st-Ave-11355/home/20852230,MLSLI,3184485,N,Y,40.7606839,-73.819888
MLS Listing,,Condo/Co-op,Unit at 120 Bennett Ave,New York,NY,10033,279000,0,1,Washington Heights,,,,40,,,Active,,,http://www.redfin.com/NY/New-York/120-Bennett-Ave-10033/home/45165850,REBNY,CORC5941974,N,Y,40.8542791,-73.9350293
MLS Listing,,Condo/Co-op,Unit at 175 E 93rd St,New York,NY,10128,295000,0,1,Upper East Side,,,,40,,,Active,,,http://www.redfin.com/NY/New-York/175-E-93rd-St-10128/home/53322645,REBNY,UCOM1140527,N,Y,40.7838371,-73.9516187
MLS Listing,,Condo/Co-op,2615 Avenue O Unit 2J,Brooklyn,NY,11210,279900,2,1,Brooklyn,800,,1950,40,350,,Active,,,http://www.redfin.com/NY/Brooklyn/2615-Avenue-O-11210/unit-2J/home/71607410,BNYMLS,435158,N,Y,40.6143499,-73.9478618
MLS Listing,,Condo/Co-op,7-24 166th St Unit 7A,Beechhurst,NY,11357,300000,2,1,Lehavre On The Water,,,1953,41,,,Active,,,http://www.redfin.com/NY/Flushing/7-24-166th-St-11357/unit-7A/home/170003125,MLSLI,3184027,N,Y,40.793259,-73.797882
MLS Listing,,Condo/Co-op,Unit at 745 E 31st St,Brooklyn,NY,11210,299000,1,1,Flatbush,,,,41,,,Active,,,http://www.redfin.com/NY/Brooklyn/745-E-31st-St-11210/home/40920376,REBNY,CORC5941791,N,Y,40.6331143,-73.9464067
MLS Listing,,Condo/Co-op,65-65 Wetherole St Unit 4J,Rego Park,NY,11374,298000,1,1,The Crestwood,800,,1959,41,373,,Active,,,http://www.redfin.com/NY/Unknown/65-65-Wetherole-St-11374/unit-4J/home/145450893,MLSLI,3183835,N,Y,40.7261179,-73.857941
MLS Listing,,Condo/Co-op,4185 Amboy Rd Unit 6b,Staten Island,NY,10308,289900,1,1,Great Kills,693,1350,1984,41,418,230,Active,,,http://www.redfin.com/NY/Staten-Island/4185-Amboy-Rd-10308/unit-6B/home/56135144,SIBORMLS,1134130,N,Y,40.5481522,-74.1557743
MLS Listing,,Condo/Co-op,102-32 65th Ave Unit B23,Forest Hills,NY,11375,289000,1,1,Stephen Apartments,800,,1960,41,361,,Active,,,http://www.redfin.com/NY/Forest-Hills/102-32-65th-Ave-11375/unit-B23/home/168839618,MLSLI,3183830,N,Y,40.7305434,-73.8516104
MLS Listing,,Vacant Land,448 Clove Rd,Staten Island,NY,10310,295000,0,,West Brighton,,3575,,41,,,Active,,,http://www.redfin.com/NY/Staten-Island/448-Clove-Rd-10310/home/109319752,SIBORMLS,1134122,N,Y,40.6293522,-74.1235718
MLS Listing,,Condo/Co-op,922 Armstrong Ave Unit 2-4,Staten Island,NY,10308,299999,1,1,Eltingville,729,,1972,42,412,289,Active,,,http://www.redfin.com/NY/Staten-Island/922-Armstrong-Ave-10308/unit-2-4/home/56096458,SIBORMLS,1134107,N,Y,40.5565172,-74.1627222
MLS Listing,,Condo/Co-op,88-02 35 Ave Unit 2J,Jackson Heights,NY,11372,279500,1,1,Queen Mary Anne Corp,650,,1950,43,430,,Active,,,http://www.redfin.com/NY/Flushing/88-02-35th-Ave-11372/unit-2J/home/20659739,MLSLI,3183481,N,Y,40.7521569,-73.878572
MLS Listing,,Condo/Co-op,67-36 223 Pl Unit A,Bayside,NY,11364,279000,2,1,Estates At Bayside,,,1967,44,,,Active,,,http://www.redfin.com/NY/Oakland-Gardens/67-36-223rd-Pl-11364/unit-A/home/167851238,MLSLI,3183431,N,Y,40.7450978,-73.753803
MLS Listing,,Single Family Residential,123 Husson Ave,Bronx,NY,10473,299000,3,3,Bronx,2500,5000,1928,45,120,,Active,,,http://www.redfin.com/NY/The-Bronx/123-Husson-Ave-10473/home/44756435,HGMLS,5123104,N,Y,40.808386,-73.851077
MLS Listing,,Condo/Co-op,83-40 Austin St Unit 6W,Kew Gardens,NY,11415,300000,1,1,The Texas,,,1956,46,,,Active,,,http://www.redfin.com/NY/Jamaica/83-40-Austin-St-11415/unit-6W/home/20657633,MLSLI,3183248,N,Y,40.7083799,-73.8290102
MLS Listing,,Condo/Co-op,3123 Bailey Ave Unit 4E,Bronx,NY,10463,285000,2,1,Bronx,900,,1964,47,317,,Active,,,http://www.redfin.com/NY/The-Bronx/3123-Bailey-Ave-10463/unit-4E/home/44767648,HGMLS,5122707,N,Y,40.8789917,-73.9020914
MLS Listing,,Condo/Co-op,110-31 73rd Rd Unit 5J,Forest Hills,NY,11375,289000,1,1,The New Hampshire,,,1939,47,,,Active,,,http://www.redfin.com/NY/Forest-Hills/110-31-73rd-Rd-11375/unit-5J/home/166867268,MLSLI,3183089,N,Y,40.7187507,-73.8391575
MLS Listing,,Condo/Co-op,6 Fordham Hill Oval Unit 4G,Bronx,NY,10468,278000,2,1.5,Bronx,950,,1950,47,293,,Active,,,http://www.redfin.com/NY/Bronx/6-Fordham-Hill-Oval-10468/unit-4G/home/102284137,HGMLS,5122673,N,Y,40.8651296,-73.9068243
MLS Listing,,Condo/Co-op,860 Grand Concourse Unit 2E,Bronx,NY,10451,279000,1,1,Bronx,830,,1941,48,336,,Active,,,http://www.redfin.com/NY/The-Bronx/860-Grand-Concourse-10451/unit-2E/home/169950919,HGMLS,5122062,N,Y,40.8261195,-73.922434
MLS Listing,,Condo/Co-op,30 Fenway Cir Unit 2-1,Staten Island,NY,10308,275000,1,1,Great Kills,717,717,1975,51,384,327,Active,,,http://www.redfin.com/NY/Staten-Island/30-Fenway-Cir-10308/unit-2-1/home/56032455,SIBORMLS,1134001,N,Y,40.5565172,-74.1627222
MLS Listing,,Condo/Co-op,67-50 Thornton Pl Unit 1K,Forest Hills,NY,11375,299000,1,1,Thornton Place Owners,,,1964,53,,,Active,,,http://www.redfin.com/NY/Flushing/67-50-Thornton-Pl-11375/unit-1K/home/169914188,MLSLI,3182144,N,Y,40.7202709,-73.857096
MLS Listing,,Condo/Co-op,Unit at 7 Fordham Hill Oval,Bronx,NY,10468,295000,2,1,University Heights,,,,53,,,Active,,,http://www.redfin.com/NY/The-Bronx/7-Fordham-Hill-Oval-10468/home/44754116,REBNY,LLGI2810883,N,Y,40.8647901,-73.9071597
MLS Listing,,Condo/Co-op,Unit at 25 Tudor City Pl,New York,NY,10017,299000,0,1,Middle East Side,,,,53,,,Active,,,http://www.redfin.com/NY/New-York/25-Tudor-City-Pl-10017/home/45210219,REBNY,LLGI1411662,N,Y,40.7484484,-73.9706936
MLS Listing,,Vacant Land,99-52 211th Pl,Queens Village,NY,11429,275000,,,Queens Village,,3658,,53,,,Active,,,http://www.redfin.com/NY/Queens-Village/99-52-211th-Pl-11429/home/20742917,MLSLI,3182070,N,Y,40.712639,-73.747422
MLS Listing,,Condo/Co-op,2187 Holland Ave Unit 5J,Bronx/Morris Par,NY,10462,299000,3,1,Morris Park,,,1930,53,,,Active,,,http://www.redfin.com/NY/The-Bronx/2187-Holland-Ave-10462/unit-5J/home/169911702,MLSLI,3182020,N,Y,40.8558351,-73.8658889
MLS Listing,,Condo/Co-op,Unit at 76 -66 Austin St,Queens,NY,11375,299999,1,1,Forest Hills,,,,53,,,Active,,,http://www.redfin.com/NY/Forest-Hills/76-65-Austin-St-11375/home/169911367,REBNY,CORE2819155,N,Y,40.7149395,-73.8355427
MLS Listing,,Condo/Co-op,Unit at 1801 Ocean Ave,Brooklyn,NY,11230,299000,1,1,Midwood,,,,54,,,Active,,,http://www.redfin.com/NY/Brooklyn/1801-Ocean-Ave-11230/home/109564523,REBNY,RELI106037,N,Y,40.6179243,-73.9546988
MLS Listing,,Condo/Co-op,50-22 40 St Unit 2F,Sunnyside,NY,11104,299999,1,1,50-22 Owners Ltd,,,1961,54,,,Active,,,http://www.redfin.com/NY/Long-Island-City/50-22-40th-St-11104/unit-2F/home/52431628,MLSLI,3181656,N,Y,40.7374205,-73.9257407
MLS Listing,,Single Family Residential,242 Grandview Ave,Staten Island,NY,10303,298000,3,2,Mariners Harbor,1584,2600,1915,55,188,,Active,,,http://www.redfin.com/NY/Staten-Island/242-Grandview-Ave-10303/home/56077047,SIBORMLS,1133907,N,Y,40.633956,-74.16545
MLS Listing,,Condo/Co-op,56-26 244th St,Douglaston,NY,11362,279000,2,1,Beech Hills,,,1953,55,,,Active,,,http://www.redfin.com/NY/Little-Neck/56-26-244th-St-11362/Lowr/home/169892508,MLSLI,3181452,N,Y,40.7572746,-73.7370756
MLS Listing,,Condo/Co-op,42-40 Bowne St Unit 1E,Flushing,NY,11355,299000,1,1,Bowne House,,,1950,56,,,Active,,,http://www.redfin.com/NY/Flushing/42-40-Bowne-St-11355/unit-1E/home/144211078,MLSLI,3181298,N,Y,40.756144,-73.8213672
MLS Listing,,Condo/Co-op,3486 Amboy Rd Unit G,Staten  Island,NY,10306,285000,2,1,Staten  Island,700,,,56,407,,Active,,,http://www.redfin.com/NY/Staten-Island/3486-Amboy-Rd-10306/unit-G/home/169781703,BNYMLS,434838,N,Y,40.556441,-74.139012
MLS Listing,,Condo/Co-op,190 Schofield St Unit 3F,Bronx,NY,10464,299000,1,1.5,Bronx,802,,1990,56,373,616,Active,,,http://www.redfin.com/NY/The-Bronx/190-Schofield-St-10464/unit-3F/home/44799735,HGMLS,5120155,N,Y,40.845063,-73.783581
MLS Listing,,Condo/Co-op,99-60 63 Rd Unit 5R,Rego Park,NY,11374,279000,1,1,Anita Terrace,,,1960,57,,,Active,,,http://www.redfin.com/NY/Rego-Park/99-60-63rd-Rd-11374/unit-5R/home/144211018,MLSLI,3181123,N,Y,40.7325144,-73.8546331
MLS Listing,,Condo/Co-op,415 Ocean Pkwy N Unit 3H,Brooklyn,NY,11228,280000,0,1,Brooklyn,550,,1930,57,509,,Active,,,http://www.redfin.com/NY/Brooklyn/415-Ocean-Pkwy-11218/unit-3H/home/40926653,BNYMLS,434812,N,Y,40.6387668,-73.9725804
MLS Listing,,Condo/Co-op,784 Brook Ave Unit 29B,Bronx,NY,10451,285500,3,1.5,Melrose Condos,,,1950,59,,495,Active,,,http://www.redfin.com/NY/The-Bronx/784-Brook-Ave-10451/unit-29B/home/169843760,MLSLI,3180906,N,Y,40.8207499,-73.911302
MLS Listing,,Condo/Co-op,200 Bay 22nd St Unit D-4,,NY,11214,299000,2,1,Bath Beach,,712,1912,59,,,Active,,,http://www.redfin.com/NY/Brooklyn/200-Bay-22nd-St-11214/unit-D-4/home/169830100,SIBORMLS,1133598,N,Y,40.6016258,-74.004053
MLS Listing,,Townhouse,219-39 Edgewood Ave,Springfield Gdns,NY,11413,300000,3,2.5,Springfield Gdns,,2000,1950,60,,,Active,,,http://www.redfin.com/NY/Jamaica/219-39-Edgewood-Ave-11413/home/20693811,MLSLI,3180482,N,Y,40.669376,-73.754994
MLS Listing,,Condo/Co-op,255 Fieldston Ter Unit 3D,Bronx,NY,10471,299999,2,1,Riverdale,1000,,1965,61,300,,Active,,,http://www.redfin.com/NY/The-Bronx/255-Fieldston-Ter-10471/unit-3D/home/162198735,HGMLS,5119894,N,Y,40.8961447,-73.8987339
MLS Listing,,Condo/Co-op,Unit at 320 E 42nd St,New York,NY,10017,295000,0,1,Middle East Side,,,,61,,,Active,,,http://www.redfin.com/NY/New-York/320-E-42nd-St-10017/home/169791453,REBNY,KWNY237523,N,Y,40.7492776,-73.9714601
MLS Listing,,Condo/Co-op,145 Lincoln Ave Unit 6-H,Staten Island,NY,10306,299999,2,1,Grant City,849,849,1965,61,353,537,Active,,,http://www.redfin.com/NY/Staten-Island/145-Lincoln-Ave-10306/unit-6H/home/56075080,SIBORMLS,1133783,N,Y,40.579062,-74.1076165
MLS Listing,,Condo/Co-op,199-17 17th Ave,Whitestone,NY,11357,298888,2,1,Clearview Gardens,,,1950,61,,,Active,,,http://www.redfin.com/NY/Whitestone/199-17-17th-Ave-11357/Uppr/home/169789804,MLSLI,3180170,N,Y,40.7824614,-73.793768
MLS Listing,,Condo/Co-op,Unit at 457 W 57th St,New York,NY,10019,295000,0,1,Middle West Side,,,,61,,,Active,,,http://www.redfin.com/NY/New-York/457-W-57th-St-10019/home/45176294,REBNY,UCOM1858870,N,Y,40.7689628,-73.9875712
MLS Listing,,Condo/Co-op,37-30 73rd St Unit 1M,Jackson Heights,NY,11372,298000,1,1,Sheila Terrace,,,1962,62,,,Active,,,http://www.redfin.com/NY/Flushing/37-30-73rd-St-11372/unit-1M/home/20661444,MLSLI,3180028,N,Y,40.7479556,-73.8929488
MLS Listing,,Condo/Co-op,2461 E 29 St Unit 5A,Brooklyn,NY,11235,285000,2,1,Brooklyn,900,,,62,317,,Active,,,http://www.redfin.com/NY/Brooklyn/2461-E-29th-St-11235/unit-5A/home/125190323,BNYMLS,434682,N,Y,40.5920037,-73.9410334
MLS Listing,,Condo/Co-op,209-39 23 Ave Unit 6G,Bayside,NY,11360,280000,1,1,23 Ave,,,1961,62,,,Active,,,http://www.redfin.com/NY/Bayside/209-39-23rd-Ave-11360/unit-6G/home/20653481,MLSLI,3179821,N,Y,40.7794422,-73.782763
MLS Listing,,Condo/Co-op,Unit at 96 Arden St,New York,NY,10040,275000,0,1,Inwood,,,,63,,,Active,,,http://www.redfin.com/NY/New-York/96-Arden-St-10040/home/169770957,REBNY,UCOM1858174,N,Y,40.8640404,-73.9287259
MLS Listing,,Condo/Co-op,2963 Ocean Pkwy Unit BR,Brooklyn,NY,11235,290000,1,1,Brooklyn,778,,1972,63,373,,Active,,,http://www.redfin.com/NY/Brooklyn/2963-Ocean-Pkwy-11235/unit-BR/home/148106974,BNYMLS,434674,N,Y,40.5790777,-73.9673345
MLS Listing,,Condo/Co-op,83-74 Talbot St Unit 2-E,Kew Gardens,NY,11415,275000,1,1,Talbot Apartments,780,,1931,63,353,,Active,,,http://www.redfin.com/NY/Jamaica/83-74-Talbot-St-11415/unit-2-E/home/169774167,MLSLI,3179629,N,Y,40.70825,-73.8276
MLS Listing,,Condo/Co-op,67-50 Thornton Pl Unit 2K,Forest Hills,NY,11375,279000,1,1,Thornton Place,,,1963,65,,,Active,,,http://www.redfin.com/NY/Flushing/67-50-Thornton-Pl-11375/unit-2K/home/167228974,MLSLI,3179405,N,Y,40.7202709,-73.857096
MLS Listing,,Condo/Co-op,153-23 Sapphire St Unit E,Howard Beach,NY,11414,279000,1,1,Rockwood Gardens,630,,1977,65,443,330,Active,January-15-2020 06:30 PM,January-15-2020 08:00 PM,http://www.redfin.com/NY/Howard-Beach/15323-Sapphire-St-11414/unit-E/home/169763993,MLSLI,3179367,N,Y,40.665506,-73.8560827
MLS Listing,,Condo/Co-op,Unit at 457 W 57th St,New York,NY,10019,299000,0,1,Middle West Side,,,,66,,,Active,,,http://www.redfin.com/NY/New-York/457-W-57th-St-10019/home/160296729,REBNY,CHRS2814042,N,Y,40.7689628,-73.9875712
MLS Listing,,Condo/Co-op,Unit at 40 Brighton 1st Rd,Brooklyn,NY,11235,299000,0,1,Brooklyn,,,,68,,,Active,,,http://www.redfin.com/NY/Brooklyn/40-Brighton-1st-Rd-11235/home/145152470,REBNY,UCOM1857943,N,Y,40.5754784,-73.9671095
MLS Listing,,Condo/Co-op,Unit at 70 La Salle St,New York,NY,10027,299000,0,1,Morningside Heights,,,,68,,,Active,,,http://www.redfin.com/NY/New-York/70-La-Salle-St-10027/home/169706854,REBNY,KWNY238036,N,Y,40.8126973,-73.9573743
MLS Listing,,Condo/Co-op,Unit at 83 -10 35th Ave,Queens,NY,11372,299000,0,1,Jackson Heights,,,,68,,,Active,,,http://www.redfin.com/NY/Flushing/83-10-35th-Ave-11372/home/169682101,REBNY,DEGI4011214,N,Y,40.7517246,-73.8832796
MLS Listing,,Condo/Co-op,,Corona,NY,11368,284500,2,1,Sherwood Village,,,1949,68,,,Active,,,http://www.redfin.com/NY/Corona/Undisclosed-address-11368/home/21657817,MLSLI,3178384,N,Y,40.7364499,-73.8584826
MLS Listing,,Condo/Co-op,Unit at 32 -20 89th St,Queens,NY,11369,300000,2,1,Jackson Heights,,,,69,,,Active,,,http://www.redfin.com/NY/Flushing/24-32-89th-St-11369/home/169653661,REBNY,KWRE1857698,N,Y,40.764735,-73.880535
MLS Listing,,Condo/Co-op,152-26 Jewel Ave Unit 93A,Kew Garden Hills,NY,11367,299000,2,1,Georgetown Mews,950,,1952,69,315,,Active,,,http://www.redfin.com/NY/Flushing/152-26-Jewel-Ave-11367/unit-93A/home/169651455,MLSLI,3178197,N,Y,40.731526,-73.816356
MLS Listing,,Condo/Co-op,2427 E 29 St Unit 1J,Brooklyn,NY,11235,295000,2,1,Brooklyn,900,,,70,328,,Active,,,http://www.redfin.com/NY/Brooklyn/2427-E-29th-St-11235/unit-1J/home/40925363,BNYMLS,434500,N,Y,40.5928037,-73.9412171
MLS Listing,,Condo/Co-op,Unit at 745 E 31st St,Brooklyn,NY,11210,275000,1,1,Flatbush,,,,71,,,Active,,,http://www.redfin.com/NY/Brooklyn/745-E-31st-St-11210/home/40653688,REBNY,CORC5927994,N,Y,40.6331143,-73.9464067
MLS Listing,,Condo/Co-op,5900 Arlington Ave Unit 17S,Bronx,NY,10471,289999,1,1,Bronx,750,,1962,73,387,,Active,January-19-2020 12:00 PM,January-19-2020 02:00 PM,http://www.redfin.com/NY/The-Bronx/5900-Arlington-Ave-10471/unit-17S/home/169636840,HGMLS,5117498,N,Y,40.9092281,-73.9056859
MLS Listing,,Condo/Co-op,61-55 98 St Unit 2F,Rego Park,NY,11374,299900,1,1,Park City Estates,,,1960,73,,,Active,,,http://www.redfin.com/NY/Rego-Park/61-55-98th-St-11374/unit-2F/home/169632642,MLSLI,3177360,N,Y,40.7335541,-73.8596902
MLS Listing,,Condo/Co-op,137-77 45 Ave Unit 2N,Flushing,NY,11354,299000,0,1,N/A,,,,73,,500,Active,,,http://www.redfin.com/NY/Flushing/137-77-45th-Ave-11355/unit-2N/home/20654252,MLSLI,3177353,N,Y,40.7522124,-73.8214259
MLS Listing,,Condo/Co-op,Unit at 45 Grace Ct,Brooklyn,NY,11201,300000,2,1,Brooklyn Heights,,,,74,,,Active,,,http://www.redfin.com/NY/Brooklyn/45-Grace-Ct-11201/home/108528006,REBNY,UCOM1326893,N,Y,40.6943446,-73.9971353
MLS Listing,,Condo/Co-op,2187 Holland Ave Unit 5G,Bronx/Morris Par,NY,10462,285000,2,1,Morris Park,,,1930,74,,,Active,,,http://www.redfin.com/NY/The-Bronx/2187-Holland-Ave-10462/unit-5G/home/169621761,MLSLI,3176985,N,Y,40.8558351,-73.8658889
MLS Listing,,Condo/Co-op,241-20 Northern Blvd Unit 4F,Douglaston,NY,11362,299000,1,1,Manor House,610,,1964,76,490,968,Active,,,http://www.redfin.com/NY/Flushing/241-20-Northern-Blvd-11362/unit-4F/home/20652135,MLSLI,3176508,N,Y,40.7649929,-73.744463
MLS Listing,,Condo/Co-op,Unit at 3692 Broadway,New York,NY,10031,279000,2,1,Hamilton Heights,,,,76,,,Active,,,http://www.redfin.com/NY/New-York/3692-Broadway-10031/home/169594869,REBNY,CORC5920916,N,Y,40.8310472,-73.9465833
MLS Listing,,Condo/Co-op,61-55 98 St Unit 7M,Rego Park,NY,11374,285000,1,1,Park City Estates,,,1960,76,,,Active,,,http://www.redfin.com/NY/Rego-Park/61-55-98th-St-11374/unit-7M/home/20633147,MLSLI,3176358,N,Y,40.7335541,-73.8596902
MLS Listing,,Condo/Co-op,Unit at 246 E 90th St,New York,NY,10128,299000,1,1,Upper East Side,,,,77,,,Active,,,http://www.redfin.com/NY/New-York/246-E-90th-St-10128/home/52985130,REBNY,UCOM981207,N,Y,40.780461,-73.950523
MLS Listing,,Condo/Co-op,90-59 56th Ave Unit J3,Elmhurst,NY,11373,299000,1,1,Elmhurst,,,1962,78,,,Active,,,http://www.redfin.com/NY/Flushing/90-59-56th-Ave-11373/unit-J3/home/169584931,MLSLI,3175939,N,Y,40.7366542,-73.8706208
MLS Listing,,Single Family Residential,123456 Port Antonio Beach Home,Other City Value - Out Of Area,NY,123456,289999,4,3,Jamaica,2500,,1989,79,116,,Active,,,http://www.redfin.com/NY/New-York/Unknown-Unknown/home/169583670,MARMLS,A10763172,N,Y,40.7127753,-74.0059728
MLS Listing,,Condo/Co-op,Unit at 8889 Bay 16th St,Brooklyn,NY,11214,295000,1,1,Bath Beach,,,,79,,,Active,,,http://www.redfin.com/NY/Brooklyn/8889-Bay-16th-St-11214/home/169583329,REBNY,DEGI4000347,N,Y,40.6022812,-74.0100266
MLS Listing,,Condo/Co-op,5 Windham Loop Unit 4g,Staten Island,NY,10314,299999,1,1,Heartland Village,673,673,1981,79,446,343,Active,,,http://www.redfin.com/NY/Staten-Island/5-Windham-Loop-10314/unit-4G/home/56123854,SIBORMLS,1133354,N,Y,40.5779257,-74.1627692
MLS Listing,,Condo/Co-op,85 Elmwood Park Dr #32,Staten Island,NY,10314,289000,1,1,Heartland Village,677,677,1985,80,427,,Active,,,http://www.redfin.com/NY/Staten-Island/85-Elmwood-Park-Dr-10314/unit-32/home/56111520,SIBORMLS,1133352,N,Y,40.5800635,-74.1614308
MLS Listing,,Condo/Co-op,84-70 129th St Unit 4E,Kew Gardens,NY,11415,299000,2,2,Metro Manor,,,1950,81,,,Active,,,http://www.redfin.com/NY/Jamaica/84-70-129th-St-11415/unit-4E/home/40630613,MLSLI,3175363,N,Y,40.7050067,-73.8239907
MLS Listing,,Condo/Co-op,46-30 215th Pl Unit 3C,Bayside,NY,11361,299000,2,1,Jeffrey Gardens,,,1950,81,,,Active,,,http://www.redfin.com/NY/Bayside/46-30-215th-Pl-11361/unit-3C/home/169550829,MLSLI,3175198,N,Y,40.7577337,-73.7659394
MLS Listing,,Condo/Co-op,Unit at 108 Seigel St,Brooklyn,NY,11206,300000,2,1,Williamsburg,,,,82,,,Active,,,http://www.redfin.com/NY/Brooklyn/108-Seigel-St-11206/home/169525152,REBNY,DEGI4001900,N,Y,40.7044042,-73.9421129
MLS Listing,,Condo/Co-op,67-66 108 St Unit C44,Forest Hills,NY,11375,289000,1,1,George Washington,,,1949,82,,,Active,,,http://www.redfin.com/NY/Flushing/67-66-108th-St-11375/unit-C44/home/28578971,MLSLI,3174817,N,Y,40.7271058,-73.8471227
MLS Listing,,Condo/Co-op,Unit at 849 St Nicholas Ave,New York,NY,10031,275000,1,1,Hamilton Heights,,,,83,,,Active,,,http://www.redfin.com/NY/New-York/849-St-Nicholas-Ave-10031/home/45202142,REBNY,UCOM1855499,N,Y,40.829169,-73.942156
MLS Listing,,Single Family Residential,219 Pierce St,Staten Island,NY,10304,299900,1,1,Concord,1248,672,1987,83,240,,Active,,,http://www.redfin.com/NY/Staten-Island/219-Pierce-St-10304/home/56041334,SIBORMLS,1133234,N,Y,40.607319,-74.0824818
MLS Listing,,Condo/Co-op,9902 3 Ave Unit 6R,Brooklyn,NY,11209,289000,1,1,Brooklyn,600,,,84,482,,Active,,,http://www.redfin.com/NY/Brooklyn/9902-3rd-Ave-11209/unit-6R/home/169504041,BNYMLS,434189,N,Y,40.6141658,-74.0353827
MLS Listing,,Single Family Residential,4162 Murdock Ave,Bronx,NY,10466,300000,2,1,Bronx,690,1955,1950,86,435,,Active,,,http://www.redfin.com/NY/The-Bronx/4162-Murdock-Ave-10466/home/44739932,HGMLS,5108213,N,Y,40.895139,-73.841375
MLS Listing,,Condo/Co-op,37-21 80 St Unit 5K,Jackson Heights,NY,11372,299000,1,1,Evergreen,,,,86,,,Active,,,http://www.redfin.com/NY/Flushing/37-21-80th-St-11372/unit-5K/home/20635931,MLSLI,3174007,N,Y,40.748924,-73.8857529
MLS Listing,,Condo/Co-op,Unit at 5 Tudor City Pl,New York,NY,10017,300000,0,1,Middle East Side,,,,87,,,Active,,,http://www.redfin.com/NY/New-York/5-Tudor-City-Pl-10017/home/169462993,REBNY,DEGI3997209,N,Y,40.7479568,-73.9709044
MLS Listing,,Condo/Co-op,Unit at 3333 Henry Hudson Pkwy,Bronx,NY,10463,285000,1,1,Riverdale,,,,88,,,Active,,,http://www.redfin.com/NY/The-Bronx/3333-Henry-Hudson-Pkwy-10463/home/44800316,REBNY,DEGI3996141,N,Y,40.8854224,-73.91429
MLS Listing,,Condo/Co-op,Unit at 135 Ocean Pkwy,Brooklyn,NY,11218,299000,0,1,Kensington,,,,88,,,Active,,,http://www.redfin.com/NY/Brooklyn/135-Ocean-Pkwy-11218/home/40662629,REBNY,GRIF2200,N,Y,40.6466766,-73.9740956
MLS Listing,,Condo/Co-op,3333 W Henry Hudson Pkwy Unit 20P,Bronx,NY,10463,285000,1,1,Riverdale,1000,,1965,89,285,,Active,,,http://www.redfin.com/NY/The-Bronx/3333-Henry-Hudson-Pkwy-W-10463/unit-20P/home/169920876,HGMLS,5104607,N,Y,40.8856111,-73.9143173
MLS Listing,,Condo/Co-op,68-61 Yellowstone Blvd #111,Forest Hills,NY,11375,280000,1,1,Greenbriar,,,1954,90,,,Active,,,http://www.redfin.com/NY/Flushing/68-61-Yellowstone-Blvd-11375/unit-111/home/169431545,MLSLI,3173023,N,Y,40.7251336,-73.8466546
MLS Listing,,Condo/Co-op,175 Zoe St Unit 5r,Staten Island,NY,10305,289000,0,1,Dongan Hills-Above Hylan,550,550,1986,90,525,199,Active,,,http://www.redfin.com/NY/Staten-Island/175-Zoe-St-10305/unit-5R/home/56091044,SIBORMLS,1133084,N,Y,40.5847411,-74.1011927
MLS Listing,,Condo/Co-op,7 Fordham Hl Unit 15F,Bronx,NY,10468,279000,2,1.5,Bronx,1000,,1951,90,279,,Active,,,http://www.redfin.com/NY/The-Bronx/7-Fordham-Hill-Oval-10468/unit-15F/home/169430240,HGMLS,5103466,N,Y,40.8647901,-73.9071597
MLS Listing,,Condo/Co-op,97-40 62 Dr Unit 3C,Rego Park,NY,11374,288000,1,1,Park City 3&4,,,1954,93,,,Active,,,http://www.redfin.com/NY/Flushing/9740-62nd-Dr-11374/unit-3C/home/169408404,MLSLI,3172335,N,Y,40.7322685,-73.859883
MLS Listing,,Condo/Co-op,Unit at 800 Grand Concourse,Bronx,NY,10451,300000,1,1,Concourse,,,,94,,,Active,,,http://www.redfin.com/NY/The-Bronx/800-Grand-Concourse-10451/home/143037003,REBNY,ENGE2799349,N,Y,40.8244101,-73.9237647
MLS Listing,,Condo/Co-op,219-34 74 Ave,Bayside,NY,11364,299000,2,1,Windsor Oaks,,,1955,94,,,Active,,,http://www.redfin.com/NY/Oakland-Gardens/219-34-74th-Ave-11364/unit-322A2/home/20622603,MLSLI,3172111,N,Y,40.7398116,-73.7550194
MLS Listing,,Condo/Co-op,Unit at 1350 E 5th St,Brooklyn,NY,11230,275000,1,1,Midwood,,,,94,,,Active,,,http://www.redfin.com/NY/Brooklyn/1350-E-5th-St-11230/home/169398082,REBNY,CITI5903909,N,Y,40.6178791,-73.9709274
MLS Listing,,Condo/Co-op,2600 E 21 St Unit 2D,Brooklyn,NY,11224,289000,1,1,Brooklyn,700,,1959,95,413,,Active,,,http://www.redfin.com/NY/Brooklyn/2600-E-21st-St-11235/unit-2D/home/169389123,BNYMLS,433259,N,Y,40.5887857,-73.9486109
MLS Listing,,Condo/Co-op,10801 Seaview Ave Unit 45C,Brooklyn,NY,11236,297400,2,2,Canarsie,1143,,1990,95,260,,Active,,,http://www.redfin.com/NY/Brooklyn/10801-Seaview-Ave-11236/unit-45C/home/21515487,MLSLI,3171679,N,Y,40.639982,-73.881744
MLS Listing,,Single Family Residential,,Jamaica,NY,11434,299990,3,1,Jamaica,1464,2900,1940,96,205,,Active,,,http://www.redfin.com/NY/Jamaica/Undisclosed-address-11434/home/20706908,MLSLI,3171628,N,Y,40.686202,-73.767196
MLS Listing,,Condo/Co-op,972 E 88th St #202,Brooklyn,NY,11236,289000,2,1.5,Canarsie Gardens Condo,790,11500,1989,96,366,203,Active,,,http://www.redfin.com/NY/Brooklyn/972-E-88th-St-11236/unit-202/home/40886728,MLSLI,3171619,N,Y,40.6377457,-73.9063416
MLS Listing,,Condo/Co-op,105-25 67th Ave Unit 1A,Forest Hills,NY,11375,285000,1,1,Quality & Ruskin,,,1950,96,,,Active,,,http://www.redfin.com/NY/Forest-Hills/105-25-67th-Ave-11375/unit-1A/home/169355839,MLSLI,3171379,N,Y,40.7288352,-73.8484021
MLS Listing,,Condo/Co-op,Unit at 5355 Henry Hudson Pkwy W,Bronx,NY,10471,279000,1,1,Riverdale,,,,97,,,Active,,,http://www.redfin.com/NY/The-Bronx/5355-Henry-Hudson-Pkwy-W-10471/home/169305177,REBNY,BACH19909186,N,Y,40.9012322,-73.906509
MLS Listing,,Condo/Co-op,32-20 89th St Unit E409,Jackson Heights,NY,11372,300000,2,1,Northridge Iii,,,1952,97,,,Active,,,http://www.redfin.com/NY/Jackson-Heights/3220-89th-ST-11372/unit-E409/home/169304986,MLSLI,3171230,N,Y,40.7527924,-73.8801301
MLS Listing,,Condo/Co-op,170-40 Highland Ave #206,Jamaica,NY,11432,289999,2,1,Windsor Terrace,,,1950,97,,,Active,,,http://www.redfin.com/NY/Jamaica/170-40-Highland-Ave-11432/unit-206/home/169300097,MLSLI,3171090,N,Y,40.712665,-73.791616
MLS Listing,,Condo/Co-op,118-17 Union Tpke Unit 5L,Forest Hills,NY,11375,275000,1,1,Park Lane North,800,,1973,97,344,,Active,,,http://www.redfin.com/NY/Forest-Hills/118-17-Union-Tpke-11375/unit-5L/home/169299801,MLSLI,3171056,N,Y,40.7129779,-73.8345967
MLS Listing,,Vacant Land,2407 Cambreleng,Bronx,NY,10458,299999,,,Bronx,,1663,1931,98,,,Active,,,http://www.redfin.com/NY/The-Bronx/2407-Cambreleng-Ave-10458/home/162686768,HGMLS,5094203,N,Y,40.8547783,-73.8852999
MLS Listing,,Condo/Co-op,2802 141 St Unit 1A,Flushing,NY,11354,285000,1,1,Mitchell Garden # 2 Coop,,,1956,98,,,Active,,,http://www.redfin.com/NY/Flushing/2802-141st-St-11354/unit-1A/home/52550911,MLSLI,3170832,N,Y,40.7730831,-73.8282225
MLS Listing,,Condo/Co-op,325 Marine Ave Unit D7,Brooklyn,NY,11209,296000,1,1,Brooklyn,600,,,98,493,,Active,,,http://www.redfin.com/NY/Brooklyn/325-Marine-Ave-11209/unit-D7/home/40651543,BNYMLS,433816,N,Y,40.6147332,-74.0337807
MLS Listing,,Condo/Co-op,61-20 Grand Central Pkwy Unit A907,Forest Hills,NY,11375,299000,1,1,The Fairview,900,,1964,99,332,,Active,January-18-2020 12:00 PM,January-18-2020 04:00 PM,http://www.redfin.com/NY/Forest-Hills/61-20-Grand-Central-Pkwy-11375/unit-A907/home/39611238,MLSLI,3170612,N,Y,40.7380691,-73.8473845
MLS Listing,,Condo/Co-op,81-11 45th Ave Unit 7B,Elmhurst,NY,11373,298880,0,1,Elmhurst Towers,,,1961,99,,,Active,,,http://www.redfin.com/NY/Queens/81-11-45th-Ave-11373/unit-7B/home/169290123,MLSLI,3170561,N,Y,40.741763,-73.883461
MLS Listing,,Condo/Co-op,Unit at 4 Fordham Hill Oval,Bronx,NY,10468,290000,3,1.5,University Heights,,,,100,,,Active,,,http://www.redfin.com/NY/The-Bronx/4-Fordham-Hill-Oval-10468/home/108524796,REBNY,DEGI3981986,N,Y,40.8652278,-73.9079607
MLS Listing,,Condo/Co-op,Unit at 915 E 17th St,Brooklyn,NY,11230,280000,1,1,Midwood,,,,101,,,Active,,,http://www.redfin.com/NY/Brooklyn/915-E-17th-St-11230/home/168946899,REBNY,UCOM1847738,N,Y,40.6288972,-73.9597937
MLS Listing,,Condo/Co-op,99-52 66 Rd Unit 5R,Rego Park,NY,11374,299000,1,1,The Howard,700,,1952,101,427,,Active,,,http://www.redfin.com/NY/Rego-Park/9952-66th-Rd-11374/unit-5R/home/20643100,MLSLI,3170295,N,Y,40.7276413,-73.8545614
MLS Listing,,Single Family Residential,72-42 Thursby Ave,Far Rockaway,NY,11691,299000,3,1.5,Far Rockaway,,2000,1930,101,,,Active,,,http://www.redfin.com/NY/Far-Rockaway/72-42-Thursby-Ave-11692/home/20673008,MLSLI,3170232,N,Y,40.594771,-73.802373
MLS Listing,,Condo/Co-op,125-10 Queens Blvd #1902,Kew Gardens,NY,11415,287000,1,1,Silver Towers,,,1960,103,,,Active,,,http://www.redfin.com/NY/Kew-Gardens/12510-Queens-Blvd-11415/unit-1902/home/21691954,MLSLI,3169618,N,Y,40.7124099,-73.8264399
MLS Listing,,Condo/Co-op,100 Colfax Ave Unit 4 B,Staten Island,NY,10305,285000,2,1,Grant City,984,984,1965,103,290,544,Active,,,http://www.redfin.com/NY/Staten-Island/100-Colfax-Ave-10306/unit-4B/home/56017056,SIBORMLS,1132701,N,Y,40.5795138,-74.1075247
MLS Listing,,Single Family Residential,191 Pond Way,Staten Island,NY,10303,290000,3,2,Arlington,1176,720,1987,103,247,205,Active,,,http://www.redfin.com/NY/Staten-Island/191-Pond-Way-10303/home/56091858,SIBORMLS,1132686,N,Y,40.635033,-74.169574
MLS Listing,,Condo/Co-op,91-08 32nd Ave #409,E. Elmhurst,NY,11369,298000,2,1,Northridge I,1000,,1952,103,298,,Active,,,http://www.redfin.com/NY/East-Elmhurst/9108-32nd-Ave-11369/unit-409/home/20637416,MLSLI,3169266,N,Y,40.7585599,-73.87738
MLS Listing,,Condo/Co-op,145 Lincoln Ave Unit 2n,Staten Island,NY,10306,285000,2,1,Grant City,862,862,1965,104,331,500,Active,,,http://www.redfin.com/NY/Staten-Island/145-Lincoln-Ave-10306/unit-2N/home/56075314,SIBORMLS,1132669,N,Y,40.579062,-74.1076165
MLS Listing,,Condo/Co-op,740 E 32 St Unit E6,Brooklyn,NY,11210,284900,1,1,Brooklyn,650,,,105,438,,Active,,,http://www.redfin.com/NY/Brooklyn/740-E-32nd-St-11210/unit-E6/home/167099815,BNYMLS,433703,N,Y,40.6329847,-73.9460393
MLS Listing,,Condo/Co-op,140-39 34 Ave Unit 5U,Flushing,NY,11354,279000,1,1,Hampshire Corp,800,,1955,105,349,,Active,,,http://www.redfin.com/NY/Flushing/140-39-34th-Ave-11354/unit-5U/home/169240232,MLSLI,3168816,N,Y,40.7666478,-73.8262257
MLS Listing,,Condo/Co-op,65-15 Alderton St Unit 6D,Rego Park,NY,11374,299950,2,1,65-15 Alderton Street,,,1964,108,,,Active,,,http://www.redfin.com/NY/Flushing/65-15-Alderton-St-11374/unit-6D/home/166753193,MLSLI,3168308,N,Y,40.720847,-73.858929
MLS Listing,,Condo/Co-op,444 Neptune Ave Unit 2N,Brooklyn,NY,11224,295000,1,1,Brooklyn,750,,1964,109,393,,Active,,,http://www.redfin.com/NY/Unknown/444-Neptune-Ave-11224/unit-2N/home/147301026,BNYMLS,433578,N,Y,40.5796733,-73.9704146
MLS Listing,,Condo/Co-op,136-25 Jewel Ave,Kew Garden Hills,NY,11367,279000,1,1,Hyde Park Garden,,,1950,110,,,Active,,,http://www.redfin.com/NY/Flushing/136-25-Jewel-Ave-11367/home/21632298,MLSLI,3167611,N,Y,40.7290951,-73.8292464
MLS Listing,,Condo/Co-op,Unit at 3875 Waldo Ave,Bronx,NY,10471,279000,2,1,Fieldston,,,,110,,,Active,,,http://www.redfin.com/NY/The-Bronx/3875-Waldo-Ave-10463/home/40496821,REBNY,ACCS142308,N,Y,40.8890553,-73.9033819
MLS Listing,,Condo/Co-op,Unit at 195 Willoughby Ave,Brooklyn,NY,11205,300000,0,1,Clinton Hill,,,,110,,,Active,,,http://www.redfin.com/NY/Brooklyn/195-Willoughby-Ave-11205/home/63688292,REBNY,UCOM1343704,N,Y,40.6924643,-73.9642235
MLS Listing,,Single Family Residential,4 Fox Ter,Bronx,NY,10469,289000,1,1,Bronx,623,2042,1930,110,464,,Active,,,http://www.redfin.com/NY/The-Bronx/4-Fox-Ter-10469/home/44781847,HGMLS,5078216,N,Y,40.8724793,-73.8443185
MLS Listing,,Condo/Co-op,103-25 68 Ave Unit 3K,Forest Hills,NY,11375,299000,1,1,The New Yorker,750,,1953,111,399,,Active,,,http://www.redfin.com/NY/Flushing/103-25-68th-Ave-11375/unit-3K/home/109304366,MLSLI,3167228,N,Y,40.726147,-73.850004
MLS Listing,,Condo/Co-op,224 Highland Blvd #714,Brooklyn,NY,11207,299000,2,1,Cypress Hills,800,,1940,112,374,1038,Active,,,http://www.redfin.com/NY/Brooklyn/224-Highland-Blvd-11207/unit-714/home/21993682,MLSLI,3166764,N,Y,40.6819487,-73.8931556
MLS Listing,,Condo/Co-op,175 Zoe St Unit 1-O,Staten Island,NY,10305,289900,1,1,Dongan Hills-Above Hylan,705,705,1986,112,411,285,Active,,,http://www.redfin.com/NY/Staten-Island/175-Zoe-St-10305/unit-1O/home/56027611,SIBORMLS,1132435,N,Y,40.5847411,-74.1011927
MLS Listing,,Condo/Co-op,98-20 62nd Dr Unit 8M,Rego Park,NY,11374,299000,1,1,Park City 3 & 4,700,,1955,113,427,,Active,,,http://www.redfin.com/NY/Unknown/98-20-62nd-Dr-11374/unit-8m/home/148034519,MLSLI,3166682,N,Y,40.7329076,-73.8585455
MLS Listing,,Condo/Co-op,145 Lincoln Ave Unit 5y,Staten Island,NY,10306,288000,2,1,Grant City,868,868,1965,114,332,512,Active,,,http://www.redfin.com/NY/Staten-Island/145-Lincoln-Ave-10306/unit-5Y/home/56075773,SIBORMLS,1132426,N,Y,40.579062,-74.1076165
MLS Listing,,Condo/Co-op,65-45 Yellowstone Blvd Unit 6A,Forest Hills,NY,11375,299999,1,1,Verona Estates,775,,1952,115,387,,Active,,,http://www.redfin.com/NY/Forest-Hills/65-45-Yellowstone-Blvd-11375/unit-6A/home/144742674,MLSLI,3166240,N,Y,40.7298336,-73.8501969
MLS Listing,,Condo/Co-op,550 Fort Washington Ave Unit 4-E,New York,NY,10033,279000,1,1,New York,,,1922,116,,,Active,,,http://www.redfin.com/NY/New-York/550-Fort-Washington-Ave-10033/unit-4-E/home/169134664,HGMLS,5067909,N,Y,40.8536215,-73.9371073
MLS Listing,,Condo/Co-op,Unit at 720 E 32nd St,Brooklyn,NY,11210,275000,1,1,Flatbush,,,,116,,,Active,,,http://www.redfin.com/NY/Brooklyn/720-E-32nd-St-11210/home/55521401,REBNY,CITI5887846,N,Y,40.6336278,-73.9459886
MLS Listing,,Condo/Co-op,86-11 34th Ave Unit 6C,Jackson Heights,NY,11372,279000,1,1,Bristol,,,1950,116,,,Active,,,http://www.redfin.com/NY/Jackson-Heights/86-11-34th-Ave-11372/unit-6C/home/20660252,MLSLI,3165996,N,Y,40.7544816,-73.8808188
MLS Listing,,Condo/Co-op,Unit at 330 Lenox Rd,Brooklyn,NY,11226,299000,1,1,Prospect-Lefferts G,,,,117,,,Active,,,http://www.redfin.com/NY/Brooklyn/330-Lenox-Rd-11226/home/40680108,REBNY,DEGI3959342,N,Y,40.653839,-73.948548
MLS Listing,,Condo/Co-op,3017 Ocean Pkwy Unit 4D,Brooklyn,NY,11235,300000,1,1,Brooklyn,715,,1924,117,420,,Active,,,http://www.redfin.com/NY/Brooklyn/3017-Ocean-Pkwy-11235/unit-4D/home/169099971,BNYMLS,433357,N,Y,40.577426,-73.967647
MLS Listing,,Vacant Land,482 Logan St,Brooklyn,NY,11208,299000,,,Brooklyn,,2000,,117,,,Active,,,http://www.redfin.com/NY/Brooklyn/482-Logan-St-11208/home/40194221,MLSLI,3165458,N,Y,40.674258,-73.876335
MLS Listing,,Condo/Co-op,1655 Flatbush Ave Unit A1509,Brooklyn,NY,11210,299000,1,1,Brooklyn,750,,,119,399,,Active,,,http://www.redfin.com/NY/Brooklyn/1655-Flatbush-Ave-11210/unit-A1509/home/169083988,BNYMLS,433304,N,Y,40.630591,-73.9447075
MLS Listing,,Condo/Co-op,57-84 246th Cres Unit 5F,Douglaston,NY,11362,289000,2,1,Beech Hills,,,1953,119,,,Active,,,http://www.redfin.com/NY/Little-Neck/57-84-246th-Cres-11362/unit-5F/home/169079411,MLSLI,3164908,N,Y,40.7586312,-73.7335648
MLS Listing,,Vacant Land,96-16 32nd Ave,E. Elmhurst,NY,11369,299000,,,E. Elmhurst,,2000,,125,,,Active,,,http://www.redfin.com/NY/East-Elmhurst/96-16-32nd-Ave-11369/home/168966526,MLSLI,3163116,N,Y,40.7586745,-73.8718607
MLS Listing,,Condo/Co-op,83-20 98th St Unit 2D,Woodhaven,NY,11421,279000,2,1,Forest Park Co-Op,,,1955,125,,,Active,,,http://www.redfin.com/NY/Woodhaven/8320-98th-St-11421/unit-2D/home/168962951,MLSLI,3163035,N,Y,40.6993852,-73.8517383
MLS Listing,,Condo/Co-op,2650 Ocean Pkwy Unit 11D,Brooklyn,NY,11235,290000,1,1,Brooklyn,800,,,125,363,,Active,,,http://www.redfin.com/NY/Brooklyn/2650-Ocean-Pkwy-11235/unit-11D/home/40653166,BNYMLS,433120,N,Y,40.5854381,-73.9670533
MLS Listing,,Condo/Co-op,118-18 Union Tpke Unit 11L,Kew Gardens,NY,11415,299000,1,1,Park Lane South,,,1974,126,,,Active,,,http://www.redfin.com/NY/Kew-Gardens/118-18-Union-Tpke-11415/unit-11L/home/168955663,MLSLI,3162819,N,Y,40.7124154,-73.8339574
MLS Listing,,Condo/Co-op,97-07 63 Rd Unit 1F,Rego Park,NY,11374,282000,1,1,Park City 3 & 4,,,1960,128,,,Active,,,http://www.redfin.com/NY/Flushing/9707-63rd-Rd-11374/unit-1F/home/40030913,MLSLI,3162362,N,Y,40.7315938,-73.8606057
MLS Listing,,Condo/Co-op,121-16 Ocean Promenade Unit 4K,Rockaway Park,NY,11694,280000,1,1,Barocrest,750,,1960,129,373,,Active,,,http://www.redfin.com/NY/Rockaway-Park/140-Beach-113th-St-11694/unit-4K/home/20643472,MLSLI,3162319,N,Y,40.5788543,-73.8334357
MLS Listing,,Condo/Co-op,Unit at 515 W 135th St,New York,NY,10031,299000,2,1,Hamilton Heights,,,,129,,,Active,,,http://www.redfin.com/NY/New-York/515-W-135th-St-10031/home/168933685,REBNY,UCOM1847270,N,Y,40.8196169,-73.9532259
MLS Listing,,Condo/Co-op,232 Sunset Blvd #12232,Bronx,NY,10473,295000,3,2,Bronx,1049,,1996,130,281,,Active,,,http://www.redfin.com/NY/The-Bronx/232-Sunset-Blvd-10473/unit-12232/home/44763332,HGMLS,5051877,N,Y,40.807255,-73.854527
MLS Listing,,Condo/Co-op,241-20 Northern Blvd Unit 1P,Douglaston,NY,11362,298000,1,1,Manor House,850,,1965,130,351,,Active,,,http://www.redfin.com/NY/Flushing/241-20-Northern-Blvd-11362/unit-1P/home/169426270,MLSLI,3161708,N,Y,40.7649929,-73.744463
MLS Listing,,Condo/Co-op,Unit at 100 La Salle St,New York,NY,10027,299000,0,1,Morningside Heights,,,,131,,,Active,,,http://www.redfin.com/NY/New-York/100-La-Salle-St-10027/home/53327124,REBNY,DEGI3939637,N,Y,40.8130711,-73.9592414
MLS Listing,,Condo/Co-op,Unit at 175 E 93rd St,New York,NY,10128,275000,0,1,Upper East Side,,,,131,,,Active,,,http://www.redfin.com/NY/New-York/175-E-93rd-St-10128/home/45231765,REBNY,UCOM667508,N,Y,40.7838371,-73.9516187
MLS Listing,,Condo/Co-op,57-41 244th St,Douglaston,NY,11362,299000,3,1,Beech Hills,,,1953,131,,,Active,,,http://www.redfin.com/NY/Little-Neck/57-41-244th-St-11362/Lowr/home/168879389,MLSLI,3161165,N,Y,40.7564695,-73.7365049
MLS Listing,,Condo/Co-op,87-10 34 Ave,Jackson Heights,NY,11372,289000,1,1,Saxony Towers,,,1950,132,,,Active,,,http://www.redfin.com/NY/Flushing/87-10-34th-Ave-11372/home/20928944,MLSLI,3161044,N,Y,40.753989,-73.879845
MLS Listing,,Condo/Co-op,18-50 211 St Unit 2F,Bayside,NY,11360,290000,2,1,Bay Terrace,,,1958,133,,,Active,,,http://www.redfin.com/NY/Bayside/18-50-211th-St-11360/unit-2F/home/20626346,MLSLI,3160566,N,Y,40.7806856,-73.7823182
MLS Listing,,Condo/Co-op,5800 Arlington Ave Unit 12S,Bronx,NY,10471,299999,1,1,Riverdale,800,,1962,134,375,,Active,,,http://www.redfin.com/NY/The-Bronx/5800-Arlington-Ave-10471/unit-12-S/home/168861957,HGMLS,5046606,N,Y,40.9080135,-73.9055787
MLS Listing,,Single Family Residential,39 Milbank Rd,Staten Island,NY,10306,275000,1,1,Oakwood - New Dorp Beach,420,1200,1930,136,655,,Active,,,http://www.redfin.com/NY/Staten-Island/39-Milbank-Rd-10306/home/56114704,SIBORMLS,1131860,N,Y,40.5609989,-74.102076
MLS Listing,,Condo/Co-op,28-02 Parsons Blvd #6,Flushing,NY,11354,300000,2,1,Linden Hill #2,,,1955,136,,,Active,,,http://www.redfin.com/NY/Flushing/2802-Parsons-Blvd-11354/unit-6/home/168843349,MLSLI,3160252,N,Y,40.7730599,-73.8246699
MLS Listing,,Condo/Co-op,679 W 239th St Unit 3H,Bronx,NY,10463,299900,2,1,Riverdale,1000,,1960,136,300,,Active,,,http://www.redfin.com/NY/The-Bronx/679-W-239th-St-10463/unit-3H/home/168843243,HGMLS,5044111,N,Y,40.8901764,-73.9146261
MLS Listing,,Condo/Co-op,123-35 82nd Rd Unit 6A,Kew Gardens,NY,11415,288000,1,1,Hampton House,945,,1948,137,305,,Active,,,http://www.redfin.com/NY/Kew-Gardens/123-35-82nd-Rd-11415/unit-6A/home/28941141,MLSLI,3159927,N,Y,40.7121373,-73.8277084
MLS Listing,,Condo/Co-op,18-70 211 St Unit 4H,Bayside,NY,11360,299000,2,1,Bay Terrace,,,1958,138,,,Active,,,http://www.redfin.com/NY/Bayside/1870-211th-St-11360/unit-4H/home/168801345,MLSLI,3159609,N,Y,40.7803051,-73.7817562
MLS Listing,,Condo/Co-op,3333 82 St Unit 3K,Jackson Heights,NY,11372,289000,1,1,3333 82 Street Owners,650,,1952,139,445,,Active,,,http://www.redfin.com/NY/Jackson-Heights/3333-82nd-St-11372/unit-3K/home/168782603,MLSLI,3159449,N,Y,40.7544323,-73.8849306
MLS Listing,,Condo/Co-op,9910 60 Ave Unit 1B,Corona,NY,11368,299000,2,1,Sherwood Village,,,1960,139,,,Active,,,http://www.redfin.com/NY/Corona/99-10-60th-Ave-11368/unit-1B/home/20630155,MLSLI,3159311,N,Y,40.7364499,-73.8584826
MLS Listing,,Condo/Co-op,97-10 62 Dr Unit 1C,Rego Park,NY,11374,289000,1,1,Park City 3&4 Apts,,,1954,141,,,Active,,,http://www.redfin.com/NY/Rego-Park/97-10-62nd-Dr-11374/unit-1C/home/168735062,MLSLI,3158884,N,Y,40.7324113,-73.8613203
MLS Listing,,Condo/Co-op,102-55 67 Rd Unit 6V,Forest Hills,NY,11375,275000,1,1,River Garden Potomac,790,,1952,142,348,,Active,,,http://www.redfin.com/NY/Forest-Hills/102-55-67th-Rd-11375/unit-6V/home/21689358,MLSLI,3158792,N,Y,40.7276567,-73.8498445
MLS Listing,,Condo/Co-op,99-40 63 Rd Unit 7P,Rego Park,NY,11374,279000,1,1,Anita Terrace,,,,143,,,Active,,,http://www.redfin.com/NY/Rego-Park/99-40-63rd-Rd-11374/unit-7P/home/20645209,MLSLI,3158682,N,Y,40.7323435,-73.8555591
MLS Listing,,Condo/Co-op,29-49 137 St #5,Flushing,NY,11354,288000,1,1,Linden Tower Coop #4,,,1955,146,,,Active,,,http://www.redfin.com/NY/Flushing/29-49-137th-St-11354/unit-5/home/168732601,MLSLI,3157691,N,Y,40.7702807,-73.8311978
MLS Listing,,Condo/Co-op,,Brooklyn,NY,11234,295000,1,1,,509,,1989,146,580,,Active,,,http://www.redfin.com/NY/Brooklyn/Undisclosed-address-11234/home/168688503,BNYMLS,432631,N,Y,40.6007956,-73.9065883
MLS Listing,,Condo/Co-op,,Brooklyn,NY,11234,295000,1,1,,514,,1989,146,574,,Active,,,http://www.redfin.com/NY/Brooklyn/Undisclosed-address-11234/home/168688480,BNYMLS,432628,N,Y,40.6007956,-73.9065883
MLS Listing,,Condo/Co-op,82-15 268 St,Floral Park,NY,11004,280000,1,1,Langdale,,,1960,147,,,Active,,,http://www.redfin.com/NY/Floral-Park/8215-268-ST-11004/home/168683173,MLSLI,3157222,N,Y,40.7430884,-73.7095365
MLS Listing,,Condo/Co-op,225-29 Hillside Ave,Queens Village,NY,11427,275000,3,1,Bell Park Manor,,,1950,153,,,Active,,,http://www.redfin.com/NY/Queens-Village/225-29-Hillside-Ave-11427/Lowr/home/40417890,MLSLI,3155545,N,Y,40.7322429,-73.7418309
MLS Listing,,Condo/Co-op,2675 East 7 St Unit 1F,Brooklyn,NY,11235,279000,1,1,Brooklyn,725,,,154,385,,Active,,,http://www.redfin.com/NY/Brooklyn/2675-E-7th-St-11235/unit-1F/home/142629426,BNYMLS,432442,N,Y,40.5852999,-73.961251
MLS Listing,,Condo/Co-op,27010 Grand Central Pkwy Unit 1C,Floral Park,NY,11005,279000,1,2,North Shore Towers,800,,1975,157,349,,Active,,,http://www.redfin.com/NY/FLORAL-PARK/27010-GRAND-CENTRAL-PKWY-11005/unit-1C/home/144211972,MLSLI,3154949,N,Y,40.75678,-73.714212
MLS Listing,,Condo/Co-op,141-05 Pershing Cres #612,Briarwood,NY,11435,283500,2,1,The Griswald,,,1959,157,,,Active,,,http://www.redfin.com/NY/Briarwood/141-05-Pershing-Cres-11435/unit-612/home/160372287,MLSLI,3154931,N,Y,40.7117455,-73.8174173
MLS Listing,,Condo/Co-op,74-22 220th St,Bayside,NY,11364,287000,2,1,Oakland Gardens,,,1955,157,,,Active,,,http://www.redfin.com/NY/Oakland-Gardens/74-22-220th-St-11364/Uppr/home/20631284,MLSLI,3154673,N,Y,40.7402356,-73.754178
MLS Listing,,Condo/Co-op,3111 Brighton 2 St Unit 2G,Brooklyn,NY,11235,279000,1,1,Brooklyn,775,,1959,159,360,,Active,,,http://www.redfin.com/NY/Brooklyn/3111-Brighton-2nd-St-11235/unit-2G/home/59291752,BNYMLS,432332,N,Y,40.5760517,-73.9646827
MLS Listing,,Condo/Co-op,144-36 78th Ave Unit 2D,Kew Garden Hills,NY,11367,288000,2,1,Kew Terrace,,,1950,160,,,Active,,,http://www.redfin.com/NY/Flushing/144-36-78th-Ave-11367/unit-2D/home/20638731,MLSLI,3153653,N,Y,40.7203402,-73.8168162
MLS Listing,,Condo/Co-op,61-20 Grand Central Pkwy Unit C1507,Forest Hills,NY,11375,297000,1,1,Fairview,800,,1965,164,371,,Active,,,http://www.redfin.com/NY/Forest-Hills/61-20-Grand-Central-Pkwy-11375/unit-C1507/home/168164833,MLSLI,3152934,N,Y,40.7379288,-73.8469001
MLS Listing,,Condo/Co-op,223-16 Manor Rd,Queens Village,NY,11427,289000,2,1,Bell Park Manor Terrace,,,1955,165,,,Active,,,http://www.redfin.com/NY/Queens-Village/223-16-Manor-Rd-11427/home/168156097,MLSLI,3152562,N,Y,40.7327875,-73.7431805
MLS Listing,,Condo/Co-op,5 Adelaide St Unit B1 D2,Floral Park,NY,11001,289000,1,1,Flowerview,838,,1953,165,345,,Active,,,http://www.redfin.com/NY/Floral-Park/5-Adelaide-St-11001/unit-B1-D2/home/168192601,MLSLI,3152485,N,Y,40.725949,-73.709162
MLS Listing,,Condo/Co-op,84-70 129th St Unit 4A,Kew Gardens,NY,11415,299000,2,1.5,Metro Manor,,,1950,167,,,Active,,,http://www.redfin.com/NY/Jamaica/84-70-129th-St-11415/unit-4A/home/108535754,MLSLI,3151683,N,Y,40.7050067,-73.8239907
MLS Listing,,Single Family Residential,166 Roma Ave,New York,NY,10306,279000,3,1,New York,1000,2050,1930,167,279,,Active,,,http://www.redfin.com/NY/Staten-Island/166-Roma-Ave-10306/home/56090107,BNYMLS,432100,N,Y,40.5617462,-74.1033263
MLS Listing,,Condo/Co-op,144-17 79th Ave Unit 2d,Flushing,NY,11367,279999,2,1,Kew Terrace,850,,1949,168,329,853,Active,,,http://www.redfin.com/NY/Flushing/144-17-79th-Ave-11367/unit-2D/home/143867015,MLSLI,3151524,N,Y,40.7189939,-73.8170923
MLS Listing,,Condo/Co-op,67-66 108th St Unit A62,Forest Hills,NY,11375,288888,1,1,George Washington,,,1949,171,,,Active,,,http://www.redfin.com/NY/Unknown/6766-108th-St-11375/unit-A62/home/144227644,MLSLI,3150669,N,Y,40.7271058,-73.8471227
MLS Listing,,Condo/Co-op,83-06 Vietor Ave Unit 5 J,Elmhurst,NY,11373,280000,1,1,8306 Vietor Ave Owner Co,804,,1933,174,348,,Active,,,http://www.redfin.com/NY/Elmhurst/8306-Vietor-Ave-11373/unit-5J/home/26835693,MLSLI,3149759,N,Y,40.7425392,-73.8815598
MLS Listing,,Condo/Co-op,3671 Hudson Manor Ter Unit 14G,Bronx,NY,10463,289000,1,1,Riverdale,775,,1970,175,373,,Active,,,http://www.redfin.com/NY/The-Bronx/3671-Hudson-Manor-Ter-10463/unit-14G/home/44768130,HGMLS,4967708,N,Y,40.8881345,-73.9162336
MLS Listing,,Condo/Co-op,78-42 147 St Unit 2B,Flushing,NY,11367,295000,2,1,Kew Terrace,,,1950,177,,,Active,,,http://www.redfin.com/NY/Flushing/78-42-147th-St-11367/unit-2B/home/20640259,MLSLI,3149032,N,Y,40.7194303,-73.8159581
MLS Listing,,Condo/Co-op,Unit at 25 Tudor City Pl,New York,NY,10017,295000,0,1,Middle East Side,,,,178,,,Active,,,http://www.redfin.com/NY/New-York/25-Tudor-City-Pl-10017/home/45154067,REBNY,UCOM1838486,N,Y,40.7484484,-73.9706936
MLS Listing,,Condo/Co-op,Unit at 24 Cooper St,New York,NY,10034,299000,2,1,Inwood,,,,178,,,Active,,,http://www.redfin.com/NY/New-York/24-Cooper-St-10034/home/144558375,REBNY,BOND1584208,N,Y,40.8676818,-73.9248222
MLS Listing,,Single Family Residential,52 South St,Staten Island,NY,10310,299000,3,2,West Brighton,1384,2700,1899,179,216,,Active,,,http://www.redfin.com/NY/Staten-Island/52-South-St-10310/home/56113062,SIBORMLS,1130726,N,Y,40.6332761,-74.1161734
MLS Listing,,Condo/Co-op,209-20 18th Ave Unit 3J,Bayside,NY,11360,285000,1,1,Bay Terrace,,,1960,180,,,Active,,,http://www.redfin.com/NY/Bayside/20920-18th-Ave-11360/unit-3J/home/20644748,MLSLI,3148098,N,Y,40.781622,-73.783073
MLS Listing,,Condo/Co-op,Unit at 2 E 55th St,New York,NY,10022,299000,2,3,Middle East Side,,,,180,,,Active,,,http://www.redfin.com/NY/New-York/2-E-55th-St-10022/home/143823045,REBNY,STRI516382,N,Y,40.7613979,-73.9746128
MLS Listing,,Condo/Co-op,196-43 73 Ave Unit 1Fl,Fresh Meadows,NY,11366,299000,2,1,Meadowlark Gardens,,,1951,181,,,Active,,,http://www.redfin.com/NY/Flushing/19643-73-Ave-11366/unit-1-Fl/home/148602189,MLSLI,3147674,N,Y,40.7284018,-73.7874983
MLS Listing,,Condo/Co-op,Unit at 660 St Nicholas Ave,New York,NY,10031,300000,1,1,Hamilton Heights,,,,181,,,Active,,,http://www.redfin.com/NY/New-York/660-Saint-Nicholas-Ave-10030/home/167145585,REBNY,STRI1833999,N,Y,40.8224417,-73.9451923
MLS Listing,,Condo/Co-op,5425 Valles Ave Unit S2P,Bronx,NY,10471,294000,2,1,Bronx,1000,,1965,182,294,,Active,,,http://www.redfin.com/NY/The-Bronx/5425-Valles-Ave-10471/unit-S2P/home/44801934,HGMLS,4989770,N,Y,40.9020245,-73.90002
MLS Listing,,Condo/Co-op,209-80 18 Ave Unit 1H,Bayside,NY,11360,275000,2,1,Bay Terrance,,,1962,189,,,Active,,,http://www.redfin.com/NY/Bayside/209-80-18th-Ave-11360/unit-1H/home/167182916,MLSLI,3145137,N,Y,40.7818627,-73.7823871
MLS Listing,,Condo/Co-op,Unit at 209 -25 18th Ave,Queens,NY,11360,299900,2,1,Bayside,,,,194,,,Active,,,http://www.redfin.com/NY/Bayside/209-80-18th-Ave-11360/home/21467239,REBNY,DEGI3859834,N,Y,40.7818708,-73.7824088
MLS Listing,,Condo/Co-op,1046 Ovington Ave Unit 2B,Brooklyn,NY,11219,295000,1,1,Brooklyn,650,,,196,454,,Active,,,http://www.redfin.com/NY/Brooklyn/1046-Ovington-Ave-11219/unit-2B/home/40673059,BNYMLS,431018,N,Y,40.6272402,-74.0091281
MLS Listing,,Condo/Co-op,Unit at 457 W 57th St,New York,NY,10019,299000,0,1,Middle West Side,,,,196,,,Active,,,http://www.redfin.com/NY/New-York/457-W-57th-St-10019/home/45328584,REBNY,UCOM188468,N,Y,40.7689628,-73.9875712
MLS Listing,,Condo/Co-op,61-20 Grand Central Pkwy Unit A100,Forest Hills,NY,11375,299000,1,1,The Fairview,900,,1967,204,332,,Active,January-18-2020 12:00 PM,January-18-2020 04:00 PM,http://www.redfin.com/NY/Unknown/61-20-Grand-Central-Pkwy-11375/unit-A100/home/145876802,MLSLI,3141157,N,Y,40.7380691,-73.8473845
MLS Listing,,Condo/Co-op,61-20 Grand Central Pkwy Unit C1104,Forest Hills,NY,11375,289000,1,1,The Fairview,850,,1964,205,340,,Active,January-18-2020 12:00 PM,January-18-2020 04:00 PM,http://www.redfin.com/NY/Forest-Hills/61-20-Grand-Central-Pkwy-11375/unit-C1104/home/164427848,MLSLI,3141086,N,Y,40.7380691,-73.8473845
MLS Listing,,Condo/Co-op,,Brooklyn,NY,11234,290000,3,1,,865,,,206,335,,Active,,,http://www.redfin.com/NY/Brooklyn/Undisclosed-address-11234/home/167121746,BNYMLS,430996,N,Y,40.6007956,-73.9065883
MLS Listing,,Condo/Co-op,Unit at 100 W 57th St,New York,NY,10019,299000,2,2,Middle West Side,,,,207,,,Active,,,http://www.redfin.com/NY/New-York/100-W-57th-St-10019/home/167117002,REBNY,CORC5772494,N,Y,40.764034,-73.9777228
MLS Listing,,Single Family Residential,657 Ilyssa Way,Staten Island,NY,10312,299900,3,4,Arden Heights,1512,550,1996,208,198,163,Active,,,http://www.redfin.com/NY/Staten-Island/657-Ilyssa-Way-10312/home/56092795,SIBORMLS,1129953,N,Y,40.5626554,-74.186823
MLS Listing,,Condo/Co-op,Unit at 32 -25 90th St,Queens,NY,11369,280000,1,1,Jackson Heights,,,,209,,,Active,,,http://www.redfin.com/NY/Flushing/32-23-90th-St-11369/home/167105377,REBNY,HDAX1245,N,Y,40.7579182,-73.8780407
MLS Listing,,Single Family Residential,186-16 Hilburn Ave,Jamaica,NY,11412,280000,2,1,Jamaica,1111,4000,1930,211,252,,Active,,,http://www.redfin.com/NY/Jamaica/186-16-Hilburn-Ave-11412/home/20754248,MLSLI,3138838,N,Y,40.700491,-73.768765
MLS Listing,,Single Family Residential,19 Wolkoff Ln,Staten Island,NY,10303,300000,,,Graniteville,,,,213,,,Active,,,http://www.redfin.com/NY/Staten-Island/19-Wolkoff-Ln-10303/home/56097247,REBNY,PURP76500,N,Y,40.6224038,-74.1652041
MLS Listing,,Condo/Co-op,Unit at 9902 Third Ave,Brooklyn,NY,11209,299000,1,1,Brooklyn,,,,214,,,Active,,,http://www.redfin.com/NY/Brooklyn/9902-3rd-Ave-11209/home/63687816,REBNY,UCOM1320801,N,Y,40.6141658,-74.0353827
MLS Listing,,Condo/Co-op,129 E 102nd St Unit 5D,Manhattan,NY,10029,275000,2,1,Harlem,,,1920,215,,,Active,,,http://www.redfin.com/NY/New-York/129-E-102nd-St-10029/unit-5D/home/167083956,MLSLI,3137703,N,Y,40.7898734,-73.9483415
MLS Listing,,Vacant Land,666 Osborn St,Brooklyn,NY,11212,299000,,,Brooklyn,,1295,,220,,,Active,,,http://www.redfin.com/NY/Brooklyn/666-Osborn-St-11212/home/40754428,BNYMLS,430689,N,Y,40.655356,-73.9053805
MLS Listing,,Condo/Co-op,39-82 65th Pl Unit 4F,Woodside,NY,11377,289000,1,1,39-82 65th Pl Develp.,,,1929,222,,,Active,,,http://www.redfin.com/NY/Flushing/39-82-65th-Pl-11377/unit-4F/home/167040872,MLSLI,3135434,N,Y,40.743804,-73.899283
MLS Listing,,Condo/Co-op,61-88 Dry Harbor Rd,Middle Village,NY,11379,289000,0,1,Belgravia,,,1910,225,,,Active,,,http://www.redfin.com/NY/Flushing/61-88-Dry-Harbor-Rd-11379/home/20894955,MLSLI,3134274,N,Y,40.72576,-73.872754
MLS Listing,,Condo/Co-op,2240 Burnett St Unit 2H,Brooklyn,NY,11229,279000,2,1,Brooklyn,960,,1952,227,291,,Active,,,http://www.redfin.com/NY/Brooklyn/2240-Burnett-St-11229/unit-2H/home/166923561,BNYMLS,430437,N,Y,40.6017533,-73.932769
MLS Listing,,Condo/Co-op,Unit at 811 Walton Ave,Bronx,NY,10451,285000,1,1,Concourse,,,,228,,,Active,,,http://www.redfin.com/NY/The-Bronx/811-Walton-Ave-10451/home/44770391,REBNY,HALS19651508,N,Y,40.8255837,-73.9252878
MLS Listing,,Multi-Family (2-4 Unit),650 E 87th St,Brooklyn,NY,11236,280000,2,1,Brooklyn,1710,3419,1920,230,164,,Active,,,http://www.redfin.com/NY/Brooklyn/650-E-87th-St-11236/home/40885114,HGMLS,4936763,N,Y,40.6407846,-73.9105958
MLS Listing,,Condo/Co-op,3178 Nostrand Ave Unit 5C,Brooklyn,NY,11229,299000,2,2,Brooklyn,1100,,,230,272,,Active,,,http://www.redfin.com/NY/Brooklyn/3178-Nostrand-Ave-11229/unit-5C/home/40661113,BNYMLS,430339,N,Y,40.6064368,-73.9432551
MLS Listing,,Condo/Co-op,55 Austin Pl Unit 2s,Staten Island,NY,10304,289000,2,1,Silver Lake,865,865,1960,230,334,597,Active,,,http://www.redfin.com/NY/Staten-Island/55-Austin-Pl-10304/unit-2S/home/56048850,SIBORMLS,1129276,N,Y,40.6316064,-74.0856185
MLS Listing,,Condo/Co-op,67-69 Saint Nicholas Ave #7,New York,NY,10026,279000,3,1,Harlem,900,,1904,234,310,,Active,,,http://www.redfin.com/NY/New-York/7-Saint-Nicholas-Ave-10026/unit-7/home/166837594,MLSLI,3131940,N,Y,40.7989423,-73.9525994
MLS Listing,,Condo/Co-op,3 Fordham Hill Oval Unit 17F,Bronx,NY,10468,285000,2,1.5,Bronx,986,,1950,234,289,,Active,,,http://www.redfin.com/NY/The-Bronx/3-Fordham-Hill-Oval-10468/unit-17F/home/166834269,HGMLS,4936365,N,Y,40.8646489,-73.9082109
MLS Listing,,Condo/Co-op,8 Fordham Hill Oval Unit 10C,Bronx,NY,10468,285000,2,1.5,Bronx,935,,1950,234,305,,Active,,,http://www.redfin.com/NY/The-Bronx/8-Fordham-Hill-Oval-10468/unit-10C/home/166834059,HGMLS,4936372,N,Y,40.8643305,-73.9075188
MLS Listing,,Condo/Co-op,68-37 108 St Unit 4M,Forest Hills,NY,11375,299000,1,1,Claremont,,,1939,242,,,Active,,,http://www.redfin.com/NY/Flushing/68-37-108th-St-11375/unit-4M/home/166710168,MLSLI,3129591,N,Y,40.726038,-73.845711
MLS Listing,,Condo/Co-op,2575 Palisade Ave Unit 3J,Bronx,NY,10463,285000,1,1,Riverdale,700,,1955,243,407,,Active,,,http://www.redfin.com/NY/The-Bronx/2575-Palisade-Ave-10463/unit-3J/home/166636174,HGMLS,4935162,N,Y,40.8818819,-73.921791
MLS Listing,,Condo/Co-op,Unit at 45 Tudor City Pl,New York,NY,10017,299000,0,1,Murray Hill Kips Bay,,,,245,,,Active,,,http://www.redfin.com/NY/New-York/45-Tudor-City-Pl-10017/home/45168421,REBNY,CORE1154808,N,Y,40.7489931,-73.97025
MLS Listing,,Condo/Co-op,Unit at 130 Bay Ridge Pkwy,Brooklyn,NY,11209,299000,1,1,Bay Ridge,,,,246,,,Active,,,http://www.redfin.com/NY/Brooklyn/130-Bay-Ridge-Pkwy-11209/home/40661895,REBNY,UCOM1820504,N,Y,40.632218,-74.0321902
MLS Listing,,Condo/Co-op,35-51 85 St Unit 9F,Jackson Heights,NY,11372,289000,1,1,Roosevelt Terrace Coop,,,1953,247,,,Active,,,http://www.redfin.com/NY/Jackson-Heights/35-51-85th-St-11372/unit-9F/home/166299373,MLSLI,3127847,N,Y,40.7507495,-73.8811907
MLS Listing,,Condo/Co-op,112-50 78 Ave Unit 3H,Forest Hills,NY,11375,283000,1,1,Forest Hills South,,,1930,252,,,Active,,,http://www.redfin.com/NY/Forest-Hills/11250-78th-Ave-11375/unit-3H/home/165348788,MLSLI,3126106,N,Y,40.71565,-73.8315295
MLS Listing,,Condo/Co-op,2427 E 29 St Unit 4N,Brooklyn,NY,11235,290000,2,1,Brooklyn,900,,1958,252,322,,Active,,,http://www.redfin.com/NY/Brooklyn/2427-E-29th-St-11235/unit-4N/home/40664350,BNYMLS,429639,N,Y,40.5928037,-73.9412171
MLS Listing,,Condo/Co-op,65-15 38 Ave Unit 3H,Woodside,NY,11377,299900,1,1,CO-OP,,,1963,257,,,Active,,,http://www.redfin.com/NY/Flushing/65-15-38th-Ave-11377/unit-3H/home/164542836,MLSLI,3124092,N,Y,40.7472542,-73.8978152
MLS Listing,,Condo/Co-op,70-35 Broadway Unit E12,Jackson Heights,NY,11372,299000,1,1,Hill Crest Owners Assoc,610,,1927,259,490,,Active,,,http://www.redfin.com/NY/Jackson-Heights/7035-Broadway-11372/unit-E12/home/59307360,MLSLI,3123545,N,Y,40.7484699,-73.89565
MLS Listing,,Condo/Co-op,35-24 72nd St Unit 5E,Jackson Heights,NY,11372,295000,1,1,Fildor Court,676,,1937,263,436,,Active,,,http://www.redfin.com/NY/Jackson-Heights/35-24-72nd-St-11372/unit-5E/home/20662437,MLSLI,3122545,N,Y,40.7500992,-73.8939711
MLS Listing,,Condo/Co-op,2620 Ocean Pkwy Unit 2K,Brooklyn,NY,11235,279000,1,1,Brooklyn,800,,,264,349,,Active,,,http://www.redfin.com/NY/Brooklyn/2620-Ocean-Pkwy-11235/unit-2K/home/163597221,BNYMLS,429311,N,Y,40.5860267,-73.9670953
MLS Listing,,Condo/Co-op,Unit at 478 W 158th St,New York,NY,10032,275000,1,1,Washington Heights,,,,264,,,Active,,,http://www.redfin.com/NY/New-York/478-W-158th-St-10032/home/45211992,REBNY,UCOM550907,N,Y,40.8329112,-73.9405629
MLS Listing,,Condo/Co-op,Unit at 457 W 57th St,New York,NY,10019,285000,0,1,Middle West Side,,,,266,,,Active,,,http://www.redfin.com/NY/New-York/457-W-57th-St-10019/home/145794201,REBNY,HALS19557407,N,Y,40.7689628,-73.9875712
MLS Listing,,Condo/Co-op,2650 Ocean Pkwy Unit 12R,Brooklyn,NY,11235,285000,1,1,Brooklyn,750,,1962,272,380,,Active,,,http://www.redfin.com/NY/Brooklyn/2650-Ocean-Pkwy-11235/unit-12R/home/162308813,BNYMLS,429079,N,Y,40.5854381,-73.9670533
MLS Listing,,Condo/Co-op,18-70 211th St Unit 5C,Bayside,NY,11360,279999,2,1,Bay Terrace X,,,1959,279,,,Active,,,http://www.redfin.com/NY/Bayside/18-70-211th-St-11360/unit-5C/home/40275878,MLSLI,3117317,N,Y,40.7803049,-73.7817565
MLS Listing,,Condo/Co-op,27-04 Parsons Blvd Unit 1E,Flushing,NY,11354,295000,2,1,Linden Hill 2,,,1953,287,,,Active,,,http://www.redfin.com/NY/Flushing/27-04-Parsons-Blvd-11354/unit-1E/home/20654731,MLSLI,3114373,N,Y,40.7736953,-73.8251152
MLS Listing,,Condo/Co-op,1530 East 8 St Unit 6B,Brooklyn,NY,11230,279000,1,1,Brooklyn,625,,,291,446,,Active,,,http://www.redfin.com/NY/Unknown/1530-E-8th-St-11230/unit-6B/home/147404117,BNYMLS,428472,N,Y,40.611314,-73.9658306
MLS Listing,,Condo/Co-op,Unit at 409 Edgecombe Ave,New York,NY,10032,299000,1,1,Hamilton Heights,,,,302,,,Active,,,http://www.redfin.com/NY/New-York/409-Edgecombe-Ave-10032/home/45164770,REBNY,BOND1551384,N,Y,40.829362,-73.940078
MLS Listing,,Condo/Co-op,35-31 85 St Unit 5F,Jackson Heights,NY,11372,299000,1,,Historic District,675,,1954,306,443,,Active,,,http://www.redfin.com/NY/Jackson-Heights/3531-85th-St-11372/unit-5F/home/20622488,MLSLI,3108934,N,Y,40.7512279,-73.8812776
MLS Listing,,Condo/Co-op,Unit at 1075 Grand Concourse,Bronx,NY,10452,299000,1,1,Concourse,,,,310,,,Active,,,http://www.redfin.com/NY/The-Bronx/1075-Grand-Concourse-10452/home/44765757,REBNY,DEGI3710628,N,Y,40.8320496,-73.9207806
MLS Listing,,Condo/Co-op,36 Hamilton Ave Unit 5m,Staten Island,NY,10301,275000,1,1,St. George,900,900,1964,310,306,796,Active,,,http://www.redfin.com/NY/Staten-Island/36-Hamilton-Ave-10301/unit-5m/home/160630847,SIBORMLS,1126864,N,Y,40.6448994,-74.0787997
MLS Listing,,Single Family Residential,576 Cary Ave,Staten Island,NY,10310,299999,3,2,West Brighton,1296,4653,1920,319,231,,Active,,,http://www.redfin.com/NY/Staten-Island/576-Cary-Ave-10310/home/56013819,SIBORMLS,1126584,N,Y,40.631952,-74.12111
MLS Listing,,Condo/Co-op,20 Cliff St Unit 2j,Staten Island,NY,10305,279000,1,1,Fort Wadsworth,625,625,1965,321,446,664,Active,,,http://www.redfin.com/NY/Staten-Island/20-Cliff-St-10305/unit-2J/home/77414826,SIBORMLS,1126548,N,Y,40.6109595,-74.060351
MLS Listing,,Condo/Co-op,1840 East 13 St Unit 3V,Brooklyn,NY,11229,285000,1,,Brooklyn,600,,,321,475,,Active,,,http://www.redfin.com/NY/Brooklyn/1840-E-13th-St-11229/unit-3V/home/40661117,BNYMLS,427584,N,Y,40.6044492,-73.9597406
MLS Listing,,Condo/Co-op,16 Jupiter Ln,call Listing Agent,NY,10303,299000,2,1,Staten Island,1051,,1991,332,284,298,Active,,,http://www.redfin.com/NY/Staten-Island/16-Jupiter-Ln-10303/home/56016606,HGMLS,4855906,N,Y,40.6259004,-74.1590407
MLS Listing,,Condo/Co-op,2615 Avenue O Unit 2k,Brooklyn,NY,11210,297900,2,1,Midwood,1000,,1950,335,298,675,Active,,,http://www.redfin.com/NY/Brooklyn/2615-Avenue-O-11210/unit-2K/home/40653828,SIBORMLS,1126192,N,Y,40.6143499,-73.9478618
MLS Listing,,Condo/Co-op,75-40 Austin St Unit 3Cl,Forest Hills,NY,11375,289000,1,1,Michelle Towers,,,1958,338,,,Active,,,http://www.redfin.com/NY/Forest-Hills/75-40-Austin-St-11375/unit-3Cl/home/160445455,MLSLI,3099998,N,Y,40.7162604,-73.837781
MLS Listing,,Condo/Co-op,137-05 Jewel Ave Unit A,Kew Garden Hills,NY,11367,300000,1,1,Hyde Park Gardens,,,1950,344,,,Active,,,http://www.redfin.com/NY/Flushing/13705-Jewel-Ave-11367/unit-A/home/20653324,MLSLI,3098201,N,Y,40.72956,-73.829193
MLS Listing,,Condo/Co-op,Unit at 546 W 156th St,New York,NY,10032,289000,2,1,Washington Heights,,,,359,,,Active,,,http://www.redfin.com/NY/New-York/546-W-156th-St-10032/home/45338558,REBNY,CIGI19381101,N,Y,40.8326989,-73.9441335
MLS Listing,,Condo/Co-op,9 Alden Park #9,Bronx,NY,10465,278000,4,2,Bronx,1400,,1940,364,199,,Active,,,http://www.redfin.com/NY/Bronx/9-Alden-Park-10465/unit-9/home/148717961,HGMLS,4901900,N,Y,40.8225028,-73.8073313
MLS Listing,,Condo/Co-op,Unit at 321 E 43rd St,New York,NY,10017,290000,0,1,Middle East Side,,,,367,,,Active,,,http://www.redfin.com/NY/New-York/321-43rd-St-10017/home/45327195,REBNY,ELEG742285,N,Y,40.7502464,-73.9707498
MLS Listing,,Condo/Co-op,109-23 71 Rd Unit 1D,Forest Hills,NY,11375,298000,1,1,109-23 Owners Corp,,,1950,428,,,Active,,,http://www.redfin.com/NY/Unknown/109-23-71st-Rd-11375/unit-1D/home/144029356,MLSLI,3080459,N,Y,40.7214374,-73.8425036
MLS Listing,,Condo/Co-op,640 Ditmas Ave #5,Brooklyn,NY,11218,299000,0,1,Brooklyn,419,,1922,440,714,,Active,,,http://www.redfin.com/NY/Brooklyn/640-Ditmas-Ave-11218/unit-5/home/40924356,BNYMLS,424814,N,Y,40.6360095,-73.9716182
MLS Listing,,Condo/Co-op,145 Lincoln Ave Unit 7 Y,Staten Island,NY,10306,279900,2,1,Grant City,868,868,1965,462,322,562,Active,,,http://www.redfin.com/NY/Staten-Island/145-Lincoln-Ave-10306/unit-7Y/home/56022170,SIBORMLS,1123264,N,Y,40.579062,-74.1076165
MLS Listing,,Condo/Co-op,Unit at 340 E 83rd St,New York,NY,10028,299000,0,1,Upper East Side,,,,479,,,Active,,,http://www.redfin.com/NY/New-York/340-E-83rd-St-10028/home/45161887,REBNY,UCOM91551,N,Y,40.7749646,-73.9513432
MLS Listing,,Condo/Co-op,108 Pond Way Unit B,Richmond,NY,10303,290000,3,2.5,Heron Pond Condominium,2356,,1988,521,123,,Active,,,http://www.redfin.com/NY/Staten-Island/108-Pond-Way-10303/unit-B/home/56051829,MLSLI,3056015,N,Y,40.635033,-74.169574
MLS Listing,,Vacant Land,83 Wandell Ave,Staten Island,NY,10304,289000,0,,Grymes Hill,,4480,,552,,,Active,,,http://www.redfin.com/NY/Staten-Island/83-Wandel-Ave-10304/home/56075521,SIBORMLS,1120938,N,Y,40.615794,-74.090481
MLS Listing,,Vacant Land,79 Wandell Ave,Staten Island,NY,10304,289000,0,,Grymes Hill,,4504,,552,,,Active,,,http://www.redfin.com/NY/Staten-Island/79-Wandel-Ave-10304/home/56075520,SIBORMLS,1120937,N,Y,40.615751,-74.090348
MLS Listing,,Condo/Co-op,Unit at 155 E 49th St,New York,NY,10017,275000,0,1,Middle East Side,,,,563,,,Active,,,http://www.redfin.com/NY/New-York/155-E-49th-St-10017/home/146130187,REBNY,CORC5458145,N,Y,40.7556785,-73.9718399
MLS Listing,,Condo/Co-op,35-11 85th St Unit 7L,Jackson Heights,NY,11372,295000,1,1,Roosevelt Terrace 1,660,,1955,587,447,,Active,,,http://www.redfin.com/NY/Unknown/35-11-85th-St-11372/unit-7L/home/145987543,MLSLI,3036668,N,Y,40.7517149,-73.8817081
MLS Listing,,Condo/Co-op,65-38 Booth Unit 4H,Rego Park,NY,11374,290000,1,1,65-38 Owners Corp,,,1950,603,,,Active,,,http://www.redfin.com/NY/Flushing/65-38-Booth-St-11374/unit-4H/home/20635540,MLSLI,3031884,N,Y,40.726787,-73.858789
MLS Listing,,Single Family Residential,111 Faber St,Staten Island,NY,10302,293000,3,1,Port Richmond,876,3000,1899,615,334,,Active,,,http://www.redfin.com/NY/Staten-Island/111-Faber-St-10302/home/56112633,SIBORMLS,1119108,N,Y,40.6379396,-74.1355227
MLS Listing,,Townhouse,,Richmond Hill,NY,11419,289000,2,2,Richmond Hill,,2000,1940,639,,,Active,,,http://www.redfin.com/NY/Jamaica/Undisclosed-address-11419/home/20771064,MLSLI,3020603,N,Y,40.681569,-73.829258
MLS Listing,,Vacant Land,39-04 Stuart Ln,Douglaston,NY,11363,279000,,,Douglaston,,19602,,641,,,Active,,,http://www.redfin.com/NY/Unknown/3904-Stuart-Ln-11363/home/146259437,MLSLI,3020114,N,Y,40.7703215,-73.7448527
MLS Listing,,Townhouse,153-27 118th Ave,Jamaica,NY,11434,299000,2,1,Jamaica,,1325,1920,705,,,Active,,,http://www.redfin.com/NY/Jamaica/153-27-118th-Ave-11434/home/20708950,MLSLI,3002803,N,Y,40.681291,-73.788724
MLS Listing,,Condo/Co-op,Unit at 25 W 64th St,New York,NY,10023,295000,0,1,Upper West Side,,,,717,,,Active,,,http://www.redfin.com/NY/New-York/25-W-64th-St-10023/home/144772204,REBNY,UCOM1726598,N,Y,40.7718204,-73.9807098
MLS Listing,,Condo/Co-op,Unit at 25 Tudor City Pl,New York,NY,10017,279000,0,1,Middle East Side,,,,789,,,Active,,,http://www.redfin.com/NY/New-York/25-Tudor-City-Pl-10017/home/45154308,REBNY,UCOM1347806,N,Y,40.7484484,-73.9706936
