SALE TYPE,SOLD DATE,PROPERTY TYPE,ADDRESS,CITY,STATE OR PROVINCE,ZIP OR POSTAL CODE,PRICE,BEDS,BATHS,LOCATION,SQUARE FEET,LOT SIZE,YEAR BUILT,DAYS ON MARKET,$/SQUARE FEET,HOA/MONTH,STATUS,NEXT OPEN HOUSE START TIME,NEXT OPEN HOUSE END TIME,URL (SEE http://www.redfin.com/buy-a-home/comparative-market-analysis FOR INFO ON PRICING),SOURCE,MLS#,FAVORITE,INTERESTED,LATITUDE,LONGITUDE
MLS Listing,,Condo/Co-op,333 E 119 St Unit 4K,New York,NY,10035,429900,2,1.5,New York,800,,2005,1,537,,Active,,,http://www.redfin.com/NY/New-York/333-E-119th-St-10035/unit-4K/home/45163287,BNYMLS,435896,N,Y,40.7986288,-73.9351095
MLS Listing,,Single Family Residential,130-22 218 St,Laurelton,NY,11413,450000,3,1,Laurelton,,4000,1950,1,,,Active,,,http://www.redfin.com/NY/Jamaica/130-22-218th-St-11413/home/20697773,MLSLI,3191346,N,Y,40.6844139,-73.748956
MLS Listing,,Townhouse,32-06 Bayswater Ct,Far Rockaway,NY,11691,440000,4,2.5,Far Rockaway,,1825,1930,3,,,Active,,,http://www.redfin.com/NY/Far-Rockaway/32-06-Baywater-Ct-11691/home/20675772,MLSLI,3191004,N,Y,40.612945,-73.766228
MLS Listing,,Single Family Residential,15 Redwood Loop,Staten Island,NY,10309,440000,2,2,Rossville,1020,1566,1985,3,431,190,Active,,,http://www.redfin.com/NY/Staten-Island/15-Redwood-Loop-10309/home/56123396,SIBORMLS,1134776,N,Y,40.5479096,-74.2149835
MLS Listing,,Condo/Co-op,5800 Arlington Ave Unit 19H,Bronx,NY,10471,445000,2,1,Riverdale,975,,1963,3,456,,Active,,,http://www.redfin.com/NY/The-Bronx/5800-Arlington-Ave-10471/unit-19H/home/114790795,HGMLS,6002533,N,Y,40.9080135,-73.9055787
MLS Listing,,Single Family Residential,66 Brandis Ave,Staten Island,NY,10312,445000,2,3,Eltingville,1380,840,1993,3,322,82,Active,,,http://www.redfin.com/NY/Staten-Island/66-Brandis-Ave-10312/home/56137547,SIBORMLS,1134757,N,Y,40.557946,-74.171804
MLS Listing,,Condo/Co-op,8502 Ft. Hamilton Pkwy Unit 4H,Brooklyn,NY,11209,429000,2,1,Brooklyn,850,,,4,505,,Active,,,http://www.redfin.com/NY/Brooklyn/8502-Fort-Hamilton-Pkwy-11209/unit-4H/home/143435545,BNYMLS,435821,N,Y,40.6209976,-74.0241118
MLS Listing,,Condo/Co-op,33-65 14th St Unit 8c,Queens,NY,11106,450000,2,1,Off Island,1200,66397,1958,4,375,788,Active,,,http://www.redfin.com/NY/Long-Island-City/33-65-14th-St-11106/unit-8c/home/170242123,SIBORMLS,1134741,N,Y,40.7636271,-73.9349082
MLS Listing,,Single Family Residential,451 Turneur Ave,Bronx,NY,10473,429000,2,1.5,Bronx,1480,2705,1940,4,290,,Active,,,http://www.redfin.com/NY/The-Bronx/451-Turneur-Ave-10473/home/44758152,HGMLS,6002965,N,Y,40.8164878,-73.8465772
MLS Listing,,Condo/Co-op,42-22 Ketcham St Unit D15,Elmhurst,NY,11373,428000,2,1,Berkshire Green,1015,,1928,4,422,,Active,,,http://www.redfin.com/NY/Flushing/42-22-Ketcham-St-11373/unit-15D/home/108535056,MLSLI,3190474,N,Y,40.7447076,-73.883558
MLS Listing,,Single Family Residential,115-28 223rd St,Cambria Heights,NY,11411,435000,3,1,Cambria Heights,,3450,1940,5,,,Active,,,http://www.redfin.com/NY/Jamaica/115-28-223rd-St-11411/home/20735127,MLSLI,3190431,N,Y,40.698728,-73.735539
MLS Listing,,Condo/Co-op,62-59 108 St Unit 4E,Forest Hills,NY,11375,435999,2,1,Coop,,,1959,5,,,Active,,,http://www.redfin.com/NY/Forest-Hills/62-59-108th-St-11375/unit-4E/home/20659254,MLSLI,3190359,N,Y,40.7354728,-73.8504981
MLS Listing,,Single Family Residential,245 Hampton Grn,Staten Island,NY,10312,425000,2,1,Arden Heights,1088,1360,1980,5,391,,Active,,,http://www.redfin.com/NY/Staten-Island/245-Hampton-Grn-10312/home/56034471,SIBORMLS,1134710,N,Y,40.5540321,-74.1961841
MLS Listing,,Single Family Residential,114-25 210th St,Cambria Heights,NY,11411,425000,4,2,Cambria Heights,,3000,1920,5,,,Active,,,http://www.redfin.com/NY/Jamaica/114-25-210th-St-11411/home/20740360,MLSLI,3190261,N,Y,40.701797,-73.744401
MLS Listing,,Townhouse,2560 Stedman Pl,Bronx,NY,10469,425000,3,1.5,Bronx,1584,4125,1960,5,268,,Active,,,http://www.redfin.com/NY/The-Bronx/2560-Stedman-Pl-10469/home/44734257,HGMLS,6001558,N,Y,40.864229,-73.8514285
MLS Listing,,Single Family Residential,36 Charleston Ave,Staten Island,NY,10309,429999,3,2,Rossville,1400,2016,1986,5,307,260,Active,,,http://www.redfin.com/NY/Staten-Island/36-Charleston-Ave-10309/unit-162/home/56073795,SIBORMLS,1134696,N,Y,40.5493093,-74.2153541
MLS Listing,,Single Family Residential,4087 Grace Ave,Bronx,NY,10466,435000,3,1.5,Bronx,1260,2491,1950,6,345,,Active,,,http://www.redfin.com/NY/The-Bronx/4087-Grace-Ave-10466/home/44782517,HGMLS,6002308,N,Y,40.8922945,-73.845605
MLS Listing,,Single Family Residential,20 Bogardus St,Brooklyn,NY,11235,439000,2,1,Brooklyn,576,924,1925,6,762,,Active,,,http://www.redfin.com/NY/Brooklyn/20-Bogardus-ST-11235/home/170225283,BNYMLS,435638,N,Y,40.5860069,-73.9418603
MLS Listing,,Condo/Co-op,130-14 60 Ave Unit 1 C,Flushing,NY,11355,450000,2,2,Parc View,870,,1988,7,517,516,Active,,,http://www.redfin.com/NY/Flushing/71-01-60th-Ave-11378/unit-1C/home/20829046,MLSLI,3189515,N,Y,40.723476,-73.888814
MLS Listing,,Multi-Family (2-4 Unit),515 Beach 21st St,Far Rockaway,NY,11691,434600,6,2,Far Rockaway,2040,4037,1950,7,213,,Active,,,http://www.redfin.com/NY/Far-Rockaway/5-15-Beach-21st-St-11691/home/20676649,MLSLI,3189434,N,Y,40.600127,-73.755251
MLS Listing,,Single Family Residential,918 Clarence Ave,Bronx,NY,10465,430000,3,1.5,Bronx,1387,2360,1930,8,310,,Active,,,http://www.redfin.com/NY/The-Bronx/918-Clarence-Ave-10465/home/44749359,HGMLS,6001567,N,Y,40.833371,-73.817819
MLS Listing,,Condo/Co-op,83-33 Austin St Unit 5T,Kew Gardens,NY,11415,429000,2,1,Roger Williams,,,1950,8,,,Active,,,http://www.redfin.com/NY/Jamaica/83-33-Austin-St-11415/unit-5T/home/40371579,MLSLI,3189378,N,Y,40.708719,-73.828632
MLS Listing,,Condo/Co-op,42-02 Layton St #402,Elmhurst,NY,11373,439000,2,1,Layton Owner Corp,1000,,1926,9,439,,Active,,,http://www.redfin.com/NY/Elmhurst/4202-Layton-St-11373/unit-402/home/97908247,MLSLI,3189275,N,Y,40.7445899,-73.88466
MLS Listing,,Single Family Residential,14 Stanwich St,Staten Island,NY,10304,425000,3,2,Grasmere,1560,1960,1988,9,272,,Active,,,http://www.redfin.com/NY/Staten-Island/14-Stanwich-St-10304/home/56082028,SIBORMLS,1134595,N,Y,40.601329,-74.089658
MLS Listing,,Condo/Co-op,137-40 45th Ave #2,Flushing,NY,11355,425000,2,1,Jefferson,950,,1965,10,447,,Active,,,http://www.redfin.com/NY/Flushing/137-40-45th-Ave-11355/unit-2/home/166770601,MLSLI,3189131,N,Y,40.7513111,-73.8217867
MLS Listing,,Single Family Residential,18 Edward Ct,Staten Island,NY,10314,449999,2,2,New Springville,1600,1160,1988,10,281,50,Active,,,http://www.redfin.com/NY/Staten-Island/18-Edward-Ct-10314/home/56125713,SIBORMLS,1134584,N,Y,40.5897737,-74.152795
MLS Listing,,Single Family Residential,465 Chestnut St,Brooklyn,NY,11208,429900,4,2,Brooklyn,,1190,1920,10,,,Active,,,http://www.redfin.com/NY/Brooklyn/465-Chestnut-St-11208/home/40765337,MLSLI,3189050,N,Y,40.6757044,-73.8733167
MLS Listing,,Multi-Family (2-4 Unit),4322 Wickham Ave,Bronx,NY,10466,439000,3,2.5,Bronx,1728,1890,1925,10,254,,Active,,,http://www.redfin.com/NY/The-Bronx/4322-Wickham-Ave-10466/home/44788204,HGMLS,6000850,N,Y,40.896523,-73.849521
MLS Listing,,Single Family Residential,225 Kiswick St,Staten Island,NY,10306,438800,2,2,Midland Beach,869,2000,2017,10,505,,Active,,,http://www.redfin.com/NY/Staten-Island/225-Kiswick-St-10306/home/56076706,SIBORMLS,1134556,N,Y,40.5737286,-74.096891
MLS Listing,,Condo/Co-op,67-30 Dartmouth St Unit 7T,Forest Hills,NY,11375,425000,2,1.5,The Nebraska,,,1955,11,,,Active,,,http://www.redfin.com/NY/Flushing/67-30-Dartmouth-St-11375/unit-7T/home/20658172,MLSLI,3188786,N,Y,40.721167,-73.856205
MLS Listing,,Condo/Co-op,83-33 Austin St Unit 3S,Kew Gardens,NY,11415,429000,2,1,Roger Williams Building,1000,,1950,11,429,,Active,,,http://www.redfin.com/NY/Jamaica/83-33-Austin-St-11415/unit-3S/home/40366731,MLSLI,3188723,N,Y,40.708719,-73.828632
MLS Listing,,Single Family Residential,344 Beach 42 St,Arverne,NY,11691,449000,3,1.75,Arverne,1332,2470,2006,11,337,,Active,,,http://www.redfin.com/NY/Far-Rockaway/344-Beach-42nd-St-11691/home/23167548,BNYMLS,435598,N,Y,40.5953215,-73.7736746
MLS Listing,,Townhouse,,Brooklyn,NY,11207,429000,3,1.5,Brooklyn,,1800,1990,12,,,Active,,,http://www.redfin.com/NY/Brooklyn/Undisclosed-address-11207/home/40755190,MLSLI,3188454,N,Y,40.670777,-73.892997
MLS Listing,,Townhouse,99-56 First St,Howard Beach,NY,11414,429000,4,2,Howard Beach,1440,2400,2004,13,298,,Active,,,http://www.redfin.com/NY/Howard-Beach/99-56-1st-St-11414/home/20679568,MLSLI,3188330,N,Y,40.654087,-73.830635
MLS Listing,,Multi-Family (2-4 Unit),563 St Lawrence Ave,Bronx,NY,10473,430000,5,2,Bronx,,2958,1935,13,,,Active,,,http://www.redfin.com/NY/The-Bronx/563-St-Lawrence-Ave-10473/home/44720061,MLSLI,3188296,N,Y,40.8166375,-73.8639479
MLS Listing,,Single Family Residential,282 Targee St,Staten Island,NY,10304,425000,4,2,Stapleton,1866,2075,1920,14,228,,Active,,,http://www.redfin.com/NY/Staten-Island/282-Targee-St-10304/home/56097903,SIBORMLS,1134503,N,Y,40.6200472,-74.0846598
MLS Listing,,Condo/Co-op,18-15 215 St Unit 6H,Bayside,NY,11360,446000,2,2,Bay Terrace,967,,1965,16,461,,Active,,,http://www.redfin.com/NY/Flushing/1815-215th-St-11360/unit-6H/home/167149467,MLSLI,3187951,N,Y,40.7846673,-73.7753049
MLS Listing,,Single Family Residential,125 Roff,Staten Island,NY,10304,450000,4,1.5,Staten Island,,6255,1965,17,,,Active,,,http://www.redfin.com/NY/Staten-Island/125-Roff-St-10304/home/56044108,MLSLI,3187780,N,Y,40.6160489,-74.082457
MLS Listing,,Condo/Co-op,Unit at 1710 Ave H,Brooklyn,NY,11230,450000,2,1,Midwood,,,,18,,,Active,,,http://www.redfin.com/NY/Brooklyn/1710-Avenue-H-11230/home/170164301,REBNY,CORC5948788,N,Y,40.6299725,-73.9596284
MLS Listing,,Townhouse,186-19 121 Ave,St. Albans,NY,11412,450000,3,1.5,St. Albans,1500,2450,1950,18,300,,Active,,,http://www.redfin.com/NY/Jamaica/186-19-121st-Ave-11412/home/20705402,MLSLI,3187663,N,Y,40.68516,-73.761327
MLS Listing,,Single Family Residential,397 Abingdon Ave,Staten Island,NY,10308,449900,3,3,Great Kills,1682,1988,1988,24,267,,Active,,,http://www.redfin.com/NY/Staten-Island/397-Abingdon-Ave-10308/home/56093485,SIBORMLS,1134405,N,Y,40.5600315,-74.1600786
MLS Listing,,Condo/Co-op,62-59 108th St Unit 2N,Forest Hills,NY,11375,425000,2,1,62-59 108th Street Owner,,,1959,25,,,Active,,,http://www.redfin.com/NY/Forest-Hills/62-59-108th-St-11375/unit-2N/home/20632790,MLSLI,3187109,N,Y,40.7354728,-73.8504981
MLS Listing,,Condo/Co-op,1144 Lydig Ave Unit 6A,Bronx,NY,10461,425000,2,1,Bronx,800,11874,1963,26,531,405,Active,,,http://www.redfin.com/NY/The-Bronx/1144-Lydig-Ave-10461/unit-6A/home/44777469,HGMLS,5127790,N,Y,40.855421,-73.854961
MLS Listing,,Condo/Co-op,144-30 Sanford Ave Unit 1N,Flushing,NY,11355,430000,2,1,Imperial Sanford,1024,,1960,26,420,,Active,,,http://www.redfin.com/NY/Flushing/144-30-Sanford-Ave-11355/unit-1N/home/20645988,MLSLI,3186939,N,Y,40.7588815,-73.8194413
MLS Listing,,Single Family Residential,24 Hudson St,Staten Island,NY,10304,450000,3,3,Stapleton,578,2500,1945,26,779,,Active,,,http://www.redfin.com/NY/Staten-Island/24-Hudson-St-10304/home/56046098,SIBORMLS,1134373,N,Y,40.6246006,-74.0814842
MLS Listing,,Single Family Residential,208 Gordon St,Staten Island,NY,10304,429000,6,2,Stapleton,1034,3100,1920,27,415,,Active,,,http://www.redfin.com/NY/Staten-Island/208-Gordon-St-10304/home/56128341,SIBORMLS,1134361,N,Y,40.6223635,-74.0831821
MLS Listing,,Condo/Co-op,151-35 78th St Unit 2V-2,Howard Beach,NY,11414,425999,3,2,Greentree,1125,65563,1950,27,379,508,Active,,,http://www.redfin.com/NY/Howard-Beach/15135-78th-St-11414/unit-2v-2/home/167133685,MLSLI,3186595,N,Y,40.6657554,-73.8560967
MLS Listing,,Single Family Residential,3106 Emmons Ave,Sheepshead Bay,NY,11235,439000,2,1,Sheepshead Bay,,1104,1925,28,,,Active,,,http://www.redfin.com/NY/Brooklyn/3106-Emmons-Ave-11235/home/170114124,MLSLI,3186511,N,Y,40.5838628,-73.9354824
MLS Listing,,Single Family Residential,129 Hart Ave,Yonkers,NY,10704,450000,4,1.5,Yonkers,1800,,1951,28,250,,Active,January-19-2020 01:00 PM,January-19-2020 02:30 PM,http://www.redfin.com/NY/Yonkers/129-Hart-Ave-10704/home/20156084,HGMLS,5126786,N,Y,40.910042,-73.856814
MLS Listing,,Condo/Co-op,110-20 71st Rd #316,Forest Hills,NY,11375,439000,2,1,Barclay Plaza,800,,1956,29,549,,Active,,,http://www.redfin.com/NY/Forest-Hills/11020-71st-Rd-11375/unit-316/home/20635621,MLSLI,3186342,N,Y,40.7216499,-73.84119
MLS Listing,,Townhouse,1027B E 229 St,Bronx,NY,10466,449000,2,1,Wakefield,1276,2015,1950,31,352,,Active,,,http://www.redfin.com/NY/The-Bronx/1027B-E-229th-St-10466/home/170090137,MLSLI,3186179,N,Y,40.887682,-73.8488969
MLS Listing,,Single Family Residential,45 Hartford St,Staten Island,NY,10308,439000,2,1,Great Kills,800,3000,1901,31,549,,Active,,,http://www.redfin.com/NY/Staten-Island/45-Hartford-St-10308/home/56055229,SIBORMLS,1134328,N,Y,40.543101,-74.1442849
MLS Listing,,Condo/Co-op,,Flushing,NY,11355,449000,2,1,Sanford Plaza,1200,,1955,31,374,,Active,,,http://www.redfin.com/NY/Flushing/Undisclosed-address-11355/home/20651491,MLSLI,3186053,N,Y,40.7588699,-73.82063
MLS Listing,,Condo/Co-op,Unit at 102 -55 67th Dr,Queens,NY,11375,449900,2,1,Forest Hills,,,,33,,,Active,,,http://www.redfin.com/NY/Flushing/102-40-67th-Dr-11375/home/26767342,REBNY,UCOM1862495,N,Y,40.7264025,-73.8502225
MLS Listing,,Single Family Residential,47 Tabb Pl,Staten Island,NY,10302,439900,4,2,Port Richmond,1750,3800,1999,34,251,,Active,,,http://www.redfin.com/NY/Staten-Island/47-Tabb-Pl-10302/home/56051477,SIBORMLS,1134276,N,Y,40.6282318,-74.1397548
MLS Listing,,Condo/Co-op,37-56 87th St Unit 2B,Jackson Heights,NY,11372,439000,2,1,37-20 87 St Realty Corp,,,1950,34,,,Active,,,http://www.redfin.com/NY/Jackson-Heights/37-56-87th-St-11372/unit-2B/home/170066038,MLSLI,3185304,N,Y,40.7486784,-73.8796661
MLS Listing,,Single Family Residential,16 Prince St,Staten Island,NY,10304,438000,3,3,Park Hill,1170,897,2002,35,374,,Active,,,http://www.redfin.com/NY/Staten-Island/16-Prince-St-10304/home/56126344,SIBORMLS,1134256,N,Y,40.6175698,-74.0823217
MLS Listing,,Single Family Residential,67 Country Ln,Staten Island,NY,10312,439000,3,2,Huguenot,1200,1316,1994,35,366,225,Active,,,http://www.redfin.com/NY/Staten-Island/67-Country-Ln-10312/home/56087266,SIBORMLS,1134236,N,Y,40.5544169,-74.2002586
MLS Listing,,Condo/Co-op,9040 Fort Hamilton Pkwy Unit 5M,Brooklyn,NY,11209,429000,2,1,Brooklyn,925,,,36,464,,Active,,,http://www.redfin.com/NY/Brooklyn/9040-Fort-Hamilton-Pkwy-11209/unit-5M/home/109974078,BNYMLS,435223,N,Y,40.6176665,-74.027304
MLS Listing,,Single Family Residential,182 Van Pelt Ave,Staten Island,NY,10303,439000,3,1,Mariners Harbor,872,3000,1917,38,503,,Active,,,http://www.redfin.com/NY/Staten-Island/182-Van-Pelt-Ave-10303/home/56118846,SIBORMLS,1134215,N,Y,40.6316894,-74.1555008
MLS Listing,,Single Family Residential,5 Stone Ln,Staten Island,NY,10314,428000,3,2,Latourette,1242,1242,1978,38,345,292,Active,,,http://www.redfin.com/NY/Staten-Island/5-Stone-Ln-10314/home/56043706,SIBORMLS,1133660,N,Y,40.5784042,-74.1574383
MLS Listing,,Condo/Co-op,1409 Royce St #15,Brooklyn,NY,11234,448000,2,2,Brooklyn,986,,1989,39,454,,Active,,,http://www.redfin.com/NY/Brooklyn/1409-Royce-St-11234/unit-15/home/40897815,BNYMLS,435099,N,Y,40.6248278,-73.909396
MLS Listing,,Single Family Residential,2703 Bainbridge Ave,Bronx,NY,10458,450000,6,2,Bronx,1907,,1915,39,236,,Active,,,http://www.redfin.com/NY/The-Bronx/2703-Bainbridge-Ave-10458/home/44760620,HGMLS,5124540,N,Y,40.8658835,-73.8913155
MLS Listing,,Condo/Co-op,18-05 215 St Unit 3 P,Bayside,NY,11360,425000,2,2,Bay Terrace,,,1970,40,,107,Active,,,http://www.redfin.com/NY/Flushing/1805-215th-St-11360/unit-3P/home/20641547,MLSLI,3184173,N,Y,40.7848316,-73.7752379
MLS Listing,,Single Family Residential,443-2 Willow Rd East,Staten Island,NY,10314,449995,3,2,Westerleigh,480,480,1980,42,937,275,Active,,,http://www.redfin.com/NY/Staten-Island/443-Willow-Rd-E-10314/unit-2/home/56135450,SIBORMLS,1134112,N,Y,40.6136904,-74.1518919
MLS Listing,,Single Family Residential,660 Grassmere Ter,Far Rockaway,NY,11691,449000,3,1,Far Rockaway,,5115,1950,42,,,Active,January-25-2020 01:00 PM,January-25-2020 02:30 PM,http://www.redfin.com/NY/Far-Rockaway/660-Grassmere-Ter-11691/home/20677014,MLSLI,3183690,N,Y,40.6016754,-73.7575573
MLS Listing,,Condo/Co-op,30-69 Hobart St,Woodside,NY,11377,439000,2,1,Co-Op,,,1940,44,,,Active,,,http://www.redfin.com/NY/Woodside/30-69-Hobart-St-11377/home/51584332,MLSLI,3183437,N,Y,40.758021,-73.9072289
MLS Listing,,Single Family Residential,33 Lee Ave,Yonkers,NY,10705,449000,3,1,Yonkers,1840,3070,1928,45,244,,Active,,,http://www.redfin.com/NY/Yonkers/33-Lee-Ave-10705/home/20158264,HGMLS,5120298,N,Y,40.907877,-73.8801875
MLS Listing,,Condo/Co-op,134-34 Franklin Ave Unit 2E,Flushing,NY,11355,430000,2,1,Blossom Gardens Apts Inc,,,1952,47,,774,Active,,,http://www.redfin.com/NY/Flushing/134-34-Franklin-Ave-11355/unit-2E/home/20637707,MLSLI,3183097,N,Y,40.7538131,-73.8286425
MLS Listing,,Single Family Residential,115-11 180th St,Jamaica,NY,11434,429000,3,2,Jamaica,,3480,1960,48,,,Active,,,http://www.redfin.com/NY/Jamaica/115-11-180th-St-11434/home/20753287,MLSLI,3182987,N,Y,40.693652,-73.767695
MLS Listing,,Single Family Residential,38 Carlyle Grn,Staten Island,NY,10312,449000,2,2,Arden Heights,1408,1328,1987,49,319,63,Active,,,http://www.redfin.com/NY/Staten-Island/38-Carlyle-Grn-10312/home/56098248,SIBORMLS,1134018,N,Y,40.556253,-74.19882
MLS Listing,,Single Family Residential,22 Webster Ave,Staten Island,NY,10301,449000,2,1,Tompkinsville,960,2325,1930,52,468,,Active,,,http://www.redfin.com/NY/Staten-Island/22-Webster-Ave-10301/home/56059501,SIBORMLS,1133275,N,Y,40.6350256,-74.0893656
MLS Listing,,Condo/Co-op,6115 97 St Unit 2J,Rego Park,NY,11374,435000,2,2,Park Plaza,1100,,1962,53,395,,Active,,,http://www.redfin.com/NY/Rego-Park/61-15-97th-St-11374/unit-2J/home/20656183,MLSLI,3182093,N,Y,40.7341131,-73.8619884
MLS Listing,,Multi-Family (2-4 Unit),276 Midwood St,Brooklyn,NY,11225,450000,6,4,Brooklyn,2208,2000,1910,54,204,,Active,,,http://www.redfin.com/NY/Brooklyn/276-Midwood-St-11225/home/40784980,MLSLI,3181852,N,Y,40.6598169,-73.951605
MLS Listing,,Condo/Co-op,2915 W 5 St Unit 14C,Brooklyn,NY,11224,435000,2,1,Brooklyn,1000,,1964,54,435,,Active,,,http://www.redfin.com/NY/Brooklyn/2915-W-5th-St-11224/unit-14C/home/40680774,BNYMLS,434902,N,Y,40.5778106,-73.9718916
MLS Listing,,Single Family Residential,994 Olympia Blvd,Staten Island,NY,10306,439000,3,1,Midland Beach,1300,1800,1991,54,338,,Active,,,http://www.redfin.com/NY/Staten-Island/994-Olympia-Blvd-10306/home/56053149,SIBORMLS,1133939,N,Y,40.574232,-74.091468
MLS Listing,,Single Family Residential,211 Roma Ave,Staten Island,NY,10306,448000,2,2,Midland Beach,1040,2200,1990,55,431,,Active,,,http://www.redfin.com/NY/Staten-Island/211-Roma-Ave-10306/home/56064960,SIBORMLS,1133920,N,Y,40.5607309,-74.104852
MLS Listing,,Single Family Residential,191-15 Williamson Ave,Springfield Gdns,NY,11413,436000,3,1.5,Springfield Gdns,,3480,1950,55,,,Active,,,http://www.redfin.com/NY/Jamaica/191-15-Williamson-Ave-11413/home/20697013,MLSLI,3181429,N,Y,40.68407,-73.7537849
MLS Listing,,Condo/Co-op,Unit at 35-30 82nd St,Queens,NY,11372,425000,2,1,Jackson Heights,,,,56,,,Active,,,http://www.redfin.com/NY/Unknown/35-30-82nd-St-11372/home/146465172,REBNY,BHSR19963279,N,Y,40.750805,-73.884783
MLS Listing,,Condo/Co-op,23-20 Bell Blvd Unit 2A,Bayside,NY,11360,440000,2,1.5,Bay Terrace Section 12,,,1963,56,,,Active,,,http://www.redfin.com/NY/Bayside/23-20-Bell-Blvd-11360/unit-2A/home/103723980,MLSLI,3181291,N,Y,40.781705,-73.7765137
MLS Listing,,Condo/Co-op,611 Banner Ave Unit LN,Brooklyn,NY,11235,430000,2,1,Brooklyn,1200,,1969,56,358,,Active,,,http://www.redfin.com/NY/Brooklyn/611-Banner-Ave-11235/unit-LN/home/169879818,BNYMLS,434724,N,Y,40.583321,-73.9627378
MLS Listing,,Condo/Co-op,133-20 87 St #2,Ozone Park,NY,11417,429000,3,2,Tudor Village Condo,,,1989,59,,,Active,,,http://www.redfin.com/NY/Ozone-Park/133-20-87th-St-11417/unit-2/home/169845201,MLSLI,3180936,N,Y,40.6738327,-73.849475
MLS Listing,,Single Family Residential,16 Belmar Dr E,Staten Island,NY,10314,445000,3,2,Latourette,1242,1400,1981,59,358,265,Active,,,http://www.redfin.com/NY/Staten-Island/16-Belmar-Dr-E-10314/home/56040650,SIBORMLS,1133835,N,Y,40.5813,-74.1550512
MLS Listing,,Single Family Residential,21 Gregory Ln #112,Staten Island,NY,10314,449900,2,2,Heartland Village,1530,1530,1987,60,294,250,Active,,,http://www.redfin.com/NY/Staten-Island/21-Gregory-Ln-10314/unit-112/home/56106548,SIBORMLS,1133804,N,Y,40.5780075,-74.1605001
MLS Listing,,Condo/Co-op,275 Webster Ave Unit 1E,Brooklyn,NY,11230,450000,2,1,Brooklyn,900,,,62,500,,Active,,,http://www.redfin.com/NY/Brooklyn/275-Webster-Ave-11230/unit-1E/home/59292588,BNYMLS,434691,N,Y,40.6329634,-73.9709274
MLS Listing,,Single Family Residential,55 Simmons Ln,Staten Island,NY,10314,429888,2,2,Travis,1480,1148,1989,62,290,88,Active,,,http://www.redfin.com/NY/Staten-Island/55-Simmons-Ln-10314/home/87241295,SIBORMLS,1133737,N,Y,40.594203,-74.184383
MLS Listing,,Condo/Co-op,273 Bay 19 St Unit A,Brooklyn,NY,11214,429000,2,1,Brooklyn,800,,,63,536,,Active,,,http://www.redfin.com/NY/Unknown/273-Bay-19th-St-11214/unit-A/home/146403957,BNYMLS,434684,N,Y,40.6012621,-74.007496
MLS Listing,,Townhouse,68 South Ave,Staten Island,NY,10303,449000,3,3,Mariners Harbor,1470,3300,2003,63,305,,Active,,,http://www.redfin.com/NY/Staten-Island/68-South-Ave-10303/home/56095604,SIBORMLS,1133716,N,Y,40.6383719,-74.166473
MLS Listing,,Single Family Residential,114-10 135th St,Jamaica,NY,11422,425000,2,1,Jamaica,2700,2700,1930,65,157,,Active,,,http://www.redfin.com/NY/Jamaica/114-10-135th-St-11420/home/20722391,MLSLI,3179412,N,Y,40.682144,-73.807259
MLS Listing,,Single Family Residential,33 Lafayette Ave,Staten Island,NY,10301,429000,3,3,New Brighton,1972,3959,1935,66,218,,Active,,,http://www.redfin.com/NY/Staten-Island/33-Lafayette-Ave-10301/home/56090894,SIBORMLS,1133668,N,Y,40.6438508,-74.0954456
MLS Listing,,Single Family Residential,14-20 Pinson St,Far Rockaway,NY,11691,425900,11,4,Far Rockaway,2925,6250,1920,66,146,,Active,,,http://www.redfin.com/NY/Far-Rockaway/14-20-Pinson-St-11691/home/20674296,MLSLI,3179059,N,Y,40.608694,-73.754724
MLS Listing,,Multi-Family (2-4 Unit),42 Cedar St,Staten Island,NY,10304,450000,4,2,Staten Island,,1560,1920,67,,,Active,,,http://www.redfin.com/NY/Staten-Island/42-Cedar-St-10304/home/56046210,MLSLI,3178995,N,Y,40.624695,-74.080705
MLS Listing,,Condo/Co-op,,Brooklyn,NY,11210,440000,2,1,,1100,,1941,67,400,,Active,,,http://www.redfin.com/NY/Brooklyn/Undisclosed-address-11210/home/169733026,BNYMLS,434354,N,Y,40.6285158,-73.9447994
MLS Listing,,Condo/Co-op,238 Bowne St Unit 254-A,Bronx,NY,10464,439900,2,2,Bronx,1092,,2003,68,403,500,Active,,,http://www.redfin.com/NY/The-Bronx/238-Bowne-St-10464/unit-254-A/home/44761363,HGMLS,5118584,N,Y,40.8515125,-73.7848698
MLS Listing,,Condo/Co-op,18 Kathy Pl Unit 2a,Staten Island,NY,10314,439000,2,2,New Springville,1086,1086,1982,68,404,314,Active,,,http://www.redfin.com/NY/Staten-Island/18-Kathy-Pl-10314/unit-2A/home/56040332,SIBORMLS,1133616,N,Y,40.578568,-74.162104
MLS Listing,,Condo/Co-op,Unit at 78 Erasmus St,Brooklyn,NY,11226,449000,2,1,Flatbush,,,,69,,,Active,,,http://www.redfin.com/NY/Brooklyn/78-Erasmus-St-11226/home/40786567,REBNY,IPGL2077,N,Y,40.6495189,-73.9534173
MLS Listing,,Condo/Co-op,884 Union Ave Unit A,Bronx,NY,10459,450000,3,1,Bronx,1074,,1995,69,419,220,Active,,,http://www.redfin.com/NY/The-Bronx/884-Union-Ave-10459/unit-A/home/44711649,HGMLS,5118414,N,Y,40.820982,-73.902249
MLS Listing,,Condo/Co-op,12 Deepwater Way #31,Bronx,NY,10464,429021,2,2.5,Bronx,1640,230876,1983,69,262,850,Active,,,http://www.redfin.com/NY/The-Bronx/12-Deepwater-Way-10464/unit-31/home/44794755,HGMLS,5105900,N,Y,40.8462832,-73.7831738
MLS Listing,,Condo/Co-op,146 Mermaid Ln #282,Bronx,NY,10473,445000,3,2,Bronx,1206,1132,2006,71,369,610,Active,,,http://www.redfin.com/NY/The-Bronx/146-Mermaid-Ln-10473/unit-282/home/169642875,HGMLS,5116923,N,Y,40.8080905,-73.8544443
MLS Listing,,Condo/Co-op,1801 Ocean Ave Unit 7E,Brooklyn,NY,11230,449000,2,2.5,Midwood,1200,,1962,73,374,,Active,,,http://www.redfin.com/NY/Brooklyn/1801-Ocean-Ave-11230/unit-7E/home/169632069,MLSLI,3177312,N,Y,40.6179243,-73.9546988
MLS Listing,,Single Family Residential,87 Bond St,Staten Island,NY,10302,449900,3,2,Port Richmond,1400,3200,1915,74,321,,Active,,,http://www.redfin.com/NY/Staten-Island/87-Bond-St-10302/home/56014900,SIBORMLS,1133484,N,Y,40.6351913,-74.1314512
MLS Listing,,Single Family Residential,54 Sandywood Ln,Staten  Island,NY,10309,435000,3,1.5,Staten  Island,1500,1330,1992,75,290,,Active,,,http://www.redfin.com/NY/Staten-Island/54-Sandywood-Ln-10309/home/56098976,BNYMLS,434415,N,Y,40.546657,-74.217528
MLS Listing,,Townhouse,185-33 Dunlop Ave,St. Albans,NY,11412,450000,2,2.5,St. Albans,968,6575,1945,75,465,,Active,,,http://www.redfin.com/NY/Jamaica/185-33-Dunlop-Ave-11412/home/20752807,MLSLI,3176666,N,Y,40.704052,-73.770262
MLS Listing,,Condo/Co-op,6802 Ridge Blvd Unit 4N,Brooklyn,NY,11220,448000,2,1,Brooklyn,833,,,75,538,,Active,,,http://www.redfin.com/NY/Brooklyn/6802-Ridge-Blvd-11220/unit-4N/home/40660686,BNYMLS,434347,N,Y,40.6372826,-74.0287528
MLS Listing,,Condo/Co-op,94-11 59 Ave Unit F26,Elmhurst,NY,11373,449000,2,2,94-11 59th Ave Corp,1200,,1960,76,374,,Active,,,http://www.redfin.com/NY/Flushing/94-11-59th-Ave-11373/unit-F26/home/169596485,MLSLI,3176530,N,Y,40.735309,-73.86655
MLS Listing,,Single Family Residential,976 Schenectady Ave,Brooklyn,NY,11203,439000,4,1.5,Brooklyn,1504,2000,1920,76,292,,Active,,,http://www.redfin.com/NY/Brooklyn/976-Schenectady-Ave-11203/home/40780686,MLSLI,3176298,N,Y,40.6492194,-73.933307
MLS Listing,,Single Family Residential,194 Ward Ave,Staten Island,NY,10304,449000,2,2,Ward Hill,1348,2232,1989,77,333,,Active,,,http://www.redfin.com/NY/Staten-Island/194-Ward-Ave-10304/home/56112672,SIBORMLS,1133392,N,Y,40.631943,-74.084096
MLS Listing,,Single Family Residential,85 Simmons Loop,Staten Island,NY,10314,439000,2,2,Travis,1240,1978,1990,77,354,88,Active,,,http://www.redfin.com/NY/Staten-Island/85-Simmons-Loop-10314/home/77410753,SIBORMLS,1133389,N,Y,40.5938571,-74.1841427
MLS Listing,,Condo/Co-op,31-90 140 St Unit 6K,Flushing,NY,11354,450000,3,2,Linden Towers #6,1300,,1955,78,346,,Active,,,http://www.redfin.com/NY/Flushing/31-90-140th-St-11354/unit-6K/home/169585070,MLSLI,3175957,N,Y,40.7693017,-73.828808
MLS Listing,,Condo/Co-op,61-45 98th St Unit 12H,Rego Park,NY,11374,429000,2,1,Park City Estates,1100,,1960,78,390,,Active,,,http://www.redfin.com/NY/Rego-Park/61-45-98th-St-11374/unit-12H/home/169584684,MLSLI,3175907,N,Y,40.7336877,-73.8587301
MLS Listing,,Condo/Co-op,39-30 52nd St Unit 2D,Woodside,NY,11377,450000,2,1,Sunny Hill,,,1950,80,,,Active,,,http://www.redfin.com/NY/Woodside/39-30-52nd-St-11377/unit-2D/home/160711309,MLSLI,3175666,N,Y,40.7479207,-73.9121201
MLS Listing,,Condo/Co-op,61-20 Grand Central Pkwy Unit B1502,Forest Hills,NY,11375,435000,2,1,Forest Hills,967,,1965,80,450,,Active,,,http://www.redfin.com/NY/Forest-Hills/61-20-Grand-Central-Pkwy-11375/unit-B1502/home/169565606,HGMLS,5104478,N,Y,40.7379288,-73.8469001
MLS Listing,,Single Family Residential,4347 Grace Ave,Bronx,NY,10466,450000,2,2.5,Bronx,1676,2848,1925,81,268,,Active,,,http://www.redfin.com/NY/The-Bronx/4347-Grace-Ave-10466/home/44741100,HGMLS,5112552,N,Y,40.8975099,-73.847626
MLS Listing,,Condo/Co-op,5700 Arlington Ave Unit 12F,Bronx,NY,10471,445000,2,1,Bronx,950,,1960,82,468,,Active,,,http://www.redfin.com/NY/The-Bronx/5700-Arlington-Ave-10471/unit-12F/home/143429664,HGMLS,5112067,N,Y,40.9069228,-73.9062512
MLS Listing,,Single Family Residential,78 Debbie St Unit B,Staten Island,NY,10314,439000,3,1,Bulls Head,1421,1421,1989,82,309,263,Active,,,http://www.redfin.com/NY/Staten-Island/78-Debbie-St-10314/unit-B/home/77412565,SIBORMLS,1133272,N,Y,40.6104261,-74.157573
MLS Listing,,Single Family Residential,111-21 Van Wyck Expy,Jamaica,NY,11435,449000,3,1.5,Jamaica,,2600,1925,84,,,Active,,,http://www.redfin.com/NY/Jamaica/111-21-Van-Wyck-Expy-11435/home/20715330,MLSLI,3174463,N,Y,40.684252,-73.805458
MLS Listing,,Single Family Residential,254 Jacques Ave,Staten Island,NY,10306,437000,2,2,New Dorp,736,2700,1925,84,594,,Active,,,http://www.redfin.com/NY/Staten-Island/254-Jacques-Ave-10306/home/56053047,SIBORMLS,1133086,N,Y,40.5703595,-74.1083162
MLS Listing,,Townhouse,153-06 Foch Blvd,Jamaica,NY,11434,435000,2,1,Jamaica,,1154,1925,85,,,Active,,,http://www.redfin.com/NY/Jamaica/153-06-Foch-Blvd-11434/home/20709514,MLSLI,3174181,N,Y,40.681227,-73.789536
MLS Listing,,Single Family Residential,18 Howard Ct,Staten Island,NY,10310,449000,4,2,West Brighton,1128,2800,1925,87,398,,Active,,,http://www.redfin.com/NY/Staten-Island/18-Howard-Ct-10310/home/56096629,SIBORMLS,1133185,N,Y,40.641078,-74.112428
MLS Listing,,Single Family Residential,114 Long Pond Ln,Staten Island,NY,10304,449000,3,2,Concord,1404,1176,1992,87,320,,Active,,,http://www.redfin.com/NY/Staten-Island/114-Long-Pond-Ln-10304/home/56039549,SIBORMLS,1133168,N,Y,40.6137487,-74.0810798
MLS Listing,,Single Family Residential,20B Dreyer Ave,Staten  Island,NY,10314,429000,3,1.5,Staten  Island,957,1200,1988,87,448,,Active,,,http://www.redfin.com/NY/Staten-Island/20B-Dreyer-Ave-10314/home/168010627,BNYMLS,434144,N,Y,40.606764,-74.149001
MLS Listing,,Condo/Co-op,144-70 41 Ave Unit 3L,Flushing,NY,11355,450000,2,1.5,The Plaza,1100,,1962,88,409,,Active,,,http://www.redfin.com/NY/Flushing/144-70-41st-Ave-11355/unit-3L/home/20653851,MLSLI,3173478,N,Y,40.7610336,-73.8188858
MLS Listing,,Townhouse,99-55 1st St,Howard Beach,NY,11414,445000,3,1,Hamilton Beach,,2100,1950,89,,,Active,,,http://www.redfin.com/NY/Jamaica/99-55-1st-St-11414/home/20683087,MLSLI,3173072,N,Y,40.6541927,-73.8309253
MLS Listing,,Single Family Residential,168 Roma Ave,Staten  Island,NY,10306,435000,3,3,Staten  Island,828,3071,1925,91,525,,Active,,,http://www.redfin.com/NY/Staten-Island/168-Roma-Ave-10306/home/56107616,BNYMLS,434037,N,Y,40.5616897,-74.1034066
MLS Listing,,Single Family Residential,9 Oak St,Staten Island,NY,10305,449000,3,3,Rosebank,1000,1600,1995,91,449,,Active,,,http://www.redfin.com/NY/Staten-Island/9-Oak-St-10305/home/56083925,SIBORMLS,1133036,N,Y,40.613117,-74.0760297
MLS Listing,,Single Family Residential,518 Melyn Pl,Staten Island,NY,10303,449000,2,2,Elm Park,850,3304,1905,91,528,,Active,,,http://www.redfin.com/NY/Staten-Island/518-Melyn-Pl-10303/home/56097451,SIBORMLS,1133025,N,Y,40.6258877,-74.1511773
MLS Listing,,Multi-Family (2-4 Unit),90-34 205th St,Jamaica,NY,11423,450000,4,2,Jamaica,2240,3300,1920,91,201,,Active,,,http://www.redfin.com/NY/Jamaica/90-34-205th-St-11423/home/20750709,MLSLI,3172502,N,Y,40.716806,-73.757769
MLS Listing,,Multi-Family (2-4 Unit),2052 E 53rd Pl,Brooklyn,NY,11234,450000,4,2,Brooklyn,,1983,1960,91,,,Active,,,http://www.redfin.com/NY/Brooklyn/2052-E-53rd-Pl-11234/home/40903920,MLSLI,3172501,N,Y,40.611246,-73.922092
MLS Listing,,Single Family Residential,34 Oceanic Ave,Staten Island,NY,10312,449999,2,3,Eltingville,1330,1207,1988,94,338,,Active,,,http://www.redfin.com/NY/Staten-Island/34-Oceanic-Ave-10312/home/56078228,SIBORMLS,1132979,N,Y,40.5338366,-74.1527026
MLS Listing,,Condo/Co-op,232 Edgewater Park Unit B,Bronx,NY,10465,449000,3,2,Bronx,1482,,,94,303,,Active,,,http://www.redfin.com/NY/The-Bronx/232-Edgewater-Park-10465/unit-B/home/169400085,HGMLS,5060221,N,Y,40.8224004,-73.8110396
MLS Listing,,Single Family Residential,683 S 5th Ave,Mount Vernon,NY,10550,450000,3,1.5,Mount Vernon,,3920,1970,95,,,Active,,,http://www.redfin.com/NY/Mt-Vernon/683-S-5th-Ave-10550/home/20210573,MLSLI,3171961,N,Y,40.8940658,-73.831189
MLS Listing,,Condo/Co-op,84-19 51st Ave Unit 5L,Elmhurst,NY,11373,435000,2,1,Royal Views Garden,1000,,1953,95,435,,Active,,,http://www.redfin.com/NY/Flushing/84-19-51st-Ave-11373/unit-5L/home/20645038,MLSLI,3171775,N,Y,40.7385876,-73.8787063
MLS Listing,,Single Family Residential,4436 Murdock Ave,Bronx,NY,10466,429000,3,1,Bronx,2010,2469,1930,95,213,,Active,,,http://www.redfin.com/NY/The-Bronx/4436-Murdock-Ave-10466/home/44761099,HGMLS,5097737,N,Y,40.9009204,-73.8437672
MLS Listing,,Townhouse,1152 Adee Ave,Bronx,NY,10469,435000,2,2,Bronx,1320,1224,1950,96,330,,Active,,,http://www.redfin.com/NY/The-Bronx/1152-Adee-Ave-10469/home/44793946,HGMLS,5097100,N,Y,40.869238,-73.853495
MLS Listing,,Condo/Co-op,458 Neptune Ave Unit 10L,Brooklyn,NY,11224,429000,2,1,Brooklyn,1000,,1964,96,429,,Active,,,http://www.redfin.com/NY/Brooklyn/458-Neptune-Ave-11224/unit-10L/home/169368103,BNYMLS,433921,N,Y,40.5789973,-73.9709912
MLS Listing,,Condo/Co-op,Unit at 4078 Nostrand Ave,Brooklyn,NY,11235,450000,2,2,Sheepshead Bay,,,,98,,,Active,,,http://www.redfin.com/NY/Brooklyn/4078-Nostrand-Ave-11235/home/169291739,REBNY,UCOM1853234,N,Y,40.5842057,-73.9391279
MLS Listing,,Single Family Residential,135 Van Name Ave,Staten Island,NY,10303,429000,3,2,Mariners Harbor,1052,4851,1915,101,408,,Active,,,http://www.redfin.com/NY/Staten-Island/135-Van-Name-Ave-10303/home/56113646,SIBORMLS,1132754,N,Y,40.633354,-74.1531613
MLS Listing,,Townhouse,968 Van Duzer St,Staten Island,NY,10304,425000,5,2,Stapleton,1588,2975,1920,102,268,,Active,,,http://www.redfin.com/NY/Staten-Island/968-Van-Duzer-St-10304/home/56079133,SIBORMLS,1132748,N,Y,40.6156659,-74.0877595
MLS Listing,,Condo/Co-op,5503 31st Ave Unit 6N,Woodside,NY,11377,430000,2,1,Boulevard Gardens,,,1935,102,,,Active,,,http://www.redfin.com/NY/Woodside/55-03-31st-Ave-11377/unit-6N/home/169262505,MLSLI,3169648,N,Y,40.7576978,-73.9062423
MLS Listing,,Condo/Co-op,Unit at 3115 Broadway,New York,NY,10027,450000,2,1,Morningside Heights,,,,105,,,Active,,,http://www.redfin.com/NY/New-York/3115-Broadway-10027/home/169241629,REBNY,MONT1375,N,Y,40.813235,-73.9606649
MLS Listing,,Single Family Residential,85 Roma Ave,Staten Island,NY,10306,426000,3,2,Oakwood - New Dorp Beach,1440,2500,1970,105,296,,Active,,,http://www.redfin.com/NY/Staten-Island/85-Roma-Ave-10306/home/56119298,SIBORMLS,1132644,N,Y,40.563764,-74.102081
MLS Listing,,Multi-Family (2-4 Unit),115-20 158th St,Jamaica,NY,11434,434600,4,2,Jamaica,1648,2650,1920,105,264,,Active,,,http://www.redfin.com/NY/Jamaica/115-20-158th-St-11434/home/20709570,MLSLI,3168819,N,Y,40.686119,-73.787166
MLS Listing,,Single Family Residential,19 Claudia Ct,Staten Island,NY,10303,439900,3,3,Graniteville,1595,1566,1995,105,276,65,Active,,,http://www.redfin.com/NY/Staten-Island/19-Claudia-Ct-10303/home/56066298,SIBORMLS,1132621,N,Y,40.624117,-74.1562806
MLS Listing,,Single Family Residential,6 Dogwood Dr,Staten Island,NY,10312,435000,3,2,Huguenot,1378,1200,1980,105,316,17,Active,,,http://www.redfin.com/NY/Staten-Island/6-Dogwood-Dr-10312/home/56121938,SIBORMLS,1132613,N,Y,40.5518519,-74.1984839
MLS Listing,,Townhouse,110-26A 172 St,Jamaica,NY,11433,449000,3,2,Jamaica,,1440,1960,107,,,Active,,,http://www.redfin.com/NY/Jamaica/110-26A-172nd-St-11433/home/169230209,MLSLI,3168516,N,Y,40.695737,-73.7811517
MLS Listing,,Condo/Co-op,1113 E 93 St #503,Brooklyn,NY,11236,429900,3,2,Brooklyn,900,,1900,108,478,,Active,,,http://www.redfin.com/NY/Brooklyn/1113-E-93rd-St-11236/unit-503/home/40891032,BNYMLS,433644,N,Y,40.6429741,-73.9049191
MLS Listing,,Single Family Residential,69 Mimosa Ln,Staten Island,NY,10312,449069,3,2,Huguenot,1378,1650,1980,108,326,17,Active,,,http://www.redfin.com/NY/Staten-Island/69-Mimosa-Ln-10312/home/56096784,SIBORMLS,1132585,N,Y,40.551999,-74.1996484
MLS Listing,,Condo/Co-op,18-15 215th St Unit 2H,Bayside,NY,11360,438800,2,2,Bay Terrace,,,1970,108,,,Active,,,http://www.redfin.com/NY/Flushing/1815-215th-St-11360/unit-2H/home/92322913,MLSLI,3168168,N,Y,40.7846673,-73.7753049
MLS Listing,,Condo/Co-op,68-20 Burns Unit b1,Forest Hills,NY,11375,449000,2,1,Burns Street Owners Corp,800,,1920,110,561,,Active,,,http://www.redfin.com/NY/Unknown/6820-Burns-St-11375/unit-B1/home/143091559,MLSLI,3167555,N,Y,40.720992,-73.851381
MLS Listing,,Condo/Co-op,1717 E 14 St Unit G,Brooklyn,NY,11229,449000,2,1,Brooklyn,690,,,111,651,,Active,,,http://www.redfin.com/NY/Unknown/1717-E-14th-St-11229/unit-G/home/115789114,BNYMLS,433546,N,Y,40.6077014,-73.9587824
MLS Listing,,Condo/Co-op,946 59 St Unit 4B,Brooklyn,NY,11220,430000,2,1,Brooklyn,900,,,112,478,,Active,,,http://www.redfin.com/NY/Unknown/946-59th-St-11219/unit-4B/home/112967184,BNYMLS,433505,N,Y,40.6339124,-74.0058434
MLS Listing,,Condo/Co-op,125 Beach 124th St Unit 2E,Rockaway Park,NY,11694,429900,2,1,Beach 124 St Apts Inc,1000,,1962,112,430,,Active,,,http://www.redfin.com/NY/Rockaway-Park/125-Beach-124th-St-11694/unit-2E/home/169163700,MLSLI,3166871,N,Y,40.5757288,-73.8430769
MLS Listing,,Single Family Residential,474 Retford Ave,Staten Island,NY,10312,449474,3,1,Eltingville,1410,2496,1973,112,319,,Active,,,http://www.redfin.com/NY/Staten-Island/474-Retford-Ave-10312/home/56023080,SIBORMLS,1132452,N,Y,40.5324411,-74.1541374
MLS Listing,,Condo/Co-op,540 Ellsworth Ave Unit B1,Bronx,NY,10465,429000,2,1.5,Bronx,958,16247,1985,114,448,300,Active,,,http://www.redfin.com/NY/The-Bronx/540-Ellsworth-Ave-10465/unit-B1/home/44803365,HGMLS,5067267,N,Y,40.8258658,-73.8146666
MLS Listing,,Condo/Co-op,61-20 Grand Central Pkwy Unit B402,Forest Hills,NY,11375,449000,2,1,The Fairview,1100,,1967,115,408,,Active,January-18-2020 12:00 PM,January-18-2020 04:00 PM,http://www.redfin.com/NY/Unknown/61-20-Grand-Central-Pkwy-11375/unit-B402/home/145553551,MLSLI,3166474,N,Y,40.7380691,-73.8473845
MLS Listing,,Condo/Co-op,Unit at 61 -20 Grand Central Park,Queens,NY,11375,440000,2,2,Queens ( Other),,,,116,,,Active,,,http://www.redfin.com/NY/Forest-Hills/61-20-Grand-Central-Pkwy-11375/home/169132389,REBNY,CORC5887987,N,Y,40.7379288,-73.8469001
MLS Listing,,Condo/Co-op,85 E 28 St #2,Brooklyn,NY,11226,449900,2,2,Brooklyn,960,,2004,117,469,,Active,,,http://www.redfin.com/NY/Brooklyn/85-E-28th-St-11226/unit-2/home/40668873,BNYMLS,433336,N,Y,40.6473274,-73.9508269
MLS Listing,,Single Family Residential,912 Rossville Ave,Staten Island,NY,10309,439900,3,2,Rossville,1088,1350,1986,117,404,,Active,,,http://www.redfin.com/NY/Staten-Island/912-Rossville-Ave-10309/home/56116137,SIBORMLS,1132332,N,Y,40.548902,-74.211128
MLS Listing,,Single Family Residential,43 Cooke St,Staten Island,NY,10314,449000,3,2,Graniteville,1360,2000,1974,119,330,,Active,,,http://www.redfin.com/NY/Staten-Island/43-Cooke-St-10314/home/56132328,SIBORMLS,1132271,N,Y,40.6177957,-74.1594342
MLS Listing,,Multi-Family (2-4 Unit),214 S 5th Ave,Mt Vernon,NY,10550,450000,5,3,Mt Vernon,,6000,1950,122,,,Active,,,http://www.redfin.com/NY/Mt-Vernon/214-S-5th-Ave-10550/home/20214166,MLSLI,3164390,N,Y,40.9060346,-73.8362319
MLS Listing,,Condo/Co-op,Unit at 116 Cambridge Pl,Brooklyn,NY,11238,450000,2,1,Clinton Hill,,,,124,,,Active,,,http://www.redfin.com/NY/Brooklyn/116-Cambridge-Pl-11238/home/168984145,REBNY,IPGL2040,N,Y,40.6837918,-73.9631445
MLS Listing,,Condo/Co-op,Unit at 655 Riverside Dr,Brooklyn,NY,10031,435000,3,1,Brooklyn,,,,124,,,Active,,,http://www.redfin.com/NY/New-York/655-Riverside-Dr-10031/home/114713690,REBNY,KWNY236282,N,Y,40.8255972,-73.9529963
MLS Listing,,Single Family Residential,395 Hawthorne Ave,Staten Island,NY,10314,438895,3,3,Willowbrook,1120,2720,1979,125,392,212,Active,,,http://www.redfin.com/NY/Staten-Island/395-Hawthorne-Ave-10314/home/56077756,SIBORMLS,1132116,N,Y,40.607171,-74.149517
MLS Listing,,Single Family Residential,1026 E 232nd St,Bronx,NY,10466,439900,2,1,Bronx,1068,2735,1920,125,412,,Active,,,http://www.redfin.com/NY/The-Bronx/1026-E-232nd-St-10466/home/44747371,HGMLS,5057828,N,Y,40.889457,-73.8482049
MLS Listing,,Single Family Residential,103 Stanley Ave,Staten Island,NY,10301,449000,2,3,New Brighton,900,1600,1989,125,499,,Active,,,http://www.redfin.com/NY/Staten-Island/103-Stanley-Ave-10301/home/56130772,SIBORMLS,1132108,N,Y,40.6350272,-74.0888035
MLS Listing,,Condo/Co-op,2932 W 5 St Unit 7G,Brooklyn,NY,11224,449000,2,1,Brooklyn,1100,,,126,408,,Active,,,http://www.redfin.com/NY/Brooklyn/2932-W-5th-St-11224/unit-7G/home/40920192,BNYMLS,433087,N,Y,40.5781381,-73.973153
MLS Listing,,Condo/Co-op,166-25 Powells Cove Blvd Unit 2E,Beechhurst,NY,11357,449000,2,2,Cryder House,,,1963,130,,,Active,,,http://www.redfin.com/NY/Unknown/166-25-Powells-Cove-Blvd-11357/unit-2E/home/146849743,MLSLI,3161620,N,Y,40.7944231,-73.796598
MLS Listing,,Condo/Co-op,Unit at 290 W 232nd St,Bronx,NY,10463,425000,3,1.5,Kingsbridge,,,,132,,,Active,,,http://www.redfin.com/NY/The-Bronx/290-W-232nd-St-10463/home/113866480,REBNY,BACH19847295,N,Y,40.881688,-73.9069793
MLS Listing,,Condo/Co-op,2928 W 5 St Unit 10F,Brooklyn,NY,11224,425000,2,1,Brooklyn,1000,,1964,132,425,,Active,,,http://www.redfin.com/NY/Brooklyn/2928-W-5th-St-11224/unit-10F/home/40921359,BNYMLS,432869,N,Y,40.5781785,-73.9733314
MLS Listing,,Condo/Co-op,47 Ft Washington Ave #62,New York,NY,10032,450000,3,1,New York,,,1914,132,,,Active,,,http://www.redfin.com/NY/New-York/47-Fort-Washington-Ave-10032/unit-62/home/168865585,HGMLS,5048860,N,Y,40.8370933,-73.9446846
MLS Listing,,Condo/Co-op,2650 Ocean Pkwy Unit 8N,Brooklyn,NY,11235,449000,2,2,Brooklyn,1260,,1962,132,356,,Active,,,http://www.redfin.com/NY/Brooklyn/2650-Ocean-Pkwy-11235/unit-8N/home/77395031,BNYMLS,432909,N,Y,40.5854381,-73.9670533
MLS Listing,,Condo/Co-op,64-41 Saunders St,Rego Park,NY,11374,438000,2,1,Sherwood,,,1950,133,,,Active,,,http://www.redfin.com/NY/Flushing/64-41-Saunders-St-11374/home/20899440,MLSLI,3160581,N,Y,40.728491,-73.859983
MLS Listing,,Condo/Co-op,Unit at 275 Webster Ave,Brooklyn,NY,11230,450000,2,1,Kensington,,,,136,,,Active,,,http://www.redfin.com/NY/Brooklyn/275-Webster-Ave-11230/home/40927479,REBNY,CORC5850784,N,Y,40.6329634,-73.9709274
MLS Listing,,Single Family Residential,102-11 Remson Pl,Howard Beach,NY,11414,425000,4,2,Lindenwood,,8000,1920,139,,,Active,,,http://www.redfin.com/NY/Unknown/102-11-Remson-Pl-11414/home/108297876,MLSLI,3159276,N,Y,40.6593769,-73.830746
MLS Listing,,Condo/Co-op,42-65 Kissena Blvd #215,Flushing,NY,11355,450000,2,1,Newport Apartments,1000,,1963,140,450,,Active,,,http://www.redfin.com/NY/Flushing/4265-Kissena-Blvd-11355/unit-215/home/20654642,MLSLI,3159209,N,Y,40.7560103,-73.8249483
MLS Listing,,Condo/Co-op,87 Edgewater Park Unit B,Bronx,NY,10465,449000,3,2,Bronx,1550,,2010,140,290,,Active,,,http://www.redfin.com/NY/The-Bronx/87-Edgewater-Park-10465/unit-B/home/168753927,HGMLS,5022185,N,Y,40.8224719,-73.8110594
MLS Listing,,Condo/Co-op,33-47 91st St Unit 4J,Jackson Heights,NY,11372,425000,2,1.5,N/A,,,1958,141,,,Active,,,http://www.redfin.com/NY/Jackson-Heights/33-47-91st-St-11372/unit-4J/home/20659956,MLSLI,3158903,N,Y,40.7550901,-73.876501
MLS Listing,,Single Family Residential,35 Bennett St,Staten Island,NY,10302,449000,2,2,Port Richmond,1584,2475,2006,143,283,,Active,,,http://www.redfin.com/NY/Staten-Island/35-Bennett-St-10302/home/56113562,SIBORMLS,1131723,N,Y,40.6372823,-74.1298799
MLS Listing,,Condo/Co-op,1078 East 73 St #83,Brooklyn,NY,11234,449000,2,2,Brooklyn,1300,,1989,143,345,,Active,,,http://www.redfin.com/NY/Brooklyn/1078-E-73rd-St-11234/unit-83/home/40896682,BNYMLS,432734,N,Y,40.6279882,-73.9171652
MLS Listing,,Single Family Residential,446 Sprague Ave,Staten Island,NY,10307,428500,2,2,Tottenville,1000,900,1988,144,429,215,Active,,,http://www.redfin.com/NY/Staten-Island/446-Sprague-Ave-10307/home/56093783,SIBORMLS,1131694,N,Y,40.5005076,-74.236716
MLS Listing,,Single Family Residential,627 Van Cortlandt Park Ave,Yonkers,NY,10705,450000,3,1,Yonkers,1368,2034,1924,145,329,,Active,,,http://www.redfin.com/NY/Yonkers/627-Van-Cortlandt-Park-Ave-10705/home/20182082,HGMLS,5019646,N,Y,40.9113777,-73.8918208
MLS Listing,,Single Family Residential,801 Forest Ave,Bronx,NY,10456,449000,3,1.5,Bronx,1152,2783,1992,146,390,,Active,,,http://www.redfin.com/NY/The-Bronx/801-Forest-Ave-10456/home/44711609,HGMLS,5031706,N,Y,40.819665,-73.905868
MLS Listing,,Townhouse,150-64 Foch Blvd,Jamaica,NY,11434,440000,2,1,Jamaica,,1100,1960,146,,,Active,,,http://www.redfin.com/NY/Jamaica/150-64-Foch-Blvd-11434/home/20712051,MLSLI,3157658,N,Y,40.681018,-73.790013
MLS Listing,,Single Family Residential,29 Nautilus St,Staten Island,NY,10305,429000,2,1,Fort Wadsworth,1184,3750,1915,150,362,,Active,,,http://www.redfin.com/NY/Staten-Island/29-Nautilus-St-10305/home/56026170,SIBORMLS,1131537,N,Y,40.6110713,-74.0613492
MLS Listing,,Single Family Residential,111-15A 157th St,Jamaica,NY,11433,432400,3,1.5,Jamaica,,1875,2004,150,,,Active,,,http://www.redfin.com/NY/Jamaica/111-15A-157th-St-11433/home/20713562,MLSLI,3156689,N,Y,40.6895865,-73.7914392
MLS Listing,,Condo/Co-op,23 Pennyfield Ave Unit 23-2,Bronx,NY,10465,449000,3,2,Bronx,1187,,2001,150,378,359,Active,,,http://www.redfin.com/NY/The-Bronx/23-Pennyfield-Ave-10465/unit-23-2/home/44763141,HGMLS,5025586,N,Y,40.8097461,-73.8019325
MLS Listing,,Single Family Residential,129-15 135th St,S. Ozone Park,NY,11420,445000,3,1.5,S. Ozone Park,,2312,1935,153,,,Active,,,http://www.redfin.com/NY/Jamaica/129-15-135th-St-11420/home/20723603,MLSLI,3155743,N,Y,40.671863,-73.803278
MLS Listing,,Condo/Co-op,57-10 Junction Blvd Unit 5K,Elmhurst,NY,11373,438000,2,1,Rego Park Gardens,1000,,,154,438,,Active,,,http://www.redfin.com/NY/Elmhurst/57-10-Junction-Blvd-11373/unit-5K/home/168643978,MLSLI,3155377,N,Y,40.7362562,-73.8658461
MLS Listing,,Single Family Residential,134 Willow Rd W,Staten Island,NY,10303,429000,3,2,Graniteville,1274,1980,1990,154,337,,Active,,,http://www.redfin.com/NY/Staten-Island/134-Willow-Rd-W-10303/home/56060529,SIBORMLS,1131403,N,Y,40.62607,-74.1465319
MLS Listing,,Condo/Co-op,61-55 98th St Unit 14K,Rego Park,NY,11374,439000,2,1.5,Park City Estates,1000,,1960,156,439,,Active,,,http://www.redfin.com/NY/Rego-Park/61-55-98th-St-11374/unit-14K/home/20631864,MLSLI,3155025,N,Y,40.7335541,-73.8596902
MLS Listing,,Condo/Co-op,151-20 79th St Unit 2J3,Howard Beach,NY,11414,430000,3,2,Greentree Condo,,,1984,158,,508,Active,,,http://www.redfin.com/NY/Jamaica/155-02-79th-St-11414/unit-2J3/home/20729047,MLSLI,3154415,N,Y,40.663746,-73.85504
MLS Listing,,Single Family Residential,179-47 Eveleth Rd,Queens,NY,11434,449000,3,1.5,Queens,1530,1700,1950,160,293,,Active,,,http://www.redfin.com/NY/Jamaica/179-47-Eveleth-Rd-11434/home/20705233,BNYMLS,432317,N,Y,40.682841,-73.761717
MLS Listing,,Single Family Residential,37A Jennifer Pl,Staten  Island,NY,10314,425000,2,1,Staten  Island,1100,1320,1989,161,386,,Active,,,http://www.redfin.com/NY/Staten-Island/37A-Jennifer-Pl-10314/home/168353781,BNYMLS,432284,N,Y,40.610329,-74.1582864
MLS Listing,,Single Family Residential,52 Jennifer Pl Unit B,Staten Island,NY,10314,449000,3,2,Bulls Head,950,1012,1998,164,473,254,Active,,,http://www.redfin.com/NY/Staten-Island/52-Jennifer-Pl-10314/unit-B/home/77396685,SIBORMLS,1131151,N,Y,40.6108657,-74.1582828
MLS Listing,,Condo/Co-op,222 Beach 91st St #3,Rockaway Beach,NY,11693,440000,3,3,222 B 91,,,2006,164,,355,Active,,,http://www.redfin.com/NY/Rockaway-Beach/222-Beach-91st-St-11693/unit-3/home/20626392,MLSLI,3152780,N,Y,40.587445,-73.8148544
MLS Listing,,Condo/Co-op,147 Bayside Ave Unit o,Roxbury,NY,11697,449000,2,1,Roxbury,900,,,166,499,,Active,,,http://www.redfin.com/NY/Breezy-Point/147-Bayside-Ave-11697/unit-o/home/168049259,BNYMLS,432168,N,Y,40.5672846,-73.8888463
MLS Listing,,Single Family Residential,38 Leigh Ave,Staten Island,NY,10314,426000,2,2,Bulls Head,1150,1350,1986,166,370,165,Active,,,http://www.redfin.com/NY/Staten-Island/38-Leigh-Ave-10314/home/56105783,SIBORMLS,1131079,N,Y,40.616999,-74.167389
MLS Listing,,Multi-Family (2-4 Unit),,Ozone Park,NY,11417,435000,6,2,,2392,4000,,166,182,,Active,,,http://www.redfin.com/NY/Ozone-Park/Undisclosed-address-11416/home/160690983,BNYMLS,432156,N,Y,40.6853768,-73.8492576
MLS Listing,,Condo/Co-op,901 Avenue H Unit 1E,Brooklyn,NY,11230,429000,2,1,Brooklyn,1000,,,168,429,,Active,,,http://www.redfin.com/NY/Brooklyn/901-Avenue-H-11230/unit-1E/home/160476357,BNYMLS,432079,N,Y,40.6296191,-73.9675296
MLS Listing,,Condo/Co-op,162-31 9th Ave Unit 9A,Beechhurst,NY,11357,449000,2,1,Le Havre Owners Corp,,,1958,172,,,Active,,,http://www.redfin.com/NY/Flushing/162-31-9th-Ave-11357/unit-9A/home/43032288,MLSLI,3150408,N,Y,40.793302,-73.79839
MLS Listing,,Single Family Residential,59 Navigator Ct,Staten Island,NY,10309,449900,3,3,Princes Bay,980,1455,2003,173,459,65,Active,,,http://www.redfin.com/NY/Staten-Island/59-Navigator-Ct-10309/home/56128893,SIBORMLS,1130878,N,Y,40.5137471,-74.1956341
MLS Listing,,Single Family Residential,57 Lyceum Ct,Staten  Island,NY,10310,445000,3,2,Staten  Island,1176,1656,2001,175,378,,Active,,,http://www.redfin.com/NY/Staten-Island/57-Lyceum-Ct-10310/home/56115911,BNYMLS,431893,N,Y,40.630476,-74.1253609
MLS Listing,,Single Family Residential,,Far Rockaway,NY,11691,449999,5,2,Far Rockaway,,1940,1950,180,,,Active,,,http://www.redfin.com/NY/Far-Rockaway/Undisclosed-address-11691/home/20676871,MLSLI,3147954,N,Y,40.595465,-73.772435
MLS Listing,,Multi-Family (2-4 Unit),179-58 Anderson Rd,Jamaica,NY,11434,450000,3,2,Jamaica,,2000,1940,184,,,Active,,,http://www.redfin.com/NY/Jamaica/179-58-Anderson-Rd-11434/home/20706616,MLSLI,3146945,N,Y,40.683698,-73.762512
MLS Listing,,Single Family Residential,250 Gordon St,Staten Island,NY,10304,439000,3,2,Clifton,1164,3000,1910,192,377,,Active,,,http://www.redfin.com/NY/Staten-Island/250-Gordon-St-10304/home/56115365,SIBORMLS,1130389,N,Y,40.6212351,-74.0834116
MLS Listing,,Single Family Residential,195 Lorraine Loop,Staten Island,NY,10309,450000,2,2,Rossville,1435,1143,1990,194,314,75,Active,,,http://www.redfin.com/NY/Staten-Island/195-Lorraine-Loop-10309/home/56094091,SIBORMLS,1130361,N,Y,40.544016,-74.2200919
MLS Listing,,Single Family Residential,534 Grassmere Ter,Far Rockaway,NY,11691,439000,2,1,Far Rockaway,1620,6063,1945,194,271,,Active,,,http://www.redfin.com/NY/Far-Rockaway/5-34-Grassmere-Ter-11691/home/20676838,MLSLI,3144164,N,Y,40.599063,-73.7600159
MLS Listing,,Condo/Co-op,Unit at 1001 President St,Brooklyn,NY,11225,449000,2,1,Crown Heights,,,,195,,,Active,,,http://www.redfin.com/NY/Brooklyn/1001-President-St-11225/home/167170985,REBNY,UCOM1834748,N,Y,40.6689281,-73.9582943
MLS Listing,,Condo/Co-op,Unit at 121-16 Ocean Promenade,Queens,NY,11694,449000,2,2,Far Rockaway,,,,224,,,Active,,,http://www.redfin.com/NY/Rockaway-Park/140-Beach-113th-St-11694/home/20642453,REBNY,BHSR19624408,N,Y,40.5788543,-73.8334357
MLS Listing,,Condo/Co-op,18-05 215 St Unit 2H,Bayside,NY,11360,439000,2,2,Bay Terrace,,,1970,228,,99,Active,,,http://www.redfin.com/NY/Flushing/1805-215th-St-11360/unit-2H/home/20628549,MLSLI,3133345,N,Y,40.7848316,-73.7752379
MLS Listing,,Condo/Co-op,Unit at 68 Garden St,Brooklyn,NY,11206,449000,2,2,Bushwick,,,,234,,,Active,,,http://www.redfin.com/NY/Brooklyn/68-Garden-St-11206/home/40925730,REBNY,BOLD124237,N,Y,40.7003277,-73.9364879
MLS Listing,,Single Family Residential,116-11 148th St,Jamaica,NY,11436,450000,3,2,Jamaica,,2600,1930,244,,,Active,,,http://www.redfin.com/NY/Jamaica/116-11-148th-St-11436/home/20713800,MLSLI,3128687,N,Y,40.682028,-73.793274
MLS Listing,,Condo/Co-op,Unit at 1878 Adam C Powell Blvd,New York,NY,10026,450000,2,1,Harlem,,,,246,,,Active,,,http://www.redfin.com/NY/New-York/1878-Adam-Clayton-Powell-Junior-Blvd-10026/home/147615112,REBNY,DEGI3773268,N,Y,40.8018715,-73.9539607
MLS Listing,,Single Family Residential,15 Dulancey Ct,Staten Island,NY,10304,449000,3,2,Stapleton,1200,1824,2001,258,374,,Active,,,http://www.redfin.com/NY/Staten-Island/15-Dulancey-Ct-10301/home/56092961,SIBORMLS,1128438,N,Y,40.6339617,-74.0779048
MLS Listing,,Single Family Residential,55 Park Ave,Staten Island,NY,10302,449900,4,2,Port Richmond,2080,2217,1915,262,216,,Active,,,http://www.redfin.com/NY/Staten-Island/55-Park-Ave-10302/home/56107611,SIBORMLS,1128331,N,Y,40.6388169,-74.1310268
MLS Listing,,Single Family Residential,72 Hope Ln,Staten Island,NY,10305,439000,3,2,Fort Wadsworth,1320,1100,1999,264,333,65,Active,,,http://www.redfin.com/NY/Staten-Island/72-Hope-Ln-10305/home/56110318,SIBORMLS,1128278,N,Y,40.6084869,-74.0664819
MLS Listing,,Single Family Residential,30 Melba Ct,Brooklyn,NY,11229,449000,2,1,Brooklyn,660,1800,1925,264,680,,Active,,,http://www.redfin.com/NY/Brooklyn/30-Melba-Ct-11229/home/40910352,BNYMLS,429304,N,Y,40.5876607,-73.9242482
MLS Listing,,Townhouse,4059 Paulding Ave,Bronx,NY,11702,449000,4,2.5,Wakefield,,1800,1955,269,,,Active,,,http://www.redfin.com/NY/The-Bronx/4059-Paulding-Ave-10466/home/44790553,MLSLI,3120762,N,Y,40.8875663,-73.8507339
MLS Listing,,Single Family Residential,34 Fillmore St,Staten Island,NY,10301,449000,4,2,New Brighton,1200,2700,1920,272,374,,Active,,,http://www.redfin.com/NY/Staten-Island/34-Fillmore-St-10301/home/56029445,SIBORMLS,1128026,N,Y,40.6448898,-74.0896409
MLS Listing,,Condo/Co-op,Unit at 100 Overlook Ter,New York,NY,10040,449000,2,1,Hudson Heights,,,,291,,,Active,,,http://www.redfin.com/NY/New-York/100-Overlook-Ter-10040/home/160798827,REBNY,UCOM1813695,N,Y,40.8562576,-73.9349259
MLS Listing,,Single Family Residential,52 Penton St,Staten Island,NY,10309,446900,3,3,Pleasant Plains,1470,2300,2002,322,304,,Active,,,http://www.redfin.com/NY/Staten-Island/52-Penton-St-10309/home/56021813,SIBORMLS,1126509,N,Y,40.522657,-74.2141696
MLS Listing,,Multi-Family (2-4 Unit),131-17 115 St,South Ozone Park,NY,11420,450000,2,2,South Ozone Park,,1700,1935,332,,,Active,,,http://www.redfin.com/NY/Jamaica/131-17-115th-Ave-11420/home/20721115,BNYMLS,427302,N,Y,40.680179,-73.809224
MLS Listing,,Condo/Co-op,Unit at 37 -22 85th St,Queens,NY,11372,440000,2,1,Jackson Heights,,,,333,,,Active,,,http://www.redfin.com/NY/Jackson-Heights/37-60-85th-St-11372/home/163362709,REBNY,CORE763724,N,Y,40.7483302,-73.8814393
MLS Listing,,Condo/Co-op,1717 East 18th St Unit L1,Homecrest,NY,11229,440000,3,1,Jal Diversified Mgmt,,,1957,339,,,Active,,,http://www.redfin.com/NY/Brooklyn/1717-E-18th-St-11229/unit-L1/home/160422860,MLSLI,3099678,N,Y,40.607926,-73.954928
MLS Listing,,Condo/Co-op,Unit at 14 -32 Eggert Pl,Queens,NY,11691,449000,3,2,Far Rockaway,,,,354,,,Active,,,http://www.redfin.com/NY/Far-Rockaway/14-35-Eggert-Pl-11691/home/153877650,REBNY,BEDF85056,N,Y,40.609952,-73.758638
MLS Listing,,Condo/Co-op,180 Heron Ln #331,Bronx,NY,10473,430000,3,2,Bronx,1206,,2009,361,357,494,Active,,,http://www.redfin.com/NY/The-Bronx/180-Heron-Ln-10473/unit-331/home/44770615,HGMLS,4902411,N,Y,40.8056718,-73.8505883
MLS Listing,,Single Family Residential,,New Dorp,NY,10306,440000,3,2,,,,,376,,,Active,,,http://www.redfin.com/NY/Staten-Island/Undisclosed-address-10306/home/148032402,BNYMLS,426077,N,Y,40.5729336,-74.1298684
MLS Listing,,Condo/Co-op,12445 Flatlands Ave Unit D,Brooklyn,NY,11208,435000,3,1.5,Meadowwood East,,,1966,420,,680,Active,,,http://www.redfin.com/NY/Brooklyn/12445-Flatlands-Ave-11208/unit-D/home/169550007,MLSLI,3082330,N,Y,40.6577084,-73.8753188
MLS Listing,,Condo/Co-op,Unit at 10 Pennyfield Ave,Bronx,NY,10465,435000,3,2,The Bronx ( Other),,,,430,,,Active,,,http://www.redfin.com/NY/Bronx/10-Pennyfield-Ave-10465/home/148049504,REBNY,CITI5598192,N,Y,40.8092939,-73.8021242
MLS Listing,,Multi-Family (2-4 Unit),110 S 12th Ave,Mount Vernon,NY,10550,450000,6,2,Mount Vernon,2200,2570,1904,465,205,,Active,,,http://www.redfin.com/NY/Mt-Vernon/110-S-12th-Ave-10550/home/20000368,HGMLS,4846624,N,Y,40.9069998,-73.8437672
MLS Listing,,Townhouse,631 Cary Ave #2,Staten Island,NY,10310,449000,7,1,West Brighton,2050,1250,1925,474,219,,Active,,,http://www.redfin.com/NY/Unknown/631-Cary-Ave-10310/unit-2/home/147282433,SIBORMLS,1122979,N,Y,40.6320734,-74.1231219
MLS Listing,,Single Family Residential,253-01 148th Ave,Rosedale,NY,11422,430000,3,2,Rosedale,,2714,1960,664,,,Active,,,http://www.redfin.com/NY/Jamaica/253-01-148th-Ave-11422/home/20684851,MLSLI,3013489,N,Y,40.655404,-73.736532
MLS Listing,,Condo/Co-op,Unit at 100 W 141st St,New York,NY,10030,450000,5,1,Harlem,,,,907,,,Active,,,http://www.redfin.com/NY/New-York/100-W-141st-St-10030/home/142952482,REBNY,SPIR387882,N,Y,40.8178849,-73.938649
MLS Listing,,Condo/Co-op,166-25 Powells Cove Blvd Unit 11G,Beechhurst,NY,11357,425000,2,2,Cryder House,1350,,1962,1394,315,,Active,,,http://www.redfin.com/NY/Unknown/166-25-Powells-Cove-Blvd-11357/unit-11G/home/104220274,MLSLI,2837400,N,Y,40.7945375,-73.7965346
For-Sale-by-Owner Listing,,Condo/Co-op,3515 Henry Hudson Pkwy W,The Bronx,NY,10463,450000,3,2,Bronx,1190,,1958,24,378,,Active,,,http://www.redfin.com/NY/The-Bronx/3515-Henry-Hudson-Pkwy-W-10463/home/44796445,Fizber.com,5041938,N,Y,40.8868405,-73.9129775
For-Sale-by-Owner Listing,,Condo/Co-op,545 Willow Rd E,Staten Island,NY,10314,425000,3,1.5,Staten Island,1242,2400,1978,139,342,,Active,,,http://www.redfin.com/NY/Staten-Island/545-Willow-Rd-E-10314/unit-2/home/56051584,Fizber.com,5029404,N,Y,40.6123868,-74.1511288
