SALE TYPE,SOLD DATE,PROPERTY TYPE,ADDRESS,CITY,STATE OR PROVINCE,ZIP OR POSTAL CODE,PRICE,BEDS,BATHS,LOCATION,SQUARE FEET,LOT SIZE,YEAR BUILT,DAYS ON MARKET,$/SQUARE FEET,HOA/MONTH,STATUS,NEXT OPEN HOUSE START TIME,NEXT OPEN HOUSE END TIME,URL (SEE http://www.redfin.com/buy-a-home/comparative-market-analysis FOR INFO ON PRICING),SOURCE,MLS#,FAVORITE,INTERESTED,LATITUDE,LONGITUDE
MLS Listing,,Condo/Co-op,Unit at 201 E 66th St,New York,NY,10065,499900,0,1,Upper East Side,,,,164,,,Active,,,http://www.redfin.com/NY/New-York/201-E-66th-St-10065/home/167040972,REBNY,REDC19670504,N,Y,40.7660538,-73.9629079
MLS Listing,,Single Family Residential,323 Garretson Ave,Staten Island,NY,10305,489000,2,2,South Beach,1120,1470,1990,1,437,,Active,,,http://www.redfin.com/NY/Staten-Island/323-Garretson-Ave-10305/home/56043936,SIBORMLS,1134818,N,Y,40.5869526,-74.0909334
MLS Listing,,Condo/Co-op,Unit at 45 Martense St,Brooklyn,NY,11226,479000,1,1,Flatbush,,,,1,,,Active,,,http://www.redfin.com/NY/Brooklyn/45-Martense-St-11226/home/170270774,REBNY,CORC5964124,N,Y,40.651597,-73.9575654
MLS Listing,,Condo/Co-op,66-10 Yellowstone Blvd Unit 1G,Forest Hills,NY,11375,478000,2,1,The Stratton,1020,,1950,2,469,,Active,,,http://www.redfin.com/NY/Flushing/66-10-Yellowstone-Blvd-11375/unit-1G/home/20643588,MLSLI,3191185,N,Y,40.7293226,-73.8501306
MLS Listing,,Condo/Co-op,Unit at 145 E 15th St,New York,NY,10003,499000,0,1,Gramercy Park,,,,2,,,Active,,,http://www.redfin.com/NY/New-York/145-E-15th-St-10003/home/45146539,REBNY,DEGI4075799,N,Y,40.7343053,-73.9869055
MLS Listing,,Condo/Co-op,Unit at 185 Hall St,Brooklyn,NY,11205,489500,1,1,Clinton Hill,,,,2,,,Active,,,http://www.redfin.com/NY/Brooklyn/185-Hall-St-11205/home/160760964,REBNY,CORC5962381,N,Y,40.6923118,-73.9653256
MLS Listing,,Condo/Co-op,144-58 Sanford Ave #52,Flushing,NY,11355,480000,2,1,Sanford Plaza,,,1955,3,,,Active,,,http://www.redfin.com/NY/Flushing/144-58-Sanford-Ave-11355/unit-52/home/170268314,MLSLI,3191009,N,Y,40.7589616,-73.8187137
MLS Listing,,Condo/Co-op,102-14 Lewis Ave Unit 5B,Corona,NY,11368,489000,2,1,Corona Plaza,645,,2004,3,758,239,Active,,,http://www.redfin.com/NY/Corona/102-14-Lewis-Ave-11368/unit-5B/home/20647576,MLSLI,3190908,N,Y,40.74095,-73.8581449
MLS Listing,,Townhouse,90-43 Silver Rd,Ozone Park,NY,11417,499000,2,1.5,Ozone Park,,2000,1950,3,,,Active,,,http://www.redfin.com/NY/Jamaica/90-43-Silver-Rd-11417/home/20728921,MLSLI,3190904,N,Y,40.67546,-73.8453
MLS Listing,,Condo/Co-op,Unit at 201 E 37th St,New York,NY,10016,475000,1,1,Middle East Side,,,,3,,,Active,,,http://www.redfin.com/NY/New-York/201-E-37th-St-10016/home/45336605,REBNY,DEGI4072036,N,Y,40.7476363,-73.9763459
MLS Listing,,Condo/Co-op,3016 E Brighton 5 St Unit 3C,Brooklyn,NY,11235,489000,1,1,Brooklyn,739,,2019,4,662,,Active,,,http://www.redfin.com/NY/Brooklyn/3016-Brighton-5th-St-11235/unit-3C/home/170245819,BNYMLS,435832,N,Y,40.5789422,-73.9632143
MLS Listing,,Condo/Co-op,3016 E Brighton 5 St Unit 2B,Brooklyn,NY,11235,479000,1,1,Brooklyn,737,,2019,4,650,,Active,,,http://www.redfin.com/NY/Brooklyn/3016-Brighton-5th-St-11235/unit-2B/home/170245409,BNYMLS,435814,N,Y,40.5789422,-73.9632143
MLS Listing,,Condo/Co-op,Unit at 430 W 34th St,New York,NY,10001,495000,0,1,Middle West Side,,,,4,,,Active,,,http://www.redfin.com/NY/New-York/430-W-34th-St-10001/home/45328254,REBNY,UCOM1865192,N,Y,40.7536573,-73.9975607
MLS Listing,,Condo/Co-op,139-76 35th Ave Unit 1A,Flushing,NY,11354,499000,2,1,Rb Condominium,700,12100,1987,4,713,,Active,,,http://www.redfin.com/NY/Unknown/139-76-35th-Ave-11354/unit-1A/home/100148331,MLSLI,3190522,N,Y,40.7654389,-73.8248595
MLS Listing,,Condo/Co-op,Unit at 125 28th Ave,Brooklyn,NY,11214,499888,2,1,Bath Beach,,,,4,,,Active,,,http://www.redfin.com/NY/Brooklyn/125-28th-Ave-11214/home/40643226,REBNY,DEGI4066044,N,Y,40.5877429,-73.986653
MLS Listing,,Townhouse,172-20 Victoria Dr,Jamaica,NY,11434,499000,2,2,Jamaica,946,2200,1940,5,527,,Active,,,http://www.redfin.com/NY/Jamaica/172-20-Victoria-Dr-11434/home/20703825,MLSLI,3190203,N,Y,40.6838695,-73.7728942
MLS Listing,,Condo/Co-op,Unit at 682 Willoughby Ave,Brooklyn,NY,11206,499000,0,1.5,Bedford Stuyvesant,,,,6,,,Active,,,http://www.redfin.com/NY/Brooklyn/682-Willoughby-Ave-11206/home/170227824,REBNY,UCOM1864858,N,Y,40.6945483,-73.9420157
MLS Listing,,Single Family Residential,215 Father Capodanno Blvd,Staten Island,NY,10305,499900,2,2,South Beach,800,3250,1915,6,625,,Active,,,http://www.redfin.com/NY/Staten-Island/215-Father-Capodanno-Blvd-10305/home/56138034,SIBORMLS,1134646,N,Y,40.5917693,-74.0654108
MLS Listing,,Condo/Co-op,Unit at 520 E 81st St,New York,NY,10028,495000,0,1,Upper East Side,,,,7,,,Active,,,http://www.redfin.com/NY/New-York/520-E-81st-St-10028/home/45296638,REBNY,CITI5959686,N,Y,40.7720248,-73.9483854
MLS Listing,,Condo/Co-op,Unit at 155 E 49th St,New York,NY,10017,499000,1,1,Middle East Side,,,,7,,,Active,,,http://www.redfin.com/NY/New-York/155-E-49th-St-10017/home/170220867,REBNY,CORC5959874,N,Y,40.7556785,-73.9718399
MLS Listing,,Condo/Co-op,Unit at 240 E 76th St,New York,NY,10021,480000,0,1,Upper East Side,,,,7,,,Active,,,http://www.redfin.com/NY/New-York/240-E-76th-St-10021/home/170218244,REBNY,CORC5955642,N,Y,40.7714098,-73.9568334
MLS Listing,,Condo/Co-op,Unit at 80 La Salle St,New York,NY,10027,498000,1,1,Morningside Heights,,,,7,,,Active,,,http://www.redfin.com/NY/New-York/80-La-Salle-St-10027/home/45164867,REBNY,ASHW2830361,N,Y,40.8127336,-73.9579951
MLS Listing,,Condo/Co-op,Unit at 320 E 42nd St,New York,NY,10017,500000,2,2,Murray Hill Kips Bay,,,,7,,,Active,,,http://www.redfin.com/NY/New-York/320-E-42nd-St-10017/home/148705051,REBNY,CORC5957576,N,Y,40.7492776,-73.9714601
MLS Listing,,Condo/Co-op,Unit at 182 Concord St,Brooklyn,NY,11201,485000,0,1,Downtown Brooklyn,,,,8,,,Active,,,http://www.redfin.com/NY/Brooklyn/182-Concord-St-11201/home/170215291,REBNY,CORC5957334,N,Y,40.6974971,-73.9838237
MLS Listing,,Condo/Co-op,61-15 97th St Unit 7B,Rego Park,NY,11374,481000,2,1,Park Plaza,975,,1962,9,493,,Active,,,http://www.redfin.com/NY/Rego-Park/61-15-97th-St-11374/unit-7B/home/142633492,MLSLI,3189206,N,Y,40.7341131,-73.8619884
MLS Listing,,Condo/Co-op,Unit at 1919 Madison Ave,New York,NY,10035,485000,2,1,Mt. Morris Park,,,,9,,,Active,,,http://www.redfin.com/NY/New-York/1919-Madison-Ave-10035/home/170210779,REBNY,UCOM1864311,N,Y,40.8045686,-73.9410797
MLS Listing,,Single Family Residential,140-15 182nd St,Jamaica,NY,11413,495000,2,2.5,Queens County (36081),1600,,1950,11,309,,Active,,,http://www.redfin.com/NY/Jamaica/140-15-182nd-St-11413/home/20693413,Global MLS,202010118,N,Y,40.6715469,-73.761626
MLS Listing,,Condo/Co-op,103-16 Corona Ave Unit 3C,Corona,NY,11368,485000,2,1,103-16 Condo,,,2019,14,,266,Active,,,http://www.redfin.com/NY/Corona/103-16-Corona-Ave-11368/unit-3C/home/169558667,MLSLI,3188189,N,Y,40.7438778,-73.8592382
MLS Listing,,Condo/Co-op,Unit at 130 Lenox Ave,New York,NY,10026,499000,2,1,West Harlem,,,,14,,,Active,,,http://www.redfin.com/NY/New-York/130-Malcolm-X-Blvd-10026/home/45198180,REBNY,UCOM418061,N,Y,40.8021763,-73.9490789
MLS Listing,,Condo/Co-op,103-16 Corona Ave Unit 2B,Corona,NY,11368,485000,2,1,103-16 Condo,,,2019,14,,266,Active,,,http://www.redfin.com/NY/Corona/103-16-Corona-Ave-11368/unit-2B/home/169558354,MLSLI,3188142,N,Y,40.7438778,-73.8592382
MLS Listing,,Vacant Land,23 Grantwood Ave,Staten Island,NY,10312,488888,0,,Annadale,,6323,,14,,,Active,,,http://www.redfin.com/NY/Staten-Island/23-Grantwood-Ave-10312/home/56034136,SIBORMLS,1134491,N,Y,40.5481355,-74.1764054
MLS Listing,,Condo/Co-op,Unit at 440 Neptune Ave,Brooklyn,NY,11224,499000,2,1,Coney Island,,,,14,,,Active,,,http://www.redfin.com/NY/Brooklyn/440-Neptune-Ave-11224/home/40667067,REBNY,UCOM1863850,N,Y,40.5798024,-73.9699473
MLS Listing,,Single Family Residential,516 W Caswell Ave,Staten Island,NY,10314,499000,2,2,Graniteville,1232,6745,1930,14,405,,Active,,,http://www.redfin.com/NY/Staten-Island/516-W-Caswell-Ave-10314/home/56051896,SIBORMLS,1134480,N,Y,40.6158626,-74.1539297
MLS Listing,,Condo/Co-op,Unit at 201 E 37th St,New York,NY,10016,500000,0,1,Murray Hill Kips Bay,,,,15,,,Active,,,http://www.redfin.com/NY/New-York/201-E-37th-St-10016/home/45147925,REBNY,UCOM247162,N,Y,40.7476363,-73.9763459
MLS Listing,,Condo/Co-op,27010 Grand Central Pkwy Unit 3-O,Floral Park,NY,11005,489000,1,1.5,North Shore Towers,1200,,1975,16,408,,Active,,,http://www.redfin.com/NY/Floral-Park/27010-Grand-Central-PKWY-11005/unit-3-O/home/170174039,MLSLI,3187970,N,Y,40.7568752,-73.7110078
MLS Listing,,Condo/Co-op,Unit at 340 E 74th St,New York,NY,10021,499000,0,1,Upper East Side,,,,17,,,Active,,,http://www.redfin.com/NY/New-York/340-E-74th-St-10021/home/170169655,REBNY,UCOM1863774,N,Y,40.7692535,-73.9557821
MLS Listing,,Condo/Co-op,3843 Amboy Rd Unit 2a,Staten Island,NY,10308,499000,2,2,Great Kills,1123,1123,2015,17,444,287,Active,,,http://www.redfin.com/NY/Staten-Island/3843-Amboy-Rd-10308/unit-2A/home/108561240,SIBORMLS,1134466,N,Y,40.5517333,-74.1464983
MLS Listing,,Condo/Co-op,210-19 26th Ave Unit 1H,Bayside,NY,11360,499000,1,1,Bay Terrace,850,126308,1985,17,587,470,Active,,,http://www.redfin.com/NY/Bayside/210-19-26th-Ave-11360/unit-1H/home/20837067,MLSLI,3187788,N,Y,40.7777138,-73.7798661
MLS Listing,,Condo/Co-op,Unit at 169 W 73rd St,New York,NY,10023,499000,0,1,Upper West Side,,,,18,,,Active,,,http://www.redfin.com/NY/New-York/169-W-73rd-St-10023/home/45150093,REBNY,DEGI4052199,N,Y,40.7790953,-73.9804584
MLS Listing,,Condo/Co-op,Unit at 315 Gates Ave,Brooklyn,NY,11216,495000,0,1,Bedford Stuyvesant,,,,18,,,Active,,,http://www.redfin.com/NY/Brooklyn/315-Gates-Ave-11216/home/40928057,REBNY,MOSP1863401,N,Y,40.6859047,-73.9550398
MLS Listing,,Condo/Co-op,43-10 48th Ave Unit 7F,Woodside,NY,11377,499999,2,1,Celtic Park Gardens,,,1931,21,,,Active,,,http://www.redfin.com/NY/Woodside/43-10-48th-Ave-11377/unit-7F/home/40510496,MLSLI,3187519,N,Y,40.7393738,-73.9215119
MLS Listing,,Condo/Co-op,33-21 82nd St #42,Jackson Heights,NY,11372,489888,2,1,Garden Heights,,,1950,21,,,Active,,,http://www.redfin.com/NY/Flushing/33-21-82nd-St-11372/unit-42/home/169087536,MLSLI,3187495,N,Y,40.754896,-73.884944
MLS Listing,,Condo/Co-op,220-55 46th Ave Unit 15G,Bayside,NY,11361,478000,2,1,Lakeside Towers,,,1961,25,,,Active,,,http://www.redfin.com/NY/Bayside/22055-46th-Ave-11361/unit-15G/home/20641316,MLSLI,3187078,N,Y,40.760819,-73.759222
MLS Listing,,Townhouse,984 Schenck Ave Unit East New York,Brooklyn,NY,11207,499000,2,2.5,Brooklyn,,1573,1960,26,,,Active,,,http://www.redfin.com/NY/Brooklyn/984-Schenck-Ave-11207/unit-East-New-York/home/169941793,MLSLI,3186958,N,Y,40.656295,-73.880667
MLS Listing,,Condo/Co-op,152-72 Melbourne Ave Unit 1H,Flushing,NY,11367,479000,1,1,Fleur De Lis,791,20732,1963,26,606,404,Active,,,http://www.redfin.com/NY/Flushing/15272-Melbourne-Ave-11367/unit-1H/home/20827531,MLSLI,3186801,N,Y,40.733522,-73.815324
MLS Listing,,Condo/Co-op,2811 E 26 St Unit 3D,Brooklyn,NY,11235,489000,2,1,Brooklyn,783,,1986,27,625,,Active,,,http://www.redfin.com/NY/Brooklyn/2811-E-26th-St-11235/unit-3D/home/170123518,BNYMLS,435423,N,Y,40.5844891,-73.9425953
MLS Listing,,Condo/Co-op,94-56 Magnolia Ct Unit 3B,Ozone Park,NY,11417,489900,2,2,Centreville,1730,,2003,27,283,643,Active,,,http://www.redfin.com/NY/Ozone-Park/94-56-Magnolia-Ct-11417/unit-3B/home/20665819,MLSLI,3186719,N,Y,40.6699451,-73.8415921
MLS Listing,,Condo/Co-op,160 West End Ave Apt 18G,New York,NY,10023,499000,0,1,New York,550,,1963,27,907,,Active,,,http://www.redfin.com/NY/New-York/160-W-End-Ave-10023/unit-18G/home/63689535,HGMLS,5127402,N,Y,40.7760126,-73.9850894
MLS Listing,,Condo/Co-op,Unit at 771 W End Ave,New York,NY,10025,499000,1,1,Upper West Side,,,,28,,,Active,,,http://www.redfin.com/NY/New-York/771-W-End-Ave-10025/home/170114037,REBNY,SOTH2828595,N,Y,40.7963725,-73.9728607
MLS Listing,,Condo/Co-op,Unit at 180 W End Ave,New York,NY,10023,499000,0,1,Upper West Side,,,,28,,,Active,,,http://www.redfin.com/NY/New-York/180-W-End-Ave-10023/home/45339229,REBNY,UCOM1090301,N,Y,40.7774246,-73.98562
MLS Listing,,Single Family Residential,227-32 113th Ave,Queens Village,NY,11429,499000,2,2,Queens Village,750,4000,1940,28,665,,Active,,,http://www.redfin.com/NY/Queens-Village/227-32-113th-Ave-11429/home/20732358,MLSLI,3186455,N,Y,40.703563,-73.7290639
MLS Listing,,Single Family Residential,58 Collfield Ave,Staten Island,NY,10302,475000,2,1,Westerleigh,840,4100,1950,28,565,,Active,,,http://www.redfin.com/NY/Staten-Island/58-Collfield-Ave-10302/home/56065088,SIBORMLS,1134339,N,Y,40.6206379,-74.1429316
MLS Listing,,Condo/Co-op,Unit at 51 Jane St,New York,NY,10014,495000,0,1,West Village,,,,28,,,Active,,,http://www.redfin.com/NY/New-York/51-Jane-St-10014/home/170109085,REBNY,CITY1862723,N,Y,40.7383284,-74.0050228
MLS Listing,,Condo/Co-op,Unit at 80 Winthrop St,Brooklyn,NY,11225,499000,1,1,Prospect-Lefferts G,,,,31,,,Active,,,http://www.redfin.com/NY/Brooklyn/80-Winthrop-St-11225/home/170100384,REBNY,DEGI4047377,N,Y,40.6564904,-73.9576946
MLS Listing,,Condo/Co-op,Unit at 110 Ocean Pkwy,Brooklyn,NY,11218,499000,1,1,Kensington,,,,31,,,Active,,,http://www.redfin.com/NY/Brooklyn/110-Ocean-Pkwy-11218/home/110024048,REBNY,UCOM827394,N,Y,40.6475559,-73.975546
MLS Listing,,Condo/Co-op,,Elmhurst,NY,11373,488000,1,1,Wayne Capital Inc,600,,2009,31,813,267,Active,,,http://www.redfin.com/NY/Flushing/Undisclosed-address-11373/home/28685191,MLSLI,3186139,N,Y,40.745241,-73.883899
MLS Listing,,Vacant Land,284 St. Pauls Ave,Staten Island,NY,10304,500000,0,,Tompkinsville,,16436,,31,,,Active,,,http://www.redfin.com/NY/Staten-Island/284-St-Pauls-Ave-10304/home/56090493,SIBORMLS,1134330,N,Y,40.6311197,-74.0810006
MLS Listing,,Condo/Co-op,168-01 12th Ave Unit 7D,Beechhurst,NY,11357,475000,2,1,Le Havre,,,1953,32,,,Active,,,http://www.redfin.com/NY/Flushing/168-01-12th-Ave-11357/unit-7D/home/20654779,MLSLI,3185920,N,Y,40.791918,-73.79592
MLS Listing,,Condo/Co-op,Unit at 364 Harman St,Brooklyn,NY,11237,490000,0,1,Bushwick,,,,33,,,Active,,,http://www.redfin.com/NY/Brooklyn/364-Harman-St-11237/home/170059147,REBNY,UCOM1862473,N,Y,40.7012577,-73.9172753
MLS Listing,,Condo/Co-op,Unit at 87 Saint Marks Pl,New York,NY,10009,475000,0,1,East Village,,,,33,,,Active,,,http://www.redfin.com/NY/New-York/87-Saint-Marks-Pl-10009/home/170037029,REBNY,UCOM1862420,N,Y,40.7276196,-73.9848906
MLS Listing,,Single Family Residential,1201 Cross Bay Blvd,Broad Channel,NY,11693,499999,2,2,Broad Channel,,100,1920,33,,,Active,,,http://www.redfin.com/NY/Far-Rockaway/12-01-Cross-Bay-Blvd-11693/home/20679676,MLSLI,3185640,N,Y,40.604371,-73.820216
MLS Listing,,Condo/Co-op,2546 Stillwell Ave #3,Brooklyn,NY,11223,499000,2,1,Brooklyn,1000,,2005,35,499,,Active,,,http://www.redfin.com/NY/Brooklyn/2546-Stillwell-Ave-11223/unit-3/home/170044084,BNYMLS,435266,N,Y,40.5857519,-73.9835309
MLS Listing,,Condo/Co-op,Unit at 955 Lexington Ave,New York,NY,10021,495000,1,1,Upper East Side,,,,35,,,Active,,,http://www.redfin.com/NY/New-York/955-Lexington-Ave-10021/home/45339293,REBNY,DEGI4045924,N,Y,40.7687538,-73.9631311
MLS Listing,,Condo/Co-op,Unit at 35 -30 82nd St,Queens,NY,11372,479000,2,1,Jackson Heights,,,,35,,,Active,,,http://www.redfin.com/NY/Flushing/35-30-82nd-St-11372/home/170038992,REBNY,SEEK1862036,N,Y,40.750805,-73.884783
MLS Listing,,Condo/Co-op,920 E 17 St Unit II5,Brooklyn,NY,11230,475000,2,,Brooklyn,1050,,,35,452,,Active,,,http://www.redfin.com/NY/Brooklyn/920-E-17th-St-11230/unit-II5/home/170021215,BNYMLS,435253,N,Y,40.6286901,-73.9606944
MLS Listing,,Condo/Co-op,Unit at 244 Madison Ave,New York,NY,10016,495000,0,1,Middle East Side,,,,37,,,Active,,,http://www.redfin.com/NY/New-York/244-Madison-Ave-10016/home/45233466,REBNY,DEGI4038936,N,Y,40.7501409,-73.9814937
MLS Listing,,Condo/Co-op,Unit at 87 St Marks Pl,Brooklyn,NY,11217,475000,0,1,Park Slope,,,,38,,,Active,,,http://www.redfin.com/NY/Brooklyn/87-Saint-Marks-Pl-11217/home/170023141,REBNY,UCOM1861848,N,Y,40.6816926,-73.979175
MLS Listing,,Condo/Co-op,Unit at 25 Tudor City Pl,New York,NY,10017,495000,1,1,Murray Hill Kips Bay,,,,39,,,Active,,,http://www.redfin.com/NY/New-York/25-Tudor-City-Pl-10017/home/145283318,REBNY,CORC5945681,N,Y,40.7486765,-73.9705371
MLS Listing,,Single Family Residential,115-10 123rd St,S. Ozone Park,NY,11420,495000,2,2,S. Ozone Park,,1700,1915,39,,,Active,,,http://www.redfin.com/NY/Jamaica/115-10-123rd-St-11420/home/20720510,MLSLI,3184525,N,Y,40.677526,-73.816169
MLS Listing,,Vacant Land,412 Alverson Ave,Staten Island,NY,10309,499000,0,,Rossville,,5000,,39,,,Active,,,http://www.redfin.com/NY/Staten-Island/412-Alverson-Ave-10309/home/56024612,SIBORMLS,1134187,N,Y,40.5457277,-74.2074083
MLS Listing,,Condo/Co-op,Unit at 8901 Shore Rd,Brooklyn,NY,11209,499000,1,1,Bay Ridge,,,,40,,,Active,,,http://www.redfin.com/NY/Brooklyn/8901-Shore-Rd-11209/home/170011273,REBNY,CITI5945793,N,Y,40.6230753,-74.0403471
MLS Listing,,Condo/Co-op,22-30 College Point Blvd Unit 2F,College Point,NY,11356,499000,2,1,22-30 College Point,,,2019,40,,314,Active,,,http://www.redfin.com/NY/College-Point/22-30-College-Point-Blvd-11356/unit-2F/home/162606101,MLSLI,3184287,N,Y,40.7792337,-73.8463035
MLS Listing,,Condo/Co-op,160 Columbia Hts Unit 2G,Brooklyn,NY,11201,499000,0,1,Columbia 160 Apartments,540,,1937,40,924,,Active,,,http://www.redfin.com/NY/Brooklyn/160-Columbia-Hts-11201/unit-2G/home/170008619,MLSLI,3184093,N,Y,40.6982329,-73.9966402
MLS Listing,,Condo/Co-op,Unit at 227 E 57th St,New York,NY,10022,499000,1,1,Middle East Side,,,,41,,,Active,,,http://www.redfin.com/NY/New-York/227-E-57th-St-10022/home/45153585,REBNY,WRNY1860839,N,Y,40.7598525,-73.9660434
MLS Listing,,Condo/Co-op,Unit at 512 E 11th St,New York,NY,10009,479000,0,1,East Village,,,,42,,,Active,,,http://www.redfin.com/NY/New-York/512-E-11th-St-10009/home/45335619,REBNY,UCOM1154266,N,Y,40.7279988,-73.9811998
MLS Listing,,Condo/Co-op,Unit at 1615 Ave I,Brooklyn,NY,11230,499000,2,1,Midwood,,,,42,,,Active,,,http://www.redfin.com/NY/Brooklyn/1615-Avenue-I-11230/home/130596177,REBNY,UCOM1670657,N,Y,40.6281935,-73.960305
MLS Listing,,Single Family Residential,20 Peggy Ln,Staten Island,NY,10306,475000,2,2,Midland Beach,1480,1050,1989,42,321,70,Active,,,http://www.redfin.com/NY/Staten-Island/20-Peggy-Ln-10306/home/56106208,SIBORMLS,1134105,N,Y,40.5721269,-74.0899162
MLS Listing,,Condo/Co-op,19 Fiske Pl Unit A1,Brooklyn,NY,11215,498000,1,1,Brooklyn,600,,,42,830,,Active,,,http://www.redfin.com/NY/Brooklyn/19-Fiske-Pl-11215/unit-A1/home/167102534,BNYMLS,435084,N,Y,40.6718059,-73.974953
MLS Listing,,Single Family Residential,89-30 Moline St,Queens Village,NY,11428,498000,2,1,Bellerose Manor,1414,1600,1940,43,352,,Active,,,http://www.redfin.com/NY/Jamaica/89-30-Moline-St-11428/home/20805324,MLSLI,3183530,N,Y,40.7286659,-73.733609
MLS Listing,,Condo/Co-op,Unit at 150 Central Park S,New York,NY,10019,475000,0,1,Middle West Side,,,,43,,,Active,,,http://www.redfin.com/NY/New-York/150-Central-Park-S-10019/home/144130533,REBNY,AVAL1860998,N,Y,40.7660708,-73.9779146
MLS Listing,,Condo/Co-op,35-45 82 St #22,Jackson Heights,NY,11372,499000,2,1,Willow Court,950,,1906,44,525,,Active,,,http://www.redfin.com/NY/Flushing/35-45-82nd-St-11372/unit-22/home/170120385,MLSLI,3183432,N,Y,40.7505499,-73.884155
MLS Listing,,Condo/Co-op,Unit at 29 W 64th St,New York,NY,10023,495000,0,1,Upper West Side,,,,45,,,Active,,,http://www.redfin.com/NY/New-York/29-W-64th-St-10023/home/169985357,REBNY,DEGI4036889,N,Y,40.7719627,-73.980845
MLS Listing,,Condo/Co-op,Unit at 333 E 46th St,New York,NY,10017,499000,0,1,Middle East Side,,,,47,,,Active,,,http://www.redfin.com/NY/New-York/333-E-46th-St-10017/home/148338928,REBNY,DEGI4035185,N,Y,40.7520734,-73.9690003
MLS Listing,,Condo/Co-op,2621 Palisade Ave Unit 12H,Bronx,NY,10463,495000,1,1,Riverdale,900,,1962,47,550,,Active,,,http://www.redfin.com/NY/The-Bronx/2621-Palisade-Ave-10463/unit-12H/home/44802612,HGMLS,5122452,N,Y,40.8825647,-73.9213061
MLS Listing,,Condo/Co-op,6345 Saunders St Unit 6B,Rego Park,NY,11374,499999,2,2,The Essex,1250,,1956,48,400,,Active,,,http://www.redfin.com/NY/Flushing/63-45-Saunders-St-11374/unit-6B/home/169963072,MLSLI,3183001,N,Y,40.7297629,-73.863454
MLS Listing,,Condo/Co-op,Unit at 166 W 22nd St,New York,NY,10011,480000,0,1,Chelsea,,,,48,,,Active,,,http://www.redfin.com/NY/New-York/166-W-22nd-St-10011/home/45145552,REBNY,UCOM1831706,N,Y,40.7431417,-73.9958198
MLS Listing,,Condo/Co-op,2628 E 26 St Unit 3C,Brooklyn,NY,11235,499000,2,1,Brooklyn,783,,1988,48,637,,Active,,,http://www.redfin.com/NY/Brooklyn/2628-E-26th-St-11235/unit-3C/home/169949539,BNYMLS,434951,N,Y,40.5882284,-73.9436304
MLS Listing,,Condo/Co-op,Unit at 420 E 72nd St,New York,NY,10021,475000,1,1,Upper East Side,,,,49,,,Active,,,http://www.redfin.com/NY/New-York/420-E-72nd-St-10021/home/168219246,REBNY,CORC5941717,N,Y,40.7672585,-73.9553234
MLS Listing,,Condo/Co-op,56-05 31st Ave Unit 2N,Woodside,NY,11377,475000,2,1,Boulevard Gardens,,,1936,50,,,Active,,,http://www.redfin.com/NY/Woodside/56-05-31st-Ave-11377/unit-2N/home/20645877,MLSLI,3182580,N,Y,40.7574899,-73.9049399
MLS Listing,,Condo/Co-op,Unit at 210 E Broadway,New York,NY,10002,499000,0,1,Lower East Side,,,,52,,,Active,,,http://www.redfin.com/NY/New-York/210-E-Broadway-10002/home/169922647,REBNY,LOHO106117,N,Y,40.7147024,-73.9878854
MLS Listing,,Condo/Co-op,Unit at 37 -31 73rd St,Queens,NY,11372,485000,1,1,Jackson Heights,,,,53,,,Active,,,http://www.redfin.com/NY/Jackson-Heights/37-49-73rd-St-11372/home/169915084,REBNY,UCOM1860225,N,Y,40.7475009,-73.892352
MLS Listing,,Condo/Co-op,142 West End Ave Unit 12S,Manhattan,NY,10023,475000,0,1,Lincoln Towers Building,580,,1963,53,819,,Active,,,http://www.redfin.com/NY/New-York/142-W-End-Ave-10023/unit-12S/home/45230279,MLSLI,3182156,N,Y,40.7760213,-73.986491
MLS Listing,,Condo/Co-op,Unit at 300 Albany St,New York,NY,10280,490000,1,1,Battery Park City,,,,53,,,Active,,,http://www.redfin.com/NY/New-York/300-Albany-St-10280/home/45234967,REBNY,LLGI622395,N,Y,40.7100228,-74.0168448
MLS Listing,,Condo/Co-op,Unit at 174 Kosciuszko St,Brooklyn,NY,11216,499000,1,1,Brooklyn,,,,53,,,Active,,,http://www.redfin.com/NY/Brooklyn/174-Kosciuszko-St-11216/home/40658149,REBNY,LLGI2819346,N,Y,40.6908051,-73.9477513
MLS Listing,,Condo/Co-op,Unit at 300 Albany St,New York,NY,10280,499999,1,1,Battery Park City,,,,53,,,Active,,,http://www.redfin.com/NY/New-York/300-Albany-St-10280/home/45234993,REBNY,LLGI1159159,N,Y,40.7100228,-74.0168448
MLS Listing,,Condo/Co-op,2823 E 26 St Unit 2B,Brooklyn,NY,11235,493000,1,1,Brooklyn,600,,,53,822,,Active,,,http://www.redfin.com/NY/Brooklyn/2823-E-26th-St-11235/unit-2B/home/40908769,BNYMLS,434914,N,Y,40.5842522,-73.9425397
MLS Listing,,Condo/Co-op,Unit at 185 18th St,Brooklyn,NY,11215,499000,0,1,Greenwood,,,,53,,,Active,,,http://www.redfin.com/NY/Brooklyn/185-18th-St-11215/home/169913105,REBNY,HALS19398952,N,Y,40.6642688,-73.9932729
MLS Listing,,Condo/Co-op,Unit at 145 E 15th St,New York,NY,10003,490000,0,1,Gramercy Park,,,,54,,,Active,,,http://www.redfin.com/NY/New-York/145-E-15th-St-10003/home/45146538,REBNY,UCOM144686,N,Y,40.7343053,-73.9869055
MLS Listing,,Condo/Co-op,Unit at 296 Sterling Pl,Brooklyn,NY,11238,495000,1,1,Brooklyn,,,,54,,,Active,,,http://www.redfin.com/NY/Brooklyn/296-Sterling-Pl-11238/home/40657953,REBNY,BHSR19966099,N,Y,40.67538,-73.9679887
MLS Listing,,Condo/Co-op,Unit at 1325 Herkimer St,Brooklyn,NY,11233,479000,1,1,Brooklyn,,,,54,,,Active,,,http://www.redfin.com/NY/Brooklyn/1325-Herkimer-St-11233/home/148704317,REBNY,KWNY238370,N,Y,40.6776279,-73.9093901
MLS Listing,,Condo/Co-op,Unit at 1325 Herkimer St,Brooklyn,NY,11233,479000,1,1,Brooklyn,,,,54,,,Active,,,http://www.redfin.com/NY/Brooklyn/1325-Herkimer-St-11233/home/169906232,REBNY,KWNY238369,N,Y,40.6776279,-73.9093901
MLS Listing,,Single Family Residential,20 Ross Ln,Staten Island,NY,10312,499000,2,1,Eltingville,882,2912,1935,56,566,,Active,,,http://www.redfin.com/NY/Staten-Island/20-Ross-Ln-10312/home/56122476,SIBORMLS,1133895,N,Y,40.5395719,-74.166177
MLS Listing,,Condo/Co-op,166-25 Powells Cove Blv Unit 12G,Beechhurst,NY,11357,489000,2,2,Cryder House,1350,,1962,56,362,,Active,,,http://www.redfin.com/NY/Whitestone/166-25-Powells-Cove-Blvd-11357/unit-12G/home/169883633,MLSLI,3181380,N,Y,40.7944231,-73.796598
MLS Listing,,Single Family Residential,117-35 142nd Pl,Jamaica,NY,11436,485000,2,1,Jamaica,860,2079,1925,56,564,,Active,,,http://www.redfin.com/NY/Jamaica/117-35-142nd-Pl-11436/home/20713766,MLSLI,3181308,N,Y,40.677904,-73.798334
MLS Listing,,Condo/Co-op,Unit at 100 W 57th St,New York,NY,10019,499000,1,1,Middle West Side,,,,56,,,Active,,,http://www.redfin.com/NY/New-York/100-W-57th-St-10019/home/45148231,REBNY,CORC5932134,N,Y,40.7641081,-73.9776418
MLS Listing,,Condo/Co-op,19-56 79th St #1,E. Elmhurst,NY,11370,479000,2,1,Garden Bay Manor,,,1939,56,,562,Active,,,http://www.redfin.com/NY/Flushing/1956-79th-St-11370/unit-1/home/20942110,MLSLI,3181187,N,Y,40.772229,-73.8913732
MLS Listing,,Townhouse,184-20 90th Ave,Hollis,NY,11423,489000,2,1,Hollis,,1120,1955,57,,,Active,,,http://www.redfin.com/NY/Jamaica/184-20-90th-Ave-11423/home/20761209,MLSLI,3181080,N,Y,40.7111969,-73.7764359
MLS Listing,,Single Family Residential,531 Greaves Ave,Staten Island,NY,10308,499999,2,2,Great Kills,1034,2340,1990,59,484,,Active,,,http://www.redfin.com/NY/Staten-Island/531-Greaves-Ave-10308/home/56081209,SIBORMLS,1133831,N,Y,40.5655177,-74.1535512
MLS Listing,,Condo/Co-op,Unit at 111 E 56th St,New York,NY,10022,499000,0,1,Middle East Side,,,,60,,,Active,,,http://www.redfin.com/NY/New-York/111-E-56th-St-10022/home/53325382,REBNY,NEXT19958508,N,Y,40.7607399,-73.970458
MLS Listing,,Condo/Co-op,Unit at 440 E 62nd St,New York,NY,10065,495000,1,1,Upper East Side,,,,61,,,Active,,,http://www.redfin.com/NY/New-York/440-E-62nd-St-10065/home/74435153,REBNY,UCOM1338774,N,Y,40.7604369,-73.958741
MLS Listing,,Condo/Co-op,Unit at 200 W 54th St,New York,NY,10019,499900,1,1,Middle West Side,,,,61,,,Active,,,http://www.redfin.com/NY/New-York/200-W-54th-St-10019/home/55351212,REBNY,DEGI4012087,N,Y,40.7635562,-73.9818919
MLS Listing,,Condo/Co-op,Unit at 2903 Frederick Douglass B,New York,NY,10039,477100,1,1,Harlem,,,,62,,,Active,,,http://www.redfin.com/NY/New-York/2903-Frederick-Douglass-Blvd-10039/home/169782159,REBNY,CORC5934425,N,Y,40.828345,-73.938304
MLS Listing,,Condo/Co-op,680 W 204th St Unit 4E,New York,NY,10034,477000,2,1,New York,875,,1928,62,545,,Active,,,http://www.redfin.com/NY/New-York/680-W-204th-St-10034/unit-4E/home/45165813,HGMLS,5119596,N,Y,40.8675377,-73.9238118
MLS Listing,,Condo/Co-op,702 45th St Unit 4H,Sunset Park,NY,11220,489000,2,1,Linden Height,,,1924,64,,,Active,,,http://www.redfin.com/NY/Brooklyn/702-45th-St-11220/unit-4H/home/40647801,MLSLI,3179519,N,Y,40.6450615,-74.0028944
MLS Listing,,Condo/Co-op,111-50 75 Rd Unit 56A,Forest Hills,NY,11375,499000,2,1,Queensbury Hall,1000,,1939,64,499,,Active,,,http://www.redfin.com/NY/Unknown/111-50-75th-Rd-11375/unit-56A/home/108256839,MLSLI,3179440,N,Y,40.7177739,-73.8370701
MLS Listing,,Condo/Co-op,51-34 30th Ave Unit 5N,Woodside,NY,11377,495000,2,1,Blvd Gardens,,,1935,66,,,Active,,,http://www.redfin.com/NY/Unknown/5134-30th-Ave-11377/unit-5N/home/143040916,MLSLI,3179214,N,Y,40.7592027,-73.9048874
MLS Listing,,Condo/Co-op,Unit at 300 E 62nd St,New York,NY,10065,499000,0,1,Upper East Side,,,,67,,,Active,,,http://www.redfin.com/NY/New-York/300-E-62nd-St-10065/home/45287237,REBNY,ENGE2814405,N,Y,40.7622092,-73.9627922
MLS Listing,,Condo/Co-op,983 W Fingerboard Rd,Staten Island,NY,10305,499900,2,3,Grasmere,1632,292460,1986,67,306,269,Active,,,http://www.redfin.com/NY/Staten-Island/983-W-Fingerboard-Rd-10304/home/56026958,SIBORMLS,1133627,N,Y,40.6013096,-74.0883647
MLS Listing,,Condo/Co-op,Unit at 165 W End Ave,New York,NY,10023,499000,0,1,Upper West Side,,,,67,,,Active,,,http://www.redfin.com/NY/New-York/165-W-End-Ave-10023/home/169728114,REBNY,CORC5931435,N,Y,40.7772929,-73.9868017
MLS Listing,,Condo/Co-op,Unit at 253 W 16th St,New York,NY,10011,499000,0,1,Chelsea,,,,68,,,Active,,,http://www.redfin.com/NY/New-York/253-W-16th-St-10011/home/45338359,REBNY,CORC5903204,N,Y,40.7409109,-74.0007791
MLS Listing,,Condo/Co-op,Unit at 108 E 91st St,New York,NY,10128,475000,1,1,Upper East Side,,,,68,,,Active,,,http://www.redfin.com/NY/New-York/108-E-91st-St-10128/home/166690361,REBNY,CORC5931343,N,Y,40.7829242,-73.9544199
MLS Listing,,Condo/Co-op,Unit at 440 E 79th St,New York,NY,10075,475000,0,1,Upper East Side,,,,68,,,Active,,,http://www.redfin.com/NY/New-York/440-E-79th-St-10075/home/169697335,REBNY,CORC5929971,N,Y,40.7715364,-73.9513203
MLS Listing,,Condo/Co-op,544 88 St Unit 3R,Brooklyn,NY,11209,485000,2,1,Brooklyn,900,,1980,68,539,,Active,,,http://www.redfin.com/NY/Brooklyn/544-88th-St-11209/unit-3R/home/144720462,BNYMLS,434587,N,Y,40.6194894,-74.0259718
MLS Listing,,Condo/Co-op,143-36 37th Ave Unit 4B,Flushing,NY,11354,499000,1,1,37 Parsons,688,68816,2005,69,725,310,Active,,,http://www.redfin.com/NY/Flushing/143-36-37th-Ave-11354/unit-4B/home/20622840,MLSLI,3178338,N,Y,40.7632166,-73.8237487
MLS Listing,,Townhouse,118-18 154th St,Jamaica,NY,11434,479000,2,2.5,Jamaica,,1350,2019,69,,,Active,,,http://www.redfin.com/NY/Jamaica/118-18-154th-St-11434/home/23131801,MLSLI,3178131,N,Y,40.680558,-73.788746
MLS Listing,,Single Family Residential,135-05 Foch Blvd,S. Ozone Park,NY,11420,500000,2,3,S. Ozone Park,,2075,1925,70,,,Active,,,http://www.redfin.com/NY/Jamaica/135-05-Foch-Blvd-11420/home/20721868,MLSLI,3177872,N,Y,40.6775949,-73.804367
MLS Listing,,Condo/Co-op,Unit at 9281 Shore Rd,Brooklyn,NY,11209,499000,2,1,Bay Ridge,,,,71,,,Active,,,http://www.redfin.com/NY/Brooklyn/9281-Shore-Rd-11209/home/54602381,REBNY,CORC5928481,N,Y,40.6189361,-74.0396344
MLS Listing,,Condo/Co-op,224-24 Union Tpke Unit 2-M,Bayside,NY,11364,485000,2,2,Cambridge Hall,1200,,1950,71,404,,Active,,,http://www.redfin.com/NY/OAKLAND-GARDENS/22424-UNION-TPKE-11364/unit-2M/home/144799598,MLSLI,3177681,N,Y,40.735656,-73.744526
MLS Listing,,Condo/Co-op,66-59 71th St Unit 3C,Middle Village,NY,11379,486888,1,1,Village Manor,,,1986,73,,241,Active,,,http://www.redfin.com/NY/Middle-Village/66-59-71st-St-11379/unit-3C/home/20899134,MLSLI,3177534,N,Y,40.712961,-73.883926
MLS Listing,,Condo/Co-op,Unit at 83 -33 Austin St,Queens,NY,11415,485000,2,1,Kew Gardens,,,,73,,,Active,,,http://www.redfin.com/NY/Jamaica/83-40-Austin-St-11415/home/20656365,REBNY,CORC5924247,N,Y,40.7083799,-73.8290102
MLS Listing,,Condo/Co-op,Unit at 333 E 55th St,New York,NY,10022,484000,0,1,Middle East Side,,,,73,,,Active,,,http://www.redfin.com/NY/New-York/333-E-55th-St-10022/home/45197385,REBNY,BOND1600710,N,Y,40.757564,-73.964594
MLS Listing,,Condo/Co-op,Unit at 444 E 87th St,New York,NY,10128,489000,1,1,Upper East Side,,,,73,,,Active,,,http://www.redfin.com/NY/New-York/444-E-87th-St-10128/home/45185451,REBNY,CORC5927645,N,Y,40.7767454,-73.9473087
MLS Listing,,Condo/Co-op,304 West 10th St Unit 4B,Manhattan,NY,10014,475000,0,1,304 W10 St Owner Corp,,,1910,75,,785,Active,,,http://www.redfin.com/NY/New-York/304-W-10th-St-10014/unit-4B/home/45210567,MLSLI,3176884,N,Y,40.7331424,-74.0096078
MLS Listing,,Condo/Co-op,110-45 Queens Blvd #318,Forest Hills,NY,11375,499000,2,1,Coop Park Briar,1000,,1951,75,499,,Active,,,http://www.redfin.com/NY/Forest-Hills/11045-Queens-Blvd-11375/unit-318/home/40370255,MLSLI,3176872,N,Y,40.7195799,-73.83976
MLS Listing,,Condo/Co-op,6665 Colonial Rd Unit 1A,Brooklyn,NY,11220,490000,2,1,Brooklyn,940,,,75,521,,Active,,,http://www.redfin.com/NY/Brooklyn/6665-Colonial-Rd-11220/unit-1A/home/169605108,BNYMLS,434375,N,Y,40.6398985,-74.0296909
MLS Listing,,Condo/Co-op,305 E 72nd St Unit 11B,New York,NY,10021,499000,0,1,Upper East Side,,,1957,75,,,Active,,,http://www.redfin.com/NY/New-York/305-E-72nd-St-10021/unit-11B/home/45204440,MLSLI,3176775,N,Y,40.7688312,-73.9579232
MLS Listing,,Condo/Co-op,Unit at 317 3rd St,Brooklyn,NY,11215,475000,1,1,Park Slope,,,,75,,,Active,,,http://www.redfin.com/NY/Brooklyn/317-3rd-St-11215/home/40672618,REBNY,DEGI4009670,N,Y,40.6737079,-73.9846545
MLS Listing,,Condo/Co-op,Unit at 10 Park Ave,New York,NY,10016,500000,0,1,Murray Hill Kips Bay,,,,76,,,Active,,,http://www.redfin.com/NY/New-York/10-Park-Ave-10016/home/169596130,REBNY,CCRI1856458,N,Y,40.7477195,-73.9813083
MLS Listing,,Condo/Co-op,Unit at 310 E 23rd St,New York,NY,10010,495000,0,1,Gramercy Park,,,,76,,,Active,,,http://www.redfin.com/NY/New-York/310-E-23rd-St-10010/home/45148395,REBNY,UCOM389023,N,Y,40.737408,-73.9804777
MLS Listing,,Condo/Co-op,Unit at 150 Central Park S,New York,NY,10019,495000,0,1,Middle West Side,,,,76,,,Active,,,http://www.redfin.com/NY/New-York/150-Central-Park-S-10019/home/145295873,REBNY,BHSR19884385,N,Y,40.7660665,-73.9779065
MLS Listing,,Condo/Co-op,110-45 71st Rd Unit 5h,Forest Hills,NY,11375,499000,2,1,Versailles,925,,1952,79,539,,Active,,,http://www.redfin.com/NY/Flushing/110-45-71st-Rd-11375/unit-5H/home/20644241,MLSLI,3175837,N,Y,40.7222907,-73.8398387
MLS Listing,,Condo/Co-op,Unit at 83 -10 35th Ave,Queens,NY,11372,499000,1,1,Jackson Heights,,,,79,,,Active,,,http://www.redfin.com/NY/Flushing/83-10-35th-Ave-11372/home/169583328,REBNY,DEGI4000236,N,Y,40.7517246,-73.8832796
MLS Listing,,Condo/Co-op,112-20 72nd Dr Unit C03,Forest Hills,NY,11375,489000,2,1,The Balfour,,,1956,79,,,Active,,,http://www.redfin.com/NY/Forest-Hills/112-20-72nd-Dr-11375/unit-C03/home/169583249,MLSLI,3175772,N,Y,40.7198453,-73.8372688
MLS Listing,,Condo/Co-op,4654 Amboy Rd #5,Staten Island,NY,10312,479000,2,2,Eltingville,1010,1010,2009,80,474,365,Active,,,http://www.redfin.com/NY/Staten-Island/4654-Amboy-Rd-10312/unit-5/home/169575436,SIBORMLS,1133351,N,Y,40.5406209,-74.1671632
MLS Listing,,Condo/Co-op,Unit at 320 W 84th St,New York,NY,10024,500000,1,1,Upper West Side,,,,80,,,Active,,,http://www.redfin.com/NY/New-York/320-W-84th-St-10024/home/45179890,REBNY,DEGI4001916,N,Y,40.7877675,-73.9798119
MLS Listing,,Single Family Residential,220-17 97 Ave,Queens Village,NY,11429,480000,2,1.5,Queens Village,,2970,1930,81,,,Active,,,http://www.redfin.com/NY/Jamaica/220-17-97th-Ave-11429/home/20741712,MLSLI,3175237,N,Y,40.717758,-73.732638
MLS Listing,,Condo/Co-op,132-73 Maple Ave Unit 4D,Flushing,NY,11355,499000,1,2,Shu Yen Condo,750,,2008,82,665,266,Active,,,http://www.redfin.com/NY/Flushing/132-73-Maple-Ave-11355/unit-4D/home/28686053,MLSLI,3175066,N,Y,40.75479,-73.830634
MLS Listing,,Condo/Co-op,162-01 Powells Cove Blvd Unit 3B,Whitestone,NY,11357,499888,2,1.5,Cryder Point,,,1958,82,,,Active,,,http://www.redfin.com/NY/Flushing/162-01-Powells-Cove-Blvd-11357/unit-3B/home/40028588,MLSLI,3175033,N,Y,40.795134,-73.799261
MLS Listing,,Condo/Co-op,2503 Ocean Ave Unit 4D,Brooklyn,NY,11229,490000,1,1,-,594,,2019,84,825,163,Active,,,http://www.redfin.com/NY/Brooklyn/2503-Ocean-Ave-11229/unit-4D/home/169506273,MLSLI,3174411,N,Y,40.600586,-73.9513572
MLS Listing,,Condo/Co-op,2503 Ocean Ave Unit 3D,Brooklyn,NY,11229,490000,1,1,-,594,,2019,84,825,163,Active,,,http://www.redfin.com/NY/Brooklyn/2503-Ocean-Ave-11229/unit-3D/home/169502705,MLSLI,3174392,N,Y,40.600586,-73.9513572
MLS Listing,,Condo/Co-op,Unit at 155 E 49th St,New York,NY,10017,475000,0,1,Middle West Side,,,,86,,,Active,,,http://www.redfin.com/NY/New-York/155-E-49th-St-10017/home/45153350,REBNY,DEGI3994461,N,Y,40.7556785,-73.9718399
MLS Listing,,Condo/Co-op,Unit at 441 Convent Ave,New York,NY,10031,487000,1,1,Hamilton Heights,,,,87,,,Active,,,http://www.redfin.com/NY/New-York/441-Convent-Ave-10031/home/169468287,REBNY,KWNY237592,N,Y,40.827174,-73.943746
MLS Listing,,Condo/Co-op,Unit at 1062 Bergen St,Brooklyn,NY,11216,499000,2,1,Crown Heights,,,,87,,,Active,,,http://www.redfin.com/NY/Brooklyn/1062-Bergen-St-11216/home/40913733,REBNY,DEGI3964230,N,Y,40.6758862,-73.9510218
MLS Listing,,Condo/Co-op,6766 108 St Unit 6F,Forest Hills,NY,11375,490000,2,1,1000,,,1950,88,,,Active,,,http://www.redfin.com/NY/Flushing/67-66-108th-St-11375/unit-6F/home/169450723,MLSLI,3173584,N,Y,40.7271058,-73.8471227
MLS Listing,,Condo/Co-op,76-15 35 Ave Unit 5M,Jackson Heights,NY,11372,495000,1,1,Cotton Condo,,,1975,89,,440,Active,,,http://www.redfin.com/NY/Flushing/7615-35th-Ave-11372/unit-5M/home/20936437,MLSLI,3173168,N,Y,40.7515422,-73.8898496
MLS Listing,,Condo/Co-op,Unit at 61 -15 98th St,Queens,NY,11374,490000,2,1.5,Rego Park,,,,90,,,Active,,,http://www.redfin.com/NY/Rego-Park/61-35-98th-St-11374/home/169425099,REBNY,UCOM1854383,N,Y,40.7343029,-73.8591178
MLS Listing,,Condo/Co-op,65-60 Wetherole St Unit 5E,Rego Park,NY,11374,489000,2,2,Coop,1200,,1947,91,408,922,Active,,,http://www.redfin.com/NY/Flushing/65-60-Wetherole-St-11374/unit-5E/home/20634476,MLSLI,3172539,N,Y,40.7258349,-73.858482
MLS Listing,,Condo/Co-op,Unit at 4113 Seventh Ave,Brooklyn,NY,11232,475000,2,1,Sunset Park,,,,91,,,Active,,,http://www.redfin.com/NY/Brooklyn/4113-7th-Ave-11232/home/169409564,REBNY,KWRE1854261,N,Y,40.6470349,-74.0007476
MLS Listing,,Condo/Co-op,219-15 67 Ave Unit 1A,Bayside,NY,11364,485000,1,1,House Beautiful,700,,1983,92,693,183,Active,,,http://www.redfin.com/NY/Oakland-Gardens/219-15-67th-Ave-11364/unit-1A/home/169409457,MLSLI,3172434,N,Y,40.7454059,-73.7570984
MLS Listing,,Condo/Co-op,,Brooklyn,NY,11232,475000,2,1,,700,,,92,679,,Active,,,http://www.redfin.com/NY/Brooklyn/Undisclosed-address-11229/home/168405450,BNYMLS,434004,N,Y,40.5988077,-73.9447994
MLS Listing,,Single Family Residential,20 Teri Ct,Staten  Island,NY,10314,479000,2,2.25,Staten  Island,2000,2256,1988,93,240,,Active,,,http://www.redfin.com/NY/Staten-Island/20-Teri-Ct-10314/home/77420901,BNYMLS,434003,N,Y,40.5902756,-74.1521617
MLS Listing,,Condo/Co-op,138-10 Franklin Ave Unit 14A,Flushing,NY,11355,479000,2,2,Carlyle Towers,900,,1963,95,532,,Active,,,http://www.redfin.com/NY/Flushing/138-10-Franklin-Ave-11355/unit-14A/home/169394467,MLSLI,3171928,N,Y,40.7546674,-73.8255947
MLS Listing,,Condo/Co-op,Unit at 257 W 86th St,New York,NY,10024,499000,1,1,Upper West Side,,,,98,,,Active,,,http://www.redfin.com/NY/New-York/257-W-86th-St-10024/home/53325492,REBNY,BHSR19891427,N,Y,40.7887481,-73.9769917
MLS Listing,,Condo/Co-op,54 Veronica Pl Unit 1B,Brooklyn,NY,11226,479000,2,1,Brooklyn,845,,1988,98,567,,Active,,,http://www.redfin.com/NY/Brooklyn/54-Veronica-Pl-11226/unit-1B/home/40786599,BNYMLS,433785,N,Y,40.6491494,-73.9530493
MLS Listing,,Condo/Co-op,63-89 Saunders St Unit 1D,Rego Park,NY,11374,495000,2,1,Saunders Apartments,,,1942,99,,,Active,,,http://www.redfin.com/NY/Flushing/63-89-Saunders-St-11374/unit-1D/home/40436470,MLSLI,3170557,N,Y,40.7291666,-73.8619839
MLS Listing,,Condo/Co-op,275 Webster Ave Unit 1b,Brooklyn,NY,11230,478000,2,1,Kensington,900,20490,1964,100,531,801,Active,,,http://www.redfin.com/NY/Brooklyn/275-Webster-Ave-11230/unit-1B/home/71607803,SIBORMLS,1132789,N,Y,40.6329634,-73.9709274
MLS Listing,,Condo/Co-op,132-27 41th Ave #2,Flushing,NY,11355,479000,1,1,Condo,,,2001,101,,269,Active,,,http://www.redfin.com/NY/Flushing/132-27A-41st-Ave-11354/unit-2/home/169288031,MLSLI,3170375,N,Y,40.7569273,-73.8327079
MLS Listing,,Condo/Co-op,61-09 39th Ave #1,Woodside,NY,11377,484000,1,1,The Penelope,,,1927,101,,,Active,,,http://www.redfin.com/NY/Woodside/61-09-39th-Ave-11377/unit-1/home/169286862,MLSLI,3170266,N,Y,40.7472374,-73.9021112
MLS Listing,,Condo/Co-op,3135 Johnson Ave Unit 11B,Bronx,NY,10463,475000,2,2,Riverdale,1200,,1954,101,396,,Active,,,http://www.redfin.com/NY/The-Bronx/3135-Johnson-Ave-10463/unit-11B/home/169283332,HGMLS,5087896,N,Y,40.8828679,-73.9112962
MLS Listing,,Condo/Co-op,140-24 31st Dr Unit 5A,Flushing,NY,11354,489000,1,1,Park Avalon,,,2005,102,,234,Active,,,http://www.redfin.com/NY/Flushing/140-24-31st-Dr-11354/unit-5A/home/20629615,MLSLI,3170058,N,Y,40.769508,-73.827689
MLS Listing,,Townhouse,230 Targee St,Staten Island,NY,10304,495000,2,1,Clifton,1372,2128,1988,102,361,,Active,,,http://www.redfin.com/NY/Staten-Island/230-Targee-St-10304/home/56083899,SIBORMLS,1132746,N,Y,40.6213895,-74.0844071
MLS Listing,,Condo/Co-op,244 Madison Ave Unit 9B,New York,NY,10016,499000,1,1,N/A,,,,102,,,Active,,,http://www.redfin.com/NY/New-York/244-Madison-Ave-10016/unit-9B/home/45174660,MLSLI,3169768,N,Y,40.7501409,-73.9814937
MLS Listing,,Condo/Co-op,85-14 Broadway Unit 2S,Elmhurst,NY,11373,475000,2,1,Alabama,950,,1961,103,500,,Active,,,http://www.redfin.com/NY/Elmhurst/85-14-Broadway-11373/unit-2S/home/20645473,MLSLI,3169563,N,Y,40.738931,-73.8779388
MLS Listing,,Condo/Co-op,Unit at 2 S End Ave,New York,NY,10280,500000,1,1,Battery Park City,,,,104,,,Active,,,http://www.redfin.com/NY/New-York/2-S-End-Ave-10280/home/45236637,REBNY,RUTE1852182,N,Y,40.7078381,-74.0174577
MLS Listing,,Condo/Co-op,Unit at 510 W 123rd St,New York,NY,10027,475000,1,1,Morningside Heights,,,,104,,,Active,,,http://www.redfin.com/NY/New-York/510-W-123rd-St-10027/home/65564056,REBNY,UCOM1318199,N,Y,40.8112719,-73.9581854
MLS Listing,,Condo/Co-op,Unit at 180 W End Ave,New York,NY,10023,475000,0,1,Upper West Side,,,,105,,,Active,,,http://www.redfin.com/NY/New-York/180-W-End-Ave-10023/home/45177544,REBNY,AKAM1170843,N,Y,40.7774246,-73.98562
MLS Listing,,Condo/Co-op,Unit at 301 E 69th St,New York,NY,10021,479000,0,1,Upper East Side,,,,108,,,Active,,,http://www.redfin.com/NY/New-York/301-E-69th-St-10021/home/169223072,REBNY,UCOM1851617,N,Y,40.766825,-73.959278
MLS Listing,,Condo/Co-op,5700 Arlington Ave Unit 6W,Bronx,NY,10471,480000,2,1,Bronx,1030,,1962,108,466,,Active,,,http://www.redfin.com/NY/The-Bronx/5700-Arlington-Ave-10471/unit-6W/home/44799361,HGMLS,5074022,N,Y,40.9069228,-73.9062512
MLS Listing,,Condo/Co-op,Unit at 151 E 83rd St,New York,NY,10028,499000,1,1.5,Upper East Side,,,,108,,,Active,,,http://www.redfin.com/NY/New-York/151-E-83rd-St-10028/home/169221439,REBNY,BHSR19883639,N,Y,40.7774024,-73.9561419
MLS Listing,,Condo/Co-op,Unit at 409 Grand St,New York,NY,10002,489000,0,1,Lower East Side,,,,108,,,Active,,,http://www.redfin.com/NY/New-York/409-Grand-St-10002/home/169218768,REBNY,RNRE1761,N,Y,40.7158532,-73.9872082
MLS Listing,,Condo/Co-op,2 Bay Club Dr Unit 1-o,Bayside,NY,11360,485000,1,1,Bay Club,,123373,1972,109,,554,Active,,,http://www.redfin.com/NY/Bayside/2-Bay-Club-Dr-11360/unit-1-o/home/169208551,MLSLI,3167795,N,Y,40.7780359,-73.7808993
MLS Listing,,Condo/Co-op,Unit at 631 E 18th St,Brooklyn,NY,11226,499000,1,1,Ditmas Park,,,,111,,,Active,,,http://www.redfin.com/NY/Brooklyn/631-E-18th-St-11226/home/169198131,REBNY,CORC5893407,N,Y,40.6357203,-73.9602516
MLS Listing,,Single Family Residential,114-60 Van Wyck Expy Expy,S. Ozone Park,NY,11420,499000,2,,Wakefield,,1600,1930,111,,,Active,,,http://www.redfin.com/NY/South-Ozone-Park/11460-Van-Wyck-Expy-11420/home/20725887,MLSLI,3167134,N,Y,40.6812536,-73.8055873
MLS Listing,,Condo/Co-op,85-28 Grand Ave Unit 4B,Elmhurst,NY,11373,499000,2,1,Grandview,,,1990,111,,347,Active,,,http://www.redfin.com/NY/Elmhurst/85-28-Grand-Ave-11373/unit-4B/home/28566273,MLSLI,3167065,N,Y,40.7352522,-73.8811242
MLS Listing,,Condo/Co-op,Unit at 150 E 93rd St,New York,NY,10128,500000,1,1,Upper East Side,,,,112,,,Active,,,http://www.redfin.com/NY/New-York/150-E-93rd-St-10128/home/45161188,REBNY,UCOM132146,N,Y,40.7836666,-73.9522501
MLS Listing,,Condo/Co-op,510 W 110th St,New York,NY,10025,475000,0,1,Upper West Side,,,,112,,,Active,,,http://www.redfin.com/NY/New-York/510-W-110th-St-10025/home/45133652,REBNY,HALS19882777,N,Y,40.803279,-73.9647637
MLS Listing,,Condo/Co-op,Unit at 575 Park Ave,New York,NY,10065,475000,1,1,Upper East Side,,,,112,,,Active,,,http://www.redfin.com/NY/New-York/575-Park-Ave-10065/home/45157429,REBNY,UCOM78013,N,Y,40.7651905,-73.9679168
MLS Listing,,Condo/Co-op,Unit at 205 E 63rd St,New York,NY,10021,475000,1,1,Upper East Side,,,,114,,,Active,,,http://www.redfin.com/NY/New-York/205-E-63rd-St-10065/home/45182318,REBNY,DEGI3956719,N,Y,40.7640501,-73.964336
MLS Listing,,Condo/Co-op,,Woodside,NY,11377,499000,1,1,.,613,,2012,114,814,206,Active,,,http://www.redfin.com/NY/Woodside/Undisclosed-address-11377/home/35626018,MLSLI,3166491,N,Y,40.744882,-73.8968115
MLS Listing,,Condo/Co-op,Unit at 155 E 76th St,New York,NY,10021,499000,1,1,Upper East Side,,,,115,,,Active,,,http://www.redfin.com/NY/New-York/155-E-76th-St-10021/home/169144314,REBNY,CORC5884830,N,Y,40.7728944,-73.9595726
MLS Listing,,Condo/Co-op,Unit at 405 W 23rd St,New York,NY,10011,495000,0,1,Chelsea,,,,115,,,Active,,,http://www.redfin.com/NY/New-York/405-W-23rd-St-10011/home/169143839,REBNY,DEGI3962720,N,Y,40.7469476,-74.0018128
MLS Listing,,Single Family Residential,111-44 114th St,S. Ozone Park,NY,11420,479900,2,2,S. Ozone Park,1000,2162,1925,115,480,,Active,,,http://www.redfin.com/NY/Jamaica/111-44-114th-St-11420/home/20723179,MLSLI,3166327,N,Y,40.67809,-73.82519
MLS Listing,,Single Family Residential,859 Calhoun Ave,Bronx,NY,10465,499900,2,2,Bronx,1680,2199,1955,116,298,,Active,,,http://www.redfin.com/NY/The-Bronx/859-Calhoun-Ave-10465/home/44790529,HGMLS,5071282,N,Y,40.8282717,-73.8268238
MLS Listing,,Condo/Co-op,Unit at 205 E 63rd St,New York,NY,10021,500000,1,1,Upper East Side,,,,116,,,Active,,,http://www.redfin.com/NY/New-York/205-E-63rd-St-10065/home/45182307,REBNY,DEGI3956722,N,Y,40.7640501,-73.964336
MLS Listing,,Condo/Co-op,Unit at 225 E 47th St,New York,NY,10017,475000,0,1,Middle East Side,,,,117,,,Active,,,http://www.redfin.com/NY/New-York/225-E-47th-St-10017/home/148338875,REBNY,DEGI3958812,N,Y,40.7536528,-73.9709274
MLS Listing,,Condo/Co-op,149 Marine Ave Unit LC,Brooklyn,NY,11209,488000,2,1,Brooklyn,800,,,117,610,,Active,,,http://www.redfin.com/NY/Brooklyn/149-Marine-Ave-11209/unit-LC/home/169098857,BNYMLS,433355,N,Y,40.6166936,-74.0351991
MLS Listing,,Condo/Co-op,Unit at 343 E 74th St,New York,NY,10021,499000,1,1,Upper East Side,,,,118,,,Active,,,http://www.redfin.com/NY/New-York/343-E-74th-St-10021/home/169089048,REBNY,DEGI3956632,N,Y,40.7696861,-73.9557104
MLS Listing,,Condo/Co-op,Unit at 186 W 80th St,New York,NY,10024,499000,0,1,Upper West Side,,,,119,,,Active,,,http://www.redfin.com/NY/New-York/186-W-80th-St-10024/home/45272764,REBNY,HALS19849046,N,Y,40.7835114,-73.9776775
MLS Listing,,Condo/Co-op,Unit at 210 E 36th St,New York,NY,10016,499000,1,1,Murray Hill Kips Bay,,,,119,,,Active,,,http://www.redfin.com/NY/New-York/210-E-36th-St-10016/home/45147929,REBNY,BOND1590972,N,Y,40.7466187,-73.9766475
MLS Listing,,Condo/Co-op,5700 Arlington Ave Unit 18G,Bronx,NY,10471,499000,2,1,Riverdale,1030,,1965,120,484,,Active,,,http://www.redfin.com/NY/The-Bronx/5700-Arlington-Ave-10471/unit-18G/home/169057966,HGMLS,5065728,N,Y,40.9069228,-73.9062512
MLS Listing,,Condo/Co-op,Unit at 230 E 15th St,New York,NY,10003,475000,0,1,Gramercy Park,,,,122,,,Active,,,http://www.redfin.com/NY/New-York/230-E-15th-St-10003/home/45338193,REBNY,CORC5885285,N,Y,40.7332359,-73.9854248
MLS Listing,,Condo/Co-op,Unit at 4401 Fourth Ave,Brooklyn,NY,11220,480000,1,1,Sunset Park,,,,123,,,Active,,,http://www.redfin.com/NY/Brooklyn/4401-4th-Ave-11220/home/169038136,REBNY,MONT1370,N,Y,40.6495376,-74.0089019
MLS Listing,,Condo/Co-op,Unit at 357 E 57th St,New York,NY,10022,475000,0,1,Middle East Side,,,,123,,,Active,,,http://www.redfin.com/NY/New-York/357-E-57th-St-10022/home/148408581,REBNY,HALS19846319,N,Y,40.7586551,-73.9630182
MLS Listing,,Condo/Co-op,Unit at 69 Fifth Ave,New York,NY,10003,495000,0,1,Flatiron,,,,123,,,Active,,,http://www.redfin.com/NY/New-York/69-5th-Ave-10003/home/169038161,REBNY,ASHW1447217,N,Y,40.7360697,-73.9932183
MLS Listing,,Condo/Co-op,Unit at 64 E 94th St,New York,NY,10128,499000,1,1,Upper East Side,,,,124,,,Active,,,http://www.redfin.com/NY/New-York/64-E-94th-St-10128/home/45200114,REBNY,UCOM1744461,N,Y,40.7854218,-73.9544887
MLS Listing,,Condo/Co-op,92-29 Queens Blvd Unit 12C,Rego Park,NY,11374,498000,1,1,Queens Tower Condo,,,1980,124,,435,Active,,,http://www.redfin.com/NY/Rego-Park/9229-Queens-Blvd-11374/unit-12C/home/20917334,MLSLI,3163680,N,Y,40.732614,-73.866897
MLS Listing,,Condo/Co-op,83-75 117 St Unit 4F,Kew Gardens,NY,11415,499000,2,2,Kew Condominium,,,2006,124,,299,Active,,,http://www.redfin.com/NY/Richmond-Hill/8375-117th-St-11418/unit-4F/home/20662989,MLSLI,3163523,N,Y,40.7046554,-73.8349541
MLS Listing,,Condo/Co-op,Unit at 251 E 32nd St,New York,NY,10016,499000,0,1,Murray Hill Kips Bay,,,,124,,,Active,,,http://www.redfin.com/NY/New-York/251-E-32nd-St-10016/home/108530712,REBNY,HALS19819517,N,Y,40.7437248,-73.9770521
MLS Listing,,Single Family Residential,111-36 139th St,Jamaica,NY,11435,499000,2,2,Queens,,2000,1925,126,,,Active,,,http://www.redfin.com/NY/Jamaica/111-36-139th-St-11435/home/20719116,MLSLI,3162902,N,Y,40.683996,-73.8049489
MLS Listing,,Condo/Co-op,Unit at 165 W 20th St,New York,NY,10011,495000,0,1,Chelsea,,,,127,,,Active,,,http://www.redfin.com/NY/New-York/165-W-20th-St-10011/home/114717314,REBNY,DEGI3946428,N,Y,40.7422218,-73.9964555
MLS Listing,,Single Family Residential,116 Grimsby St,Staten Island,NY,10306,498000,2,1,South Beach,923,4000,2017,130,540,,Active,,,http://www.redfin.com/NY/Staten-Island/116-Grimsby-St-10306/home/56133237,SIBORMLS,1132001,N,Y,40.5751715,-74.0927884
MLS Listing,,Condo/Co-op,Unit at 160 E 2nd St,New York,NY,10009,479000,1,1,East Village,,,,130,,,Active,,,http://www.redfin.com/NY/New-York/160-E-2nd-St-10009/home/144722591,REBNY,DEGI3941336,N,Y,40.722933,-73.985002
MLS Listing,,Condo/Co-op,Unit at 251 Pacific St,Brooklyn,NY,11201,485000,1,1,Boerum Hill,,,,130,,,Active,,,http://www.redfin.com/NY/Brooklyn/251-Pacific-St-11201/home/40646504,REBNY,CORC5879251,N,Y,40.6884801,-73.990459
MLS Listing,,Condo/Co-op,Unit at 651 New York Ave,Brooklyn,NY,11203,495000,1,1,Prospect-Lefferts G,,,,131,,,Active,,,http://www.redfin.com/NY/Brooklyn/651-New-York-Ave-11203/home/143610158,REBNY,UCOM1846791,N,Y,40.6582846,-73.9471419
MLS Listing,,Condo/Co-op,5-06 115 St Unit 506F,College Point,NY,11356,499000,2,2,Bay Park Estates,1000,,1988,131,499,414,Active,,,http://www.redfin.com/NY/Flushing/506-115th-St-11356/unit-506F/home/20868872,MLSLI,3161243,N,Y,40.7902959,-73.8530174
MLS Listing,,Single Family Residential,26 Ellington St,Staten Island,NY,10304,479000,2,3,Concord,896,30,1925,131,535,,Active,,,http://www.redfin.com/NY/Staten-Island/26-Ellington-St-10304/home/56136077,SIBORMLS,1131928,N,Y,40.6129435,-74.0860158
MLS Listing,,Condo/Co-op,Unit at 24 -51 38th St,Queens,NY,11103,489000,1,1,Astoria,,,,132,,,Active,,,http://www.redfin.com/NY/Long-Island-City/24-56-38th-St-11103/home/168873002,REBNY,CORC5857686,N,Y,40.7682962,-73.9127791
MLS Listing,,Condo/Co-op,Unit at 516 E 82nd St,New York,NY,10028,499000,2,1,Upper East Side,,,,134,,,Active,,,http://www.redfin.com/NY/New-York/516-E-82nd-St-10028/home/59313267,REBNY,DEGI3931092,N,Y,40.7727632,-73.9481402
MLS Listing,,Multi-Family (2-4 Unit),950 E 218th St,Bronx,NY,10469,485000,0,,Bronx,1615,1968,1950,136,300,,Active,,,http://www.redfin.com/NY/The-Bronx/950-E-218th-St-10469/home/44736052,HGMLS,5044378,N,Y,40.880265,-73.8558089
MLS Listing,,Single Family Residential,1458 William Pl,Bronx,NY,10461,485000,2,1.5,Bronx,717,2374,1920,136,676,,Active,,,http://www.redfin.com/NY/The-Bronx/1458-William-Pl-10461/home/44803953,HGMLS,4940179,N,Y,40.8400902,-73.8350947
MLS Listing,,Condo/Co-op,Unit at 10 Park Ave,New York,NY,10016,500000,0,1,Murray Hill Kips Bay,,,,136,,,Active,,,http://www.redfin.com/NY/New-York/10-Park-Ave-10016/home/45319127,REBNY,CCRI1845723,N,Y,40.7477195,-73.9813083
MLS Listing,,Condo/Co-op,Unit at 165 W 66th St,New York,NY,10023,489000,0,1,Upper West Side,,,,137,,,Active,,,http://www.redfin.com/NY/New-York/165-W-66th-St-10023/home/168635568,REBNY,HALS19834484,N,Y,40.7747589,-73.9836916
MLS Listing,,Single Family Residential,113-03 Rockaway Beach Blvd,Rockaway Park,NY,11694,500000,0,,Rockaway Park,4590,3400,1930,139,109,,Active,,,http://www.redfin.com/NY/Far-Rockaway/113-03-Rockaway-Beach-Blvd-11694/home/20669650,MLSLI,3159380,N,Y,40.580335,-73.834684
MLS Listing,,Single Family Residential,2785 Brown St,Brooklyn,NY,11235,499000,2,1,Brooklyn,608,1575,1920,140,821,,Active,,,http://www.redfin.com/NY/Brooklyn/2785-Brown-St-11235/home/40909417,BNYMLS,432772,N,Y,40.5854476,-73.9369119
MLS Listing,,Condo/Co-op,183 Beach 117th St #1,Rockaway Park,NY,11694,495000,2,2,183 Beach 117 St Condo,,,2003,143,,232,Active,,,http://www.redfin.com/NY/Far-Rockaway/183-Beach-117th-St-11694/unit-1/home/20666235,MLSLI,3158702,N,Y,40.5789268,-73.838057
MLS Listing,,Single Family Residential,400 Jersey St,Staten Island,NY,10301,499000,2,2,New Brighton,1216,1675,1930,143,410,,Active,,,http://www.redfin.com/NY/Staten-Island/400-Jersey-St-10301/home/168720586,SIBORMLS,1131709,N,Y,40.6385646,-74.0877136
MLS Listing,,Condo/Co-op,Unit at 61 Lexington Ave,New York,NY,10010,500000,0,1,Middle East Side,,,,144,,,Active,,,http://www.redfin.com/NY/New-York/61-Lexington-Ave-10010/home/168700930,REBNY,UCOM1844686,N,Y,40.7408555,-73.9835123
MLS Listing,,Condo/Co-op,Unit at 400 Lincoln Pl,Brooklyn,NY,11238,475000,1,1,Prospect Heights,,,,146,,,Active,,,http://www.redfin.com/NY/Brooklyn/400-Lincoln-Pl-11238/home/40649014,REBNY,HALS19822936,N,Y,40.672692,-73.9632133
MLS Listing,,Condo/Co-op,61-35 98 St Unit 4D,Rego Park,NY,11374,499999,2,1.5,Park City Estates,,,1960,146,,,Active,,,http://www.redfin.com/NY/Rego-Park/61-35-98th-St-11374/unit-4D/home/109704393,MLSLI,3157657,N,Y,40.7343029,-73.8591178
MLS Listing,,Condo/Co-op,Unit at 155 E 76th St,New York,NY,10021,499000,1,1,Upper East Side,,,,146,,,Active,,,http://www.redfin.com/NY/New-York/155-E-76th-St-10021/home/168689638,REBNY,CTRE1445408,N,Y,40.7728944,-73.9595726
MLS Listing,,Condo/Co-op,Unit at 444 E 75th St,New York,NY,10021,500000,1,1,Upper East Side,,,,146,,,Active,,,http://www.redfin.com/NY/New-York/444-E-75th-St-10021/home/45183155,REBNY,DEGI3917276,N,Y,40.7686692,-73.9527508
MLS Listing,,Condo/Co-op,268 Bay Ridge Ave Unit 3B,Brooklyn,NY,11220,475000,1,1,Brooklyn,591,,2017,147,804,,Active,,,http://www.redfin.com/NY/Unknown/268-Bay-Ridge-Ave-11220/unit-3B/home/145877430,BNYMLS,432646,N,Y,40.635788,-74.0267647
MLS Listing,,Condo/Co-op,224 22 St Unit 3B,Brooklyn,NY,11232,500000,2,1,Brooklyn,658,,1995,147,760,,Active,,,http://www.redfin.com/NY/Brooklyn/224-22nd-St-11232/unit-3B/home/40690022,BNYMLS,432460,N,Y,40.660901,-73.994646
MLS Listing,,Condo/Co-op,42-45 Kissena Blvd Unit 3N,Flushing,NY,11355,479000,2,1,The Newport,,,1956,150,,720,Active,,,http://www.redfin.com/NY/Flushing/42-45-Kissena-Blvd-11355/unit-3N/home/143111390,MLSLI,3156831,N,Y,40.7566154,-73.8254585
MLS Listing,,Condo/Co-op,152-72 Melbourne Ave Unit 5H,Flushing,NY,11367,499000,1,1,Fleur De Lis Condo,791,20732,1963,150,631,467,Active,,,http://www.redfin.com/NY/Flushing/15272-Melbourne-Ave-11367/unit-5H/home/20827517,MLSLI,3156785,N,Y,40.733522,-73.815324
MLS Listing,,Condo/Co-op,41-50 78 St #508,Elmhurst,NY,11373,479000,2,2,41-50 78 St Corp,,,1951,151,,,Active,,,http://www.redfin.com/NY/Unknown/41-50-78th-St-11373/unit-508/home/147820796,MLSLI,3156420,N,Y,40.744231,-73.8874467
MLS Listing,,Condo/Co-op,Unit at 188 E 75th St,New York,NY,10021,495000,1,1,Upper East Side,,,,151,,,Active,,,http://www.redfin.com/NY/New-York/188-E-75th-St-10021/home/56390834,REBNY,DEGI3901687,N,Y,40.7718652,-73.9599302
MLS Listing,,Condo/Co-op,Unit at 1390 Putnam Ave,Brooklyn,NY,11221,499000,1,1,Bushwick,,,,152,,,Active,,,http://www.redfin.com/NY/Brooklyn/1390-Putnam-Ave-11221/home/168660860,REBNY,UCOM1843334,N,Y,40.694719,-73.911884
MLS Listing,,Condo/Co-op,Unit at 321 E 48th St,New York,NY,10017,489000,0,1,Middle East Side,,,,153,,,Active,,,http://www.redfin.com/NY/New-York/321-E-48th-St-10017/home/45280843,REBNY,HALS19815202,N,Y,40.7533566,-73.9682737
MLS Listing,,Single Family Residential,1141 E 98 St,Brooklyn,NY,11236,499000,2,1.75,Brooklyn,1248,2000,1925,154,400,,Active,,,http://www.redfin.com/NY/Brooklyn/1141-E-98th-St-11236/home/40891759,BNYMLS,432408,N,Y,40.643811,-73.898923
MLS Listing,,Condo/Co-op,Unit at 170 W 74th St,New York,NY,10023,499000,1,1,Upper West Side,,,,158,,,Active,,,http://www.redfin.com/NY/New-York/170-W-74th-St-10023/home/45150258,REBNY,UCOM193074,N,Y,40.7794608,-73.979919
MLS Listing,,Condo/Co-op,Unit at 157 E 72nd St,New York,NY,10021,480000,0,1,Upper East Side,,,,158,,,Active,,,http://www.redfin.com/NY/New-York/157-E-72nd-St-10021/home/45284667,REBNY,DEGI3895420,N,Y,40.7702318,-73.9610161
MLS Listing,,Condo/Co-op,Unit at 5800 Arlington Ave,Bronx,NY,10471,490000,2,1,Riverdale,,,,158,,,Active,,,http://www.redfin.com/NY/Bronx/5800-Arlington-Ave-10471/home/148740061,REBNY,DEGI3905642,N,Y,40.9080135,-73.9055787
MLS Listing,,Single Family Residential,70 Whitney Ave,Floral Park,NY,11001,499000,2,1,Floral Park,1089,4000,1930,158,458,,Active,,,http://www.redfin.com/NY/Floral-Park/70-Whitney-Ave-11001/home/20554937,MLSLI,3154337,N,Y,40.731322,-73.7053181
MLS Listing,,Condo/Co-op,Unit at 337 E 50th St,New York,NY,10022,485000,1,1,Middle East Side,,,,159,,,Active,,,http://www.redfin.com/NY/New-York/337-E-50th-St-10022/home/168609680,REBNY,UCOM1842028,N,Y,40.7544323,-73.967008
MLS Listing,,Condo/Co-op,37-30 83rd St Unit 3B,Jackson Heights,NY,11372,484000,2,1,30,900,,1955,160,538,,Active,,,http://www.redfin.com/NY/Flushing/37-30-83rd-St-11372/unit-3B/home/20622538,MLSLI,3153815,N,Y,40.7487647,-73.8834851
MLS Listing,,Condo/Co-op,Unit at 160 E 26th St,New York,NY,10010,499000,1,1,Middle East Side,,,,160,,,Active,,,http://www.redfin.com/NY/New-York/160-E-26th-St-10010/home/45146185,REBNY,UCOM201811,N,Y,40.7407858,-73.9823415
MLS Listing,,Condo/Co-op,Unit at 85-10 34th Ave,Queens,NY,11372,499000,1,1,Jackson Heights,,,,162,,,Active,,,http://www.redfin.com/NY/Jackson-Heights/85-10-34th-Ave-11372/home/169907499,REBNY,BHSR19796950,N,Y,40.7538464,-73.8815062
MLS Listing,,Condo/Co-op,Unit at 150 W End Ave,New York,NY,10023,495000,0,1,Upper West Side,,,,166,,,Active,,,http://www.redfin.com/NY/New-York/150-W-End-Ave-10023/home/45150353,REBNY,NEXT50182,N,Y,40.7766541,-73.9861709
MLS Listing,,Condo/Co-op,Unit at 25 Tudor City Pl,New York,NY,10017,499000,1,1,Middle East Side,,,,167,,,Active,,,http://www.redfin.com/NY/New-York/25-Tudor-City-Pl-10017/home/45154073,REBNY,UCOM77854,N,Y,40.7484484,-73.9706936
MLS Listing,,Condo/Co-op,112-26 38 Ave Unit 3B,Corona,NY,11368,489000,2,2,Aftab Platinum,,,2011,168,,277,Active,,,http://www.redfin.com/NY/Flushing/112-26-38th-Ave-11368/unit-3B/home/40371623,MLSLI,3151485,N,Y,40.753593,-73.8543399
MLS Listing,,Condo/Co-op,Unit at 85 Livingston St,Brooklyn,NY,11201,479000,0,1,Downtown Brooklyn,,,,168,,,Active,,,http://www.redfin.com/NY/Brooklyn/85-Livingston-St-11201/home/40647509,REBNY,CORC5840429,N,Y,40.6915696,-73.9905785
MLS Listing,,Condo/Co-op,Unit at 920 E 17th St,Brooklyn,NY,11230,475000,2,1,Midwood,,,,172,,,Active,,,http://www.redfin.com/NY/Brooklyn/920-E-17th-St-11230/home/167923453,REBNY,UCOM1839308,N,Y,40.6286848,-73.9608229
MLS Listing,,Condo/Co-op,Unit at 520 E 76th St,New York,NY,10021,499000,1,1,Upper East Side,,,,173,,,Active,,,http://www.redfin.com/NY/New-York/520-E-76th-St-10021/home/167912547,REBNY,CORC5830570,N,Y,40.7687774,-73.9509347
MLS Listing,,Condo/Co-op,Unit at 441 Convent Ave,New York,NY,10031,495000,1,1,Hamilton Heights,,,,174,,,Active,,,http://www.redfin.com/NY/New-York/441-Convent-Ave-10031/home/167885442,REBNY,KWNY234638,N,Y,40.827174,-73.943746
MLS Listing,,Condo/Co-op,19-49 79 St #1,E. Elmhurst,NY,11370,489000,1,1,Garden Bay,,,,174,,,Active,,,http://www.redfin.com/NY/Flushing/1949-79th-St-11370/unit-1/home/20940545,MLSLI,3149818,N,Y,40.7717042,-73.8906991
MLS Listing,,Condo/Co-op,Unit at 350 E 77th St,New York,NY,10075,479000,0,1,Upper East Side,,,,174,,,Active,,,http://www.redfin.com/NY/New-York/350-E-77th-St-10075/home/45183529,REBNY,CUST1831680,N,Y,40.771122,-73.954409
MLS Listing,,Condo/Co-op,Unit at 155 E 49th St,New York,NY,10017,500000,1,1,Middle East Side,,,,175,,,Active,,,http://www.redfin.com/NY/New-York/155-E-49th-St-10017/home/115139510,REBNY,CORE1424583,N,Y,40.7556785,-73.9718399
MLS Listing,,Condo/Co-op,Unit at 514 E 82nd St,New York,NY,10028,499000,2,1,Upper East Side,,,,177,,,Active,,,http://www.redfin.com/NY/New-York/514-E-82nd-St-10028/home/143028372,REBNY,CORC5833012,N,Y,40.7727892,-73.9482321
MLS Listing,,Condo/Co-op,6550 Wetherole St Unit 1Z,Rego Park,NY,11374,477888,1,1,Wetherole Plaza Condo,920,,1963,179,519,374,Active,,,http://www.redfin.com/NY/Flushing/65-50-Wetherole-St-11374/unit-1Z/home/59307899,MLSLI,3148591,N,Y,40.7262081,-73.8587156
MLS Listing,,Condo/Co-op,90-11 35 Th Ave Unit 4I,Jackson Heights,NY,11372,498000,2,1,Co-Op,972,,1956,179,512,,Active,,,http://www.redfin.com/NY/Flushing/90-11-35th-Ave-11372/unit-4I/home/167614820,MLSLI,3148335,N,Y,40.7528037,-73.876822
MLS Listing,,Condo/Co-op,Unit at 342 E 53rd St,New York,NY,10022,499000,1,1,Middle East Side,,,,180,,,Active,,,http://www.redfin.com/NY/New-York/342-E-53rd-St-10022/home/166530490,REBNY,STRI1821776,N,Y,40.755811,-73.96552
MLS Listing,,Condo/Co-op,1543 W 1 St Unit C4,Brooklyn,NY,11204,488000,1,1,Brooklyn,912,,1932,185,535,,Active,,,http://www.redfin.com/NY/Brooklyn/1543-W-1st-St-11204/unit-C4/home/40660263,BNYMLS,431613,N,Y,40.6088324,-73.9747843
MLS Listing,,Condo/Co-op,152-18 Union Tpke Unit 209C,Flushing,NY,11367,499999,1,1,Village Mall,,,1973,186,,,Active,,,http://www.redfin.com/NY/Flushing/152-18-Union-Tpke-11367/unit-209C/home/20822032,MLSLI,3146260,N,Y,40.7187576,-73.8112931
MLS Listing,,Condo/Co-op,42-20 Kissena Blvd Unit D9,Flushing,NY,11355,498888,2,1,Yorkshire Garden,1153,,1926,189,433,494,Active,,,http://www.redfin.com/NY/Flushing/4220-Kissena-Blvd-11355/unit-D9/home/20854727,MLSLI,3144952,N,Y,40.7563855,-73.8266422
MLS Listing,,Condo/Co-op,201-02 Rocky Hill Rd Unit L2,Bayside,NY,11361,499888,2,1,Rocky Hill Condominiums,,,1949,200,,517,Active,,,http://www.redfin.com/NY/Queens/20102-Rocky-Hill-Rd-11361/unit-L2/home/167143091,MLSLI,3142413,N,Y,40.753395,-73.7780923
MLS Listing,,Condo/Co-op,Unit at 330 Third Ave,New York,NY,10010,500000,1,1,Gramercy Park,,,,206,,,Active,,,http://www.redfin.com/NY/New-York/330-3rd-Ave-10010/home/45202010,REBNY,HALS19701216,N,Y,40.739748,-73.9827778
MLS Listing,,Condo/Co-op,Unit at 565 W 169th St,New York,NY,10032,479000,1,1,Washington Heights,,,,207,,,Active,,,http://www.redfin.com/NY/New-York/565-W-169th-St-10032/home/167118003,REBNY,ACCS19700382,N,Y,40.8416202,-73.9389081
MLS Listing,,Condo/Co-op,Unit at 333 E 43rd St,New York,NY,10017,499000,1,1,Middle East Side,,,,209,,,Active,,,http://www.redfin.com/NY/New-York/333-E-43rd-St-10017/home/167108016,REBNY,CORC5761686,N,Y,40.7499746,-73.9698943
MLS Listing,,Condo/Co-op,Unit at 1020 Grand Concourse,Bronx,NY,10452,475000,2,2,Concourse,,,,217,,,Active,,,http://www.redfin.com/NY/Bronx/1020-Grand-Concourse-10452/home/167076274,REBNY,UCOM1828801,N,Y,40.8376318,-73.9212858
MLS Listing,,Condo/Co-op,Unit at 414 Elmwood Ave,Brooklyn,NY,11230,499950,2,2,Midwood,,,,217,,,Active,,,http://www.redfin.com/NY/Brooklyn/414-Elmwood-Ave-11230/home/108526673,REBNY,KWNY232415,N,Y,40.6272116,-73.9729292
MLS Listing,,Condo/Co-op,Unit at 123 E 88th St,New York,NY,10128,499000,1,1,Upper East Side,,,,217,,,Active,,,http://www.redfin.com/NY/New-York/123-E-88th-St-10128/home/45169447,REBNY,DEGI3817100,N,Y,40.7811609,-73.9549614
MLS Listing,,Townhouse,65 Mountainview Ave,Staten Island,NY,10314,480000,2,1,Castletn Corner,2160,4170,1928,222,222,,Active,,,http://www.redfin.com/NY/Staten-Island/65-Mountainview-Ave-10314/home/56058711,SIBORMLS,1129582,N,Y,40.6109959,-74.1264725
MLS Listing,,Townhouse,87-45 88th St,Woodhaven,NY,11421,499999,2,1,Woodhaven,1104,1314,1915,225,453,,Active,,,http://www.redfin.com/NY/Jamaica/87-45-88th-St-11421/home/20785219,MLSLI,3134307,N,Y,40.6914937,-73.8556987
MLS Listing,,Condo/Co-op,22-30 College Point Blvd Unit 2D,College Point,NY,11356,498000,1,1,22-30 College Point,,,2019,234,,360,Active,,,http://www.redfin.com/NY/College-Point/22-30-College-Point-Blvd-11356/unit-2D/home/166839911,MLSLI,3132057,N,Y,40.7792337,-73.8463035
MLS Listing,,Condo/Co-op,Unit at 3 Hanover Sq,New York,NY,10004,499000,0,1,Lower Manhattan,,,,234,,,Active,,,http://www.redfin.com/NY/New-York/3-Hanover-Sq-10005/home/45139725,REBNY,DEGI3792332,N,Y,40.7049944,-74.0096537
MLS Listing,,Condo/Co-op,Unit at 210 E 15th St,New York,NY,10003,489000,0,1,Gramercy Park,,,,234,,,Active,,,http://www.redfin.com/NY/New-York/210-E-15th-St-10003/home/53396658,REBNY,SOTH1405105,N,Y,40.73346,-73.986052
MLS Listing,,Condo/Co-op,Unit at 360 Cabrini Blvd,New York,NY,10040,490000,1,1,Washington Heights,,,,234,,,Active,,,http://www.redfin.com/NY/New-York/360-Cabrini-Blvd-10040/home/63690579,REBNY,CORC5743892,N,Y,40.85697,-73.9372221
MLS Listing,,Condo/Co-op,Unit at 300 E 71st St,New York,NY,10021,499900,0,1,Upper East Side,,,,234,,,Active,,,http://www.redfin.com/NY/New-York/300-E-71st-St-10021/home/151781829,REBNY,DEGI3796035,N,Y,40.7678083,-73.9585353
MLS Listing,,Condo/Co-op,Unit at 310 E 23rd St,New York,NY,10010,479500,0,1,Gramercy Park,,,,234,,,Active,,,http://www.redfin.com/NY/New-York/310-E-23rd-St-10010/home/115603390,REBNY,CORC5751586,N,Y,40.737408,-73.9804777
MLS Listing,,Condo/Co-op,150 Beach 123 St Unit 2L,Queens,NY,11694,495000,2,2,Queens,1325,,1982,236,374,,Active,,,http://www.redfin.com/NY/Rockaway-Park/150-Beach-123rd-St-11694/unit-2L/home/166808347,BNYMLS,430184,N,Y,40.576525,-73.8420442
MLS Listing,,Single Family Residential,11542 Inwood St,Jamaica,NY,11436,500000,2,2,Jamaica,1071,4000,1930,245,467,,Active,,,http://www.redfin.com/NY/Jamaica/115-42-Inwood-St-11436/home/20717081,MLSLI,3128312,N,Y,40.682087,-73.796925
MLS Listing,,Condo/Co-op,Unit at 257 W 86th St,New York,NY,10024,500000,1,1,Upper West Side,,,,246,,,Active,,,http://www.redfin.com/NY/New-York/257-W-86th-St-10024/home/45152335,REBNY,CORC5729319,N,Y,40.7887481,-73.9769917
MLS Listing,,Condo/Co-op,Unit at 111 Montgomery St,Brooklyn,NY,11215,499000,0,1,Crown Heights,,,,246,,,Active,,,http://www.redfin.com/NY/Brooklyn/111-Montgomery-St-11225/home/166458601,REBNY,UCOM1820824,N,Y,40.6665414,-73.9606286
MLS Listing,,Condo/Co-op,Unit at 9 E 97th St,New York,NY,10029,495000,1,1,Upper East Side,,,,246,,,Active,,,http://www.redfin.com/NY/New-York/9-E-97th-St-10029/home/45185868,REBNY,CORC5727198,N,Y,40.7883815,-73.9542821
MLS Listing,,Condo/Co-op,Unit at 5900 Arlington Ave,Bronx,NY,10471,495000,2,1,Riverdale,,,,262,,,Active,,,http://www.redfin.com/NY/The-Bronx/5900-Arlington-Ave-10471/home/143429779,REBNY,UCOM1777988,N,Y,40.9092281,-73.9056859
MLS Listing,,Condo/Co-op,Unit at 137 W 142nd St,New York,NY,10030,475000,2,1,Mt. Morris Park,,,,270,,,Active,,,http://www.redfin.com/NY/New-York/137-W-142nd-St-10030/home/162623490,REBNY,FOXW16628,N,Y,40.8192799,-73.9389442
MLS Listing,,Condo/Co-op,71-77 159th St Unit 3D,Fresh Meadows,NY,11365,499000,2,1,condo,,,2011,273,,275,Active,,,http://www.redfin.com/NY/Fresh-Meadows/71-77-159th-St-11365/unit-3D/home/59308149,MLSLI,3119566,N,Y,40.7281289,-73.8096366
MLS Listing,,Condo/Co-op,Unit at 165 E 72nd St,New York,NY,10021,495000,0,1,Upper East Side,,,,276,,,Active,,,http://www.redfin.com/NY/New-York/165-E-72nd-St-10021/home/161603115,REBNY,BHSR19547158,N,Y,40.7702538,-73.9607635
MLS Listing,,Condo/Co-op,Unit at 301 E 48th St,New York,NY,10017,499000,0,1,Middle East Side,,,,279,,,Active,,,http://www.redfin.com/NY/New-York/301-E-48th-St-10017/home/45154592,REBNY,DEGI3744937,N,Y,40.7536937,-73.969019
MLS Listing,,Single Family Residential,105-43 86th St,Ozone Park,NY,11417,495000,2,2,Ozone Park,,2500,1920,283,,,Active,,,http://www.redfin.com/NY/Jamaica/105-43-86th-St-11417/home/20777278,MLSLI,3116519,N,Y,40.678598,-73.8516719
MLS Listing,,Condo/Co-op,41-38 66 St Unit 5A,Woodside,NY,11377,498000,1,1,Burroughs Place Condomin,,,2008,283,,,Active,,,http://www.redfin.com/NY/Woodside/41-38-66th-St-11377/unit-5A/home/28685159,MLSLI,3116238,N,Y,40.7436792,-73.8983202
MLS Listing,,Condo/Co-op,Unit at 651 New York Ave,Brooklyn,NY,11203,499000,1,1,Prospect-Lefferts G,,,,291,,,Active,,,http://www.redfin.com/NY/Brooklyn/651-New-York-Ave-11203/home/143610168,REBNY,UCOM1779498,N,Y,40.6582846,-73.9471419
MLS Listing,,Condo/Co-op,Unit at 25 W 54th St,New York,NY,10019,499500,1,1,Middle West Side,,,,293,,,Active,,,http://www.redfin.com/NY/New-York/25-W-54th-St-10019/home/45334677,REBNY,CORC5707268,N,Y,40.7619264,-73.9769948
MLS Listing,,Condo/Co-op,Unit at 1919 Madison Ave,New York,NY,10035,499000,2,1,East Harlem,,,,293,,,Active,,,http://www.redfin.com/NY/New-York/1919-Madison-Ave-10035/home/160759516,REBNY,KWNY230308,N,Y,40.8045686,-73.9410797
MLS Listing,,Condo/Co-op,Unit at 105 Hudson St,New York,NY,10013,495000,0,1,Tribeca,,,,303,,,Active,,,http://www.redfin.com/NY/New-York/105-Hudson-St-10013/home/45338290,REBNY,DEGI3719138,N,Y,40.7193248,-74.0088679
MLS Listing,,Condo/Co-op,Unit at 305 W 150th St,New York,NY,10039,500000,1,1,Harlem,,,,303,,,Active,,,http://www.redfin.com/NY/New-York/305-W-150th-St-10039/home/108582059,REBNY,DEGI3719081,N,Y,40.8264858,-73.9401603
MLS Listing,,Condo/Co-op,Unit at 85 Livingston St,Brooklyn,NY,11201,498500,0,1,Brooklyn Heights,,,,304,,,Active,,,http://www.redfin.com/NY/Brooklyn/85-Livingston-St-11201/home/160697382,REBNY,UCOM1054297,N,Y,40.6915696,-73.9905785
MLS Listing,,Condo/Co-op,Unit at 25 E End Ave,New York,NY,10075,499000,1,1,Upper East Side,,,,305,,,Active,,,http://www.redfin.com/NY/New-York/25-E-End-Ave-10028/home/160685546,REBNY,ASHW745341,N,Y,40.7711688,-73.9471755
MLS Listing,,Condo/Co-op,Unit at 155 W 20th St,New York,NY,10011,500000,0,1,Chelsea,,,,305,,,Active,,,http://www.redfin.com/NY/New-York/155-W-20th-St-10011/home/45326401,REBNY,DEGI3712469,N,Y,40.7421198,-73.9962714
MLS Listing,,Condo/Co-op,Unit at 166 E 63rd St,New York,NY,10065,490000,0,1,Upper East Side,,,,307,,,Active,,,http://www.redfin.com/NY/New-York/166-E-63rd-St-10065/home/45284270,REBNY,DOMU1810475,N,Y,40.7640866,-73.9651703
MLS Listing,,Condo/Co-op,Unit at 631 E 18th St,Brooklyn,NY,11226,490900,1,1,Ditmas Park,,,,308,,,Active,,,http://www.redfin.com/NY/Brooklyn/631-E-18th-St-11226/home/160666659,REBNY,CORC5694833,N,Y,40.6357203,-73.9602516
MLS Listing,,Condo/Co-op,Unit at 50 W 106th St,New York,NY,10025,475000,1,1,Manhattan Valley,,,,313,,,Active,,,http://www.redfin.com/NY/New-York/50-W-106th-St-10025/home/160605661,REBNY,UCOM1809450,N,Y,40.7985989,-73.9618588
MLS Listing,,Condo/Co-op,Unit at 303 E 57th St,New York,NY,10022,495000,1,1.5,Middle East Side,,,,313,,,Active,,,http://www.redfin.com/NY/New-York/303-E-57th-St-10022/home/59312413,REBNY,HALS19477615,N,Y,40.7595774,-73.964779
MLS Listing,,Condo/Co-op,Unit at 240 E 35th St,New York,NY,10016,499000,1,1,Murray Hill Kips Bay,,,,315,,,Active,,,http://www.redfin.com/NY/New-York/240-E-35th-St-10016/home/160588326,REBNY,SOTH770962,N,Y,40.7456011,-73.9761675
MLS Listing,,Condo/Co-op,Unit at 4313 Ninth Ave,Brooklyn,NY,11232,495000,2,1,Sunset Park,,,,322,,,Active,,,http://www.redfin.com/NY/Brooklyn/4313-9th-Ave-11232/home/40679881,REBNY,CORC5676725,N,Y,40.643159,-73.997575
MLS Listing,,Condo/Co-op,Unit at 35 -50 78th St,Queens,NY,11372,499000,1,1,Jackson Heights,,,,329,,,Active,,,http://www.redfin.com/NY/Flushing/35-45-78th-St-11372/home/160490573,REBNY,UCOM1806198,N,Y,40.750096,-73.887856
MLS Listing,,Single Family Residential,94-17 132nd St,Richmond Hill,NY,11419,489000,2,1,Richmond Hill,,2017,1920,346,,,Active,,,http://www.redfin.com/NY/South-Richmond-Hill/94-17-132nd-St-11419/home/20773455,MLSLI,3097957,N,Y,40.6959839,-73.8166103
MLS Listing,,Condo/Co-op,175 W 73rd St Unit 5K,New York,NY,10023,499000,0,1,New York,550,,1924,362,907,,Active,,,http://www.redfin.com/NY/New-York/175-W-73rd-St-10023/unit-5K/home/148724948,HGMLS,4902301,N,Y,40.7792467,-73.9805735
MLS Listing,,Condo/Co-op,Unit at 237 E 54th St,New York,NY,10022,485000,0,1,Middle East Side,,,,367,,,Active,,,http://www.redfin.com/NY/New-York/237-E-54th-St-10022/home/45232511,REBNY,UCOM1626707,N,Y,40.7578049,-73.9670819
MLS Listing,,Condo/Co-op,Unit at 2790 Broadway,New York,NY,10025,485000,1,1,Manhattan Valley,,,,367,,,Active,,,http://www.redfin.com/NY/New-York/2790-Broadway-10025/home/148704351,REBNY,UCOM1796773,N,Y,40.8025988,-73.9673459
MLS Listing,,Condo/Co-op,Unit at 1 W 67th St,New York,NY,10023,499000,0,1,Upper West Side,,,,423,,,Active,,,http://www.redfin.com/NY/New-York/1-W-67th-St-10023/home/148130008,REBNY,UCOM1791901,N,Y,40.773502,-73.9789261
MLS Listing,,Condo/Co-op,333 E 43rd St #304,New York,NY,10017,489900,1,1,New York,600,,1928,447,817,,Active,,,http://www.redfin.com/NY/New-York/333-43rd-St-10017/unit-304/home/45180859,HGMLS,4849415,N,Y,40.7500244,-73.9702218
MLS Listing,,Vacant Land,3155 Morley Ave/3196 Richmond Rd,Staten Island,NY,10306,479000,0,,Richmond Town,,7200,,462,,,Active,,,http://www.redfin.com/NY/Staten-Island/3196-Morley-Ave-10306/home/148718214,SIBORMLS,1123273,N,Y,40.5750389,-74.1273478
MLS Listing,,Condo/Co-op,Unit at 465 Park Ave,New York,NY,10022,475000,1,1,Middle East Side,,,,479,,,Active,,,http://www.redfin.com/NY/New-York/465-Park-Ave-10022/home/144879962,REBNY,CORC5545096,N,Y,40.761657,-73.9702179
MLS Listing,,Condo/Co-op,Unit at 140 W 71st St,New York,NY,10024,500000,1,1,Upper West Side,,,,479,,,Active,,,http://www.redfin.com/NY/New-York/140-W-71st-St-10023/home/45199938,REBNY,KWNY221199,N,Y,40.7772096,-73.980845
MLS Listing,,Condo/Co-op,Unit at 920 E 17th St,Brooklyn,NY,11230,475000,2,1,Midwood,,,,522,,,Active,,,http://www.redfin.com/NY/Unknown/920-E-17th-St-11230/home/146523376,REBNY,UCOM1769178,N,Y,40.6286848,-73.9608229
MLS Listing,,Condo/Co-op,Unit at 166 E 61st St,New York,NY,10065,490000,0,1,Upper East Side,,,,563,,,Active,,,http://www.redfin.com/NY/New-York/166-E-61st-St-10065/home/144573866,REBNY,UCOM1719256,N,Y,40.7628367,-73.9663348
MLS Listing,,Condo/Co-op,Unit at 211 Thompson St,New York,NY,10012,475000,0,1,Greenwich Village,,,,635,,,Active,,,http://www.redfin.com/NY/New-York/211-Thompson-St-10012/home/45141743,REBNY,CORC5423614,N,Y,40.7289082,-73.9994851
MLS Listing,,Condo/Co-op,Unit at 50 West St,New York,NY,10006,500000,0,1,Financial District,,,,778,,,Active,,,http://www.redfin.com/NY/New-York/50-West-St-10006/home/170000634,REBNY,TQBR1716329,N,Y,40.7080103,-74.0149843
MLS Listing,,Condo/Co-op,Unit at 140 W End Ave,New York,NY,10023,499000,0,1,Upper West Side,,,,844,,,Active,,,http://www.redfin.com/NY/New-York/140-W-End-Ave-10023/home/45197713,REBNY,HALS17488849,N,Y,40.776076,-73.986482
MLS Listing,,Condo/Co-op,Unit at 165 W 66th St,New York,NY,10023,499000,0,1,Upper West Side,,,,903,,,Active,,,http://www.redfin.com/NY/New-York/165-W-66th-St-10023/home/45170154,REBNY,HALS17045657,N,Y,40.7747589,-73.9836916
MLS Listing,,Condo/Co-op,Unit at 166 W 76th St,New York,NY,10023,475000,1,1,Upper West Side,,,,950,,,Active,,,http://www.redfin.com/NY/New-York/166-W-76th-St-10023/home/45150282,REBNY,UCOM259364,N,Y,40.7807424,-73.9791003
MLS Listing,,Condo/Co-op,Unit at 870 Riverside Dr,New York,NY,10032,499000,2,1,Washington Heights,,,,950,,,Active,,,http://www.redfin.com/NY/New-York/870-Riverside-Dr-10032/home/113112562,REBNY,HALS14373354,N,Y,40.8368699,-73.9464985
For-Sale-by-Owner Listing,,Single Family Residential,984 Schenck Ave,Brooklyn,NY,11207,499000,2,2.5,Brooklyn,1066,,,54,468,,Active,,,http://www.redfin.com/NY/Brooklyn/984-Schenck-Ave-11207/home/40768709,FSBO.com,514231,N,Y,40.656295,-73.880667
For-Sale-by-Owner Listing,,Condo/Co-op,7620 Bay Pkwy,Brooklyn,NY,11214,499000,1,1,Brooklyn,643,10000,2009,102,776,,Active,,,http://www.redfin.com/NY/Brooklyn/7620-Bay-Pkwy-11214/home/40679025,Fizber.com,5034228,N,Y,40.6072399,-73.9886502
