SALE TYPE,SOLD DATE,PROPERTY TYPE,ADDRESS,CITY,STATE OR PROVINCE,ZIP OR POSTAL CODE,PRICE,BEDS,BATHS,LOCATION,SQUARE FEET,LOT SIZE,YEAR BUILT,DAYS ON MARKET,$/SQUARE FEET,HOA/MONTH,STATUS,NEXT OPEN HOUSE START TIME,NEXT OPEN HOUSE END TIME,URL (SEE http://www.redfin.com/buy-a-home/comparative-market-analysis FOR INFO ON PRICING),SOURCE,MLS#,FAVORITE,INTERESTED,LATITUDE,LONGITUDE
MLS Listing,,Single Family Residential,323 Garretson Ave,Staten Island,NY,10305,489000,2,2,South Beach,1120,1470,1990,1,437,,Active,,,http://www.redfin.com/NY/Staten-Island/323-Garretson-Ave-10305/home/56043936,SIBORMLS,1134818,N,Y,40.5869526,-74.0909334
MLS Listing,,Single Family Residential,82 Kenilworth Ave,Staten Island,NY,10312,494999,3,2,Annandale,1300,1297,2002,1,381,,Active,,,http://www.redfin.com/NY/Staten-Island/82-Kenilworth-Ave-10312/home/56089469,SIBORMLS,1134802,N,Y,40.563787,-74.183279
MLS Listing,,Condo/Co-op,66-10 Yellowstone Blvd Unit 1G,Forest Hills,NY,11375,478000,2,1,The Stratton,1020,,1950,2,469,,Active,,,http://www.redfin.com/NY/Flushing/66-10-Yellowstone-Blvd-11375/unit-1G/home/20643588,MLSLI,3191185,N,Y,40.7293226,-73.8501306
MLS Listing,,Single Family Residential,187-24 Tioga Dr,St. Albans,NY,11412,475000,3,1.5,St. Albans,,3000,1940,2,,,Active,,,http://www.redfin.com/NY/Jamaica/187-24-Tioga-Dr-11412/home/20754789,MLSLI,3191120,N,Y,40.694194,-73.765463
MLS Listing,,Single Family Residential,1586 Castleton Ave,Staten Island,NY,10302,490000,4,2,Port Richmond,1287,2500,1899,2,381,,Active,,,http://www.redfin.com/NY/Staten-Island/1586-Castleton-Ave-10302/home/56123213,SIBORMLS,1134791,N,Y,40.635844,-74.13589
MLS Listing,,Single Family Residential,3234 Corsa Ave,Bronx,NY,10469,490000,3,1.5,Bronx,1260,1800,1950,2,389,,Active,,,http://www.redfin.com/NY/The-Bronx/3234-Corsa-Ave-10469/home/44737782,BNYMLS,435865,N,Y,40.8736857,-73.8454193
MLS Listing,,Single Family Residential,130-56 221 St,Laurelton,NY,11413,489999,4,1.5,Laurelton,1110,4000,1945,2,441,,Active,January-18-2020 01:00 PM,January-18-2020 03:00 PM,http://www.redfin.com/NY/Jamaica/130-56-221st-St-11413/home/20700950,MLSLI,3191073,N,Y,40.682673,-73.746312
MLS Listing,,Condo/Co-op,144-58 Sanford Ave #52,Flushing,NY,11355,480000,2,1,Sanford Plaza,,,1955,3,,,Active,,,http://www.redfin.com/NY/Flushing/144-58-Sanford-Ave-11355/unit-52/home/170268314,MLSLI,3191009,N,Y,40.7589616,-73.8187137
MLS Listing,,Single Family Residential,97-14 134th St,Richmond Hill S.,NY,11419,485000,5,2,Richmond Hill S.,,2521,1920,3,,,Active,,,http://www.redfin.com/NY/Jamaica/97-14-134th-St-11419/home/20775411,MLSLI,3191007,N,Y,40.694163,-73.814303
MLS Listing,,Condo/Co-op,102-14 Lewis Ave Unit 5B,Corona,NY,11368,489000,2,1,Corona Plaza,645,,2004,3,758,239,Active,,,http://www.redfin.com/NY/Corona/102-14-Lewis-Ave-11368/unit-5B/home/20647576,MLSLI,3190908,N,Y,40.74095,-73.8581449
MLS Listing,,Townhouse,90-43 Silver Rd,Ozone Park,NY,11417,499000,2,1.5,Ozone Park,,2000,1950,3,,,Active,,,http://www.redfin.com/NY/Jamaica/90-43-Silver-Rd-11417/home/20728921,MLSLI,3190904,N,Y,40.67546,-73.8453
MLS Listing,,Single Family Residential,1294 Givan Ave,Bronx,NY,10469,499000,3,1.5,Bronx,1280,,1955,3,390,,Active,,,http://www.redfin.com/NY/The-Bronx/1294-Givan-Ave-10469/home/44780233,HGMLS,6003257,N,Y,40.8731225,-73.8495448
MLS Listing,,Condo/Co-op,Unit at 241 W 111th St,New York,NY,10026,499000,3,1,West Harlem,,,,4,,,Active,,,http://www.redfin.com/NY/New-York/241-W-111th-St-10026/home/170247538,REBNY,UCOM1865262,N,Y,40.8009517,-73.9564403
MLS Listing,,Single Family Residential,91-10 211th Pl,Queens Village,NY,11428,475000,3,1,Queens Village,,2673,1940,4,,,Active,,,http://www.redfin.com/NY/Queens-Village/91-10-211th-Pl-11428/home/20747431,MLSLI,3190721,N,Y,40.719049,-73.750727
MLS Listing,,Single Family Residential,111-63 178th Pl,Jamaica,NY,11433,475000,3,2,St. Albans,,4000,1940,4,,,Active,January-25-2020 01:00 PM,January-25-2020 03:00 PM,http://www.redfin.com/NY/Jamaica/111-63-178th-Pl-11433/home/20755069,MLSLI,3190695,N,Y,40.69692,-73.773126
MLS Listing,,Condo/Co-op,227 Surf Dr #138,Bronx,NY,10473,475000,3,2,Bronx,1311,,2007,4,362,494,Active,,,http://www.redfin.com/NY/The-Bronx/227-Surf-Dr-10473/unit-138/home/44805876,HGMLS,6003001,N,Y,40.8048454,-73.8516312
MLS Listing,,Single Family Residential,137-03 130th Ave,Jamaica,NY,11436,495000,3,1,Jamaica,,1640,1930,4,,,Active,,,http://www.redfin.com/NY/Jamaica/137-03-130th-Ave-11436/home/20715345,MLSLI,3190639,N,Y,40.671527,-73.80046
MLS Listing,,Condo/Co-op,139-76 35th Ave Unit 1A,Flushing,NY,11354,499000,2,1,Rb Condominium,700,12100,1987,4,713,,Active,,,http://www.redfin.com/NY/Unknown/139-76-35th-Ave-11354/unit-1A/home/100148331,MLSLI,3190522,N,Y,40.7654389,-73.8248595
MLS Listing,,Condo/Co-op,Unit at 125 28th Ave,Brooklyn,NY,11214,499888,2,1,Bath Beach,,,,4,,,Active,,,http://www.redfin.com/NY/Brooklyn/125-28th-Ave-11214/home/40643226,REBNY,DEGI4066044,N,Y,40.5877429,-73.986653
MLS Listing,,Single Family Residential,198 Elm St,Staten Island,NY,10310,479000,3,2,West Brighton,1500,4620,1925,5,319,,Active,,,http://www.redfin.com/NY/Staten-Island/198-Elm-St-10310/home/56013770,SIBORMLS,1134702,N,Y,40.6367878,-74.1138224
MLS Listing,,Townhouse,172-20 Victoria Dr,Jamaica,NY,11434,499000,2,2,Jamaica,946,2200,1940,5,527,,Active,,,http://www.redfin.com/NY/Jamaica/172-20-Victoria-Dr-11434/home/20703825,MLSLI,3190203,N,Y,40.6838695,-73.7728942
MLS Listing,,Condo/Co-op,126 Mermaid Ln,Bronx,NY,10473,495000,3,2,Bronx,1206,1306,2006,6,410,610,Active,,,http://www.redfin.com/NY/The-Bronx/126-Mermaid-Ln-10473/home/44804383,HGMLS,6002184,N,Y,40.806515,-73.853434
MLS Listing,,Multi-Family (2-4 Unit),35-12 109th St,Flushing,NY,11368,499999,5,2,Flushing,,2051,1925,6,,,Active,,,http://www.redfin.com/NY/Flushing/35-12-109th-St-11368/home/20924926,MLSLI,3189920,N,Y,40.755178,-73.859351
MLS Listing,,Single Family Residential,312 Hampton Grn,Staten Island,NY,10312,479900,3,2,Arden Heights,1112,1328,1975,6,432,63,Active,,,http://www.redfin.com/NY/Staten-Island/312-Hampton-Grn-10312/home/56125547,SIBORMLS,1134659,N,Y,40.5546239,-74.194414
MLS Listing,,Single Family Residential,215 Father Capodanno Blvd,Staten Island,NY,10305,499900,2,2,South Beach,800,3250,1915,6,625,,Active,,,http://www.redfin.com/NY/Staten-Island/215-Father-Capodanno-Blvd-10305/home/56138034,SIBORMLS,1134646,N,Y,40.5917693,-74.0654108
MLS Listing,,Single Family Residential,142-09 184th St,Springfield Gdns,NY,11413,475000,3,2,Springfield Gdns,,3500,1940,6,,,Active,,,http://www.redfin.com/NY/Jamaica/142-09-184th-St-11413/home/20695971,MLSLI,3189849,N,Y,40.669021,-73.759326
MLS Listing,,Single Family Residential,102-20 163rd Dr,Hamilton Beach,NY,11414,499999,3,1,Hamilton Beach,,2400,1950,6,,,Active,,,http://www.redfin.com/NY/Howard-Beach/102-20-163rd-Dr-11414/home/20680026,MLSLI,3189841,N,Y,40.652494,-73.828582
MLS Listing,,Single Family Residential,94-24 214th Pl,Queens Village,NY,11428,499900,3,1,Queens Village,1254,3300,1930,7,399,,Active,,,http://www.redfin.com/NY/Queens-Village/94-24-214th-Pl-11428/home/20748584,MLSLI,3189746,N,Y,40.717597,-73.743802
MLS Listing,,Single Family Residential,517 Thieriot Ave,Bronx,NY,10473,499000,4,2,Bronx,1260,2500,1920,7,396,,Active,,,http://www.redfin.com/NY/The-Bronx/517-Thieriot-Ave-10473/home/44605423,HGMLS,6001785,N,Y,40.81568,-73.8608928
MLS Listing,,Single Family Residential,4081 Murdock Ave,Bronx,NY,10466,499999,3,2,Bronx,1890,2600,1940,7,265,,Active,,,http://www.redfin.com/NY/The-Bronx/4081-Murdock-Ave-10466/home/44783796,HGMLS,6001771,N,Y,40.893028,-73.841162
MLS Listing,,Condo/Co-op,Unit at 320 E 42nd St,New York,NY,10017,500000,2,2,Murray Hill Kips Bay,,,,7,,,Active,,,http://www.redfin.com/NY/New-York/320-E-42nd-St-10017/home/148705051,REBNY,CORC5957576,N,Y,40.7492776,-73.9714601
MLS Listing,,Single Family Residential,125 Cortlandt St,Staten Island,NY,10302,499000,3,2,Port Richmond,988,4700,1961,7,505,,Active,,,http://www.redfin.com/NY/Staten-Island/125-Cortlandt-St-10302/home/92332718,SIBORMLS,1134432,N,Y,40.6285809,-74.1336992
MLS Listing,,Condo/Co-op,61-15 97th St Unit 7B,Rego Park,NY,11374,481000,2,1,Park Plaza,975,,1962,9,493,,Active,,,http://www.redfin.com/NY/Rego-Park/61-15-97th-St-11374/unit-7B/home/142633492,MLSLI,3189206,N,Y,40.7341131,-73.8619884
MLS Listing,,Condo/Co-op,Unit at 1919 Madison Ave,New York,NY,10035,485000,2,1,Mt. Morris Park,,,,9,,,Active,,,http://www.redfin.com/NY/New-York/1919-Madison-Ave-10035/home/170210779,REBNY,UCOM1864311,N,Y,40.8045686,-73.9410797
MLS Listing,,Single Family Residential,3132 Grace Ave,Bronx,NY,10469,499000,3,2,Bronx,1890,2888,1960,10,264,,Active,,,http://www.redfin.com/NY/The-Bronx/3132-Grace-Ave-10469/home/44738271,HGMLS,6000840,N,Y,40.8744388,-73.8368407
MLS Listing,,Single Family Residential,235 Signs Rd Unit E,Staten Island,NY,10314,479000,3,3,Bulls Head,1890,2320,1983,10,253,308,Active,,,http://www.redfin.com/NY/Staten-Island/235B-Signs-Rd-10314/unit-E/home/56093228,SIBORMLS,1134562,N,Y,40.6032504,-74.1707311
MLS Listing,,Townhouse,11329 204th St,St. Albans,NY,11412,499000,3,2,St. Albans,,2000,1935,11,,,Active,,,http://www.redfin.com/NY/Jamaica/113-29-204th-St-11412/home/20739489,MLSLI,3188843,N,Y,40.701482,-73.751062
MLS Listing,,Single Family Residential,140-15 182nd St,Jamaica,NY,11413,495000,2,2.5,Queens County (36081),1600,,1950,11,309,,Active,,,http://www.redfin.com/NY/Jamaica/140-15-182nd-St-11413/home/20693413,Global MLS,202010118,N,Y,40.6715469,-73.761626
MLS Listing,,Multi-Family (2-4 Unit),28 Cowen Pl,Staten  Island,NY,10303,495000,3,3.5,Staten  Island,1344,2349,2003,11,368,,Active,,,http://www.redfin.com/NY/Staten-Island/28-Cowen-Pl-10303/home/56097445,BNYMLS,435614,N,Y,40.637011,-74.16451
MLS Listing,,Multi-Family (2-4 Unit),339 S 6th Ave,Mount Vernon,NY,10550,499000,6,2,Mount Vernon,2375,2683,1905,12,210,,Active,,,http://www.redfin.com/NY/Mt-Vernon/339-S-6th-Ave-10550/home/20000410,HGMLS,5130456,N,Y,40.9025619,-73.8353589
MLS Listing,,Condo/Co-op,103-16 Corona Ave Unit 3C,Corona,NY,11368,485000,2,1,103-16 Condo,,,2019,14,,266,Active,,,http://www.redfin.com/NY/Corona/103-16-Corona-Ave-11368/unit-3C/home/169558667,MLSLI,3188189,N,Y,40.7438778,-73.8592382
MLS Listing,,Condo/Co-op,Unit at 130 Lenox Ave,New York,NY,10026,499000,2,1,West Harlem,,,,14,,,Active,,,http://www.redfin.com/NY/New-York/130-Malcolm-X-Blvd-10026/home/45198180,REBNY,UCOM418061,N,Y,40.8021763,-73.9490789
MLS Listing,,Condo/Co-op,103-16 Corona Ave Unit 2B,Corona,NY,11368,485000,2,1,103-16 Condo,,,2019,14,,266,Active,,,http://www.redfin.com/NY/Corona/103-16-Corona-Ave-11368/unit-2B/home/169558354,MLSLI,3188142,N,Y,40.7438778,-73.8592382
MLS Listing,,Single Family Residential,188 Holden Blvd,Staten Island,NY,10314,499900,3,1,Manor Heights,2434,4185,1955,14,205,,Active,,,http://www.redfin.com/NY/Staten-Island/188-Holden-Blvd-10314/home/56050533,SIBORMLS,1134493,N,Y,40.6039533,-74.1275516
MLS Listing,,Condo/Co-op,Unit at 440 Neptune Ave,Brooklyn,NY,11224,499000,2,1,Coney Island,,,,14,,,Active,,,http://www.redfin.com/NY/Brooklyn/440-Neptune-Ave-11224/home/40667067,REBNY,UCOM1863850,N,Y,40.5798024,-73.9699473
MLS Listing,,Single Family Residential,516 W Caswell Ave,Staten Island,NY,10314,499000,2,2,Graniteville,1232,6745,1930,14,405,,Active,,,http://www.redfin.com/NY/Staten-Island/516-W-Caswell-Ave-10314/home/56051896,SIBORMLS,1134480,N,Y,40.6158626,-74.1539297
MLS Listing,,Condo/Co-op,3843 Amboy Rd Unit 2a,Staten Island,NY,10308,499000,2,2,Great Kills,1123,1123,2015,17,444,287,Active,,,http://www.redfin.com/NY/Staten-Island/3843-Amboy-Rd-10308/unit-2A/home/108561240,SIBORMLS,1134466,N,Y,40.5517333,-74.1464983
MLS Listing,,Single Family Residential,313 Hillside Ave,Staten Island,NY,10304,475000,4,2,Park Hill,1408,2500,1910,18,337,,Active,,,http://www.redfin.com/NY/Staten-Island/313-Hillside-Ave-10304/home/56103629,SIBORMLS,1134453,N,Y,40.6159026,-74.0867614
MLS Listing,,Condo/Co-op,43-10 48th Ave Unit 7F,Woodside,NY,11377,499999,2,1,Celtic Park Gardens,,,1931,21,,,Active,,,http://www.redfin.com/NY/Woodside/43-10-48th-Ave-11377/unit-7F/home/40510496,MLSLI,3187519,N,Y,40.7393738,-73.9215119
MLS Listing,,Condo/Co-op,33-21 82nd St #42,Jackson Heights,NY,11372,489888,2,1,Garden Heights,,,1950,21,,,Active,,,http://www.redfin.com/NY/Flushing/33-21-82nd-St-11372/unit-42/home/169087536,MLSLI,3187495,N,Y,40.754896,-73.884944
MLS Listing,,Condo/Co-op,16-40 Seagirt Blvd,Far Rockaway,NY,11691,479000,3,1.5,Ocean Terrace,,69807,1967,23,,,Active,,,http://www.redfin.com/NY/Far-Rockaway/1640-Seagirt-Blvd-11691/home/20677647,MLSLI,3187325,N,Y,40.5956381,-73.7507349
MLS Listing,,Single Family Residential,217-08 110th Rd,Queens Village,NY,11429,499000,4,2.5,Queens Village,,2500,1920,23,,,Active,,,http://www.redfin.com/NY/Jamaica/217-08-110th-Rd-11429/home/20731968,MLSLI,3187311,N,Y,40.707335,-73.739924
MLS Listing,,Townhouse,91-10 91 Ave,Woodhaven,NY,11421,499999,3,2,Woodhaven,1152,1280,1915,23,434,,Active,,,http://www.redfin.com/NY/Jamaica/91-10-91st-Ave-11421/home/20787502,MLSLI,3187288,N,Y,40.689093,-73.851848
MLS Listing,,Single Family Residential,119-30 171st St,Jamaica,NY,11434,479900,3,1,Jamaica,,2200,1945,24,,,Active,,,http://www.redfin.com/NY/Jamaica/119-30-171st-St-11434/home/20703310,MLSLI,3187190,N,Y,40.683425,-73.774619
MLS Listing,,Single Family Residential,7 Ludwig Ln Unit C,Staten Island,NY,10303,489900,3,3,Graniteville,1350,2000,2000,24,363,16,Active,,,http://www.redfin.com/NY/Staten-Island/7-Ludwig-Ln-10303/unit-C/home/56021522,SIBORMLS,1134413,N,Y,40.622229,-74.158026
MLS Listing,,Multi-Family (2-4 Unit),89-12 182nd Pl,Jamaica,NY,11423,499000,4,2,Jamaica,,2150,1920,25,,,Active,,,http://www.redfin.com/NY/Jamaica/89-12-182nd-Pl-11423/home/20765446,MLSLI,3187123,N,Y,40.7118139,-73.779421
MLS Listing,,Single Family Residential,14 Lansing St,Staten Island,NY,10305,488000,3,2,South Beach,1576,2400,1920,25,310,,Active,,,http://www.redfin.com/NY/Staten-Island/14-Lansing-St-10305/home/56126544,SIBORMLS,1134397,N,Y,40.592363,-74.0691396
MLS Listing,,Condo/Co-op,220-55 46th Ave Unit 15G,Bayside,NY,11361,478000,2,1,Lakeside Towers,,,1961,25,,,Active,,,http://www.redfin.com/NY/Bayside/22055-46th-Ave-11361/unit-15G/home/20641316,MLSLI,3187078,N,Y,40.760819,-73.759222
MLS Listing,,Single Family Residential,30 Zachary Ct,Staten Island,NY,10310,475000,3,2,Westerleigh,1600,1140,1989,25,297,45,Active,,,http://www.redfin.com/NY/Staten-Island/30-Zachary-Ct-10310/home/56104859,SIBORMLS,1134388,N,Y,40.625321,-74.13084
MLS Listing,,Townhouse,984 Schenck Ave Unit East New York,Brooklyn,NY,11207,499000,2,2.5,Brooklyn,,1573,1960,26,,,Active,,,http://www.redfin.com/NY/Brooklyn/984-Schenck-Ave-11207/unit-East-New-York/home/169941793,MLSLI,3186958,N,Y,40.656295,-73.880667
MLS Listing,,Condo/Co-op,2811 E 26 St Unit 3D,Brooklyn,NY,11235,489000,2,1,Brooklyn,783,,1986,27,625,,Active,,,http://www.redfin.com/NY/Brooklyn/2811-E-26th-St-11235/unit-3D/home/170123518,BNYMLS,435423,N,Y,40.5844891,-73.9425953
MLS Listing,,Condo/Co-op,94-56 Magnolia Ct Unit 3B,Ozone Park,NY,11417,489900,2,2,Centreville,1730,,2003,27,283,643,Active,,,http://www.redfin.com/NY/Ozone-Park/94-56-Magnolia-Ct-11417/unit-3B/home/20665819,MLSLI,3186719,N,Y,40.6699451,-73.8415921
MLS Listing,,Townhouse,102-46 187 St,Hollis,NY,11423,479000,3,2,Hollis,1320,2740,1940,28,363,,Active,,,http://www.redfin.com/NY/Jamaica/102-46-187th-St-11423/home/20751249,MLSLI,3186512,N,Y,40.7066106,-73.7704413
MLS Listing,,Single Family Residential,227-32 113th Ave,Queens Village,NY,11429,499000,2,2,Queens Village,750,4000,1940,28,665,,Active,,,http://www.redfin.com/NY/Queens-Village/227-32-113th-Ave-11429/home/20732358,MLSLI,3186455,N,Y,40.703563,-73.7290639
MLS Listing,,Single Family Residential,58 Collfield Ave,Staten Island,NY,10302,475000,2,1,Westerleigh,840,4100,1950,28,565,,Active,,,http://www.redfin.com/NY/Staten-Island/58-Collfield-Ave-10302/home/56065088,SIBORMLS,1134339,N,Y,40.6206379,-74.1429316
MLS Listing,,Multi-Family (2-4 Unit),843 Logan Ave,Bronx,NY,10465,500000,3,2.5,Bronx,1444,3741,1930,31,346,,Active,,,http://www.redfin.com/NY/The-Bronx/843-Logan-Ave-10465/home/44789043,HGMLS,5126643,N,Y,40.829794,-73.822772
MLS Listing,,Single Family Residential,90 Wilcox St,Staten Island,NY,10303,489000,3,3,Graniteville,1472,2525,1978,31,332,,Active,,,http://www.redfin.com/NY/Staten-Island/90-Wilcox-St-10303/home/56104616,SIBORMLS,1134332,N,Y,40.6238958,-74.1523586
MLS Listing,,Single Family Residential,5409 Avenue L,Brooklyn,NY,11234,500000,3,1.5,Brooklyn,1024,1800,1915,31,488,,Active,,,http://www.redfin.com/NY/Brooklyn/5409-Avenue-L-11234/home/40879951,BNYMLS,435342,N,Y,40.624037,-73.923095
MLS Listing,,Condo/Co-op,168-01 12th Ave Unit 7D,Beechhurst,NY,11357,475000,2,1,Le Havre,,,1953,32,,,Active,,,http://www.redfin.com/NY/Flushing/168-01-12th-Ave-11357/unit-7D/home/20654779,MLSLI,3185920,N,Y,40.791918,-73.79592
MLS Listing,,Townhouse,5 Harden St,Brooklyn,NY,11234,499900,3,1,Flatlands,1683,1188,1940,32,297,,Active,,,http://www.redfin.com/NY/Brooklyn/5-Harden-St-11234/home/40879456,MLSLI,3185892,N,Y,40.6225033,-73.9345908
MLS Listing,,Single Family Residential,1281 E 223rd St,Bronx,NY,10466,480000,4,2.5,Bronx,960,1254,1955,32,500,,Active,,,http://www.redfin.com/NY/The-Bronx/1281-E-223rd-St-10466/home/44782050,HGMLS,5126325,N,Y,40.880739,-73.844571
MLS Listing,,Single Family Residential,91-20 86th St,Woodhaven,NY,11421,495000,3,1,Woodhaven,,1800,1930,32,,,Active,,,http://www.redfin.com/NY/Jamaica/91-20-86th-St-11421/home/20783190,MLSLI,3185870,N,Y,40.687348,-73.856533
MLS Listing,,Single Family Residential,1201 Cross Bay Blvd,Broad Channel,NY,11693,499999,2,2,Broad Channel,,100,1920,33,,,Active,,,http://www.redfin.com/NY/Far-Rockaway/12-01-Cross-Bay-Blvd-11693/home/20679676,MLSLI,3185640,N,Y,40.604371,-73.820216
MLS Listing,,Single Family Residential,93 Greenleaf Ave,Staten Island,NY,10310,475000,4,1,West Brighton,1008,4218,1955,33,471,,Active,,,http://www.redfin.com/NY/Staten-Island/93-Greenleaf-Ave-10310/home/56136006,SIBORMLS,1134285,N,Y,40.6286121,-74.126829
MLS Listing,,Single Family Residential,71 Mosel Ave,Staten Island,NY,10304,499000,3,3,Concord,1050,1200,2004,33,475,32,Active,,,http://www.redfin.com/NY/Staten-Island/71-Mosel-Ave-10304/home/56101789,SIBORMLS,1134283,N,Y,40.612376,-74.07781
MLS Listing,,Condo/Co-op,2546 Stillwell Ave #3,Brooklyn,NY,11223,499000,2,1,Brooklyn,1000,,2005,35,499,,Active,,,http://www.redfin.com/NY/Brooklyn/2546-Stillwell-Ave-11223/unit-3/home/170044084,BNYMLS,435266,N,Y,40.5857519,-73.9835309
MLS Listing,,Single Family Residential,2762 Hone Ave,Bronx,NY,10469,499000,3,2,Bronx,610,2500,1925,35,818,,Active,,,http://www.redfin.com/NY/The-Bronx/2762-Hone-Ave-10469/home/44779653,HGMLS,5125605,N,Y,40.8673018,-73.8574241
MLS Listing,,Condo/Co-op,Unit at 35 -30 82nd St,Queens,NY,11372,479000,2,1,Jackson Heights,,,,35,,,Active,,,http://www.redfin.com/NY/Flushing/35-30-82nd-St-11372/home/170038992,REBNY,SEEK1862036,N,Y,40.750805,-73.884783
MLS Listing,,Single Family Residential,14 Goller Pl,Staten  Island,NY,10314,499000,3,1.5,Staten  Island,1380,3488,1980,35,362,,Active,,,http://www.redfin.com/NY/Staten-Island/14-Goller-Pl-10314/home/56113263,BNYMLS,435255,N,Y,40.6072295,-74.1596521
MLS Listing,,Condo/Co-op,920 E 17 St Unit II5,Brooklyn,NY,11230,475000,2,,Brooklyn,1050,,,35,452,,Active,,,http://www.redfin.com/NY/Brooklyn/920-E-17th-St-11230/unit-II5/home/170021215,BNYMLS,435253,N,Y,40.6286901,-73.9606944
MLS Listing,,Townhouse,95 Ann St,Staten Island,NY,10302,499999,3,1,Port Richmond,2092,2923,1915,36,239,,Active,,,http://www.redfin.com/NY/Staten-Island/95-Ann-St-10302/home/56100116,SIBORMLS,1134234,N,Y,40.638841,-74.131995
MLS Listing,,Multi-Family (2-4 Unit),131-44 Mathewson Ct,Jamaica,NY,11434,485000,3,1.5,Jamaica,,4867,1920,38,,,Active,,,http://www.redfin.com/NY/Jamaica/131-44-Mathewson-Ct-11434/home/20696191,MLSLI,3184778,N,Y,40.678069,-73.760516
MLS Listing,,Townhouse,112-18 Colfax St,Queens Village,NY,11429,499000,3,2,Queens Village,,1672,1955,38,,,Active,,,http://www.redfin.com/NY/Jamaica/112-18-Colfax-St-11429/home/20740697,MLSLI,3184666,N,Y,40.704598,-73.746357
MLS Listing,,Condo/Co-op,222 Surf Dr #411,Bronx,NY,10473,495000,3,2,Bronx,1206,,2008,38,410,260,Active,,,http://www.redfin.com/NY/The-Bronx/222-Surf-Dr-10473/unit-411/home/44771521,HGMLS,5124496,N,Y,40.8056718,-73.8505883
MLS Listing,,Single Family Residential,4420 Bruner Ave,Bronx,NY,10466,499000,3,2,Bronx,1156,2435,1920,39,432,,Active,,,http://www.redfin.com/NY/The-Bronx/4420-Bruner-Ave-10466/home/44762156,HGMLS,5124675,N,Y,40.8991778,-73.8496303
MLS Listing,,Townhouse,69-14 Almeda Ave,Arverne,NY,11692,499000,4,3,Far Rockaway,,2000,1946,39,,,Active,,,http://www.redfin.com/NY/Far-Rockaway/69-14-Almeda-Ave-11692/home/20669939,MLSLI,3184558,N,Y,40.597031,-73.799207
MLS Listing,,Single Family Residential,115-10 123rd St,S. Ozone Park,NY,11420,495000,2,2,S. Ozone Park,,1700,1915,39,,,Active,,,http://www.redfin.com/NY/Jamaica/115-10-123rd-St-11420/home/20720510,MLSLI,3184525,N,Y,40.677526,-73.816169
MLS Listing,,Condo/Co-op,22-30 College Point Blvd Unit 2F,College Point,NY,11356,499000,2,1,22-30 College Point,,,2019,40,,314,Active,,,http://www.redfin.com/NY/College-Point/22-30-College-Point-Blvd-11356/unit-2F/home/162606101,MLSLI,3184287,N,Y,40.7792337,-73.8463035
MLS Listing,,Single Family Residential,231 Betts Ave,Bronx,NY,10473,487000,3,3,Bronx,1455,3301,1901,40,335,,Active,,,http://www.redfin.com/NY/The-Bronx/231-Betts-Ave-10473/home/44719089,HGMLS,5124290,N,Y,40.8111301,-73.8506576
MLS Listing,,Multi-Family (2-4 Unit),1208 Olmstead Ave,BRONX,NY,10462,499999,4,2,BRONX,,2275,1920,40,,,Active,,,http://www.redfin.com/NY/The-Bronx/1208-Olmstead-Ave-10462/home/44724187,MLSLI,3184146,N,Y,40.83188,-73.8539342
MLS Listing,,Townhouse,110-16 172nd St,Jamaica,NY,11433,499000,3,1,Jamaica,,1440,,41,,,Active,,,http://www.redfin.com/NY/Jamaica/110-16-172nd-St-11433/home/20753168,MLSLI,3184030,N,Y,40.695952,-73.781421
MLS Listing,,Single Family Residential,7a Carlyle Grn,Staten Island,NY,10312,499000,3,2,Arden Heights,1408,1280,1987,41,354,,Active,,,http://www.redfin.com/NY/Staten-Island/7A-Carlyle-Grn-10312/home/170001188,SIBORMLS,1134131,N,Y,40.5569429,-74.198928
MLS Listing,,Single Family Residential,53 Eton Pl,Staten Island,NY,10314,499000,3,1,Bulls Head,1472,2264,1980,41,339,,Active,,,http://www.redfin.com/NY/Staten-Island/53-Eton-Pl-10314/home/56080162,SIBORMLS,1134128,N,Y,40.6046333,-74.1613985
MLS Listing,,Condo/Co-op,Unit at 1615 Ave I,Brooklyn,NY,11230,499000,2,1,Midwood,,,,42,,,Active,,,http://www.redfin.com/NY/Brooklyn/1615-Avenue-I-11230/home/130596177,REBNY,UCOM1670657,N,Y,40.6281935,-73.960305
MLS Listing,,Single Family Residential,72 Millstone Ct,Staten Island,NY,10314,495000,3,3,Heartland Village,1350,1666,2000,42,367,33,Active,,,http://www.redfin.com/NY/Staten-Island/72-Millstone-Ct-10314/home/56057265,SIBORMLS,1134110,N,Y,40.5751472,-74.16433
MLS Listing,,Single Family Residential,63 Mimosa Ln,Staten Island,NY,10312,499000,3,3,Huguenot,1690,1620,1980,42,295,17,Active,,,http://www.redfin.com/NY/Staten-Island/63-Mimosa-Ln-10312/home/56136821,SIBORMLS,1134108,N,Y,40.552033,-74.199463
MLS Listing,,Single Family Residential,20 Peggy Ln,Staten Island,NY,10306,475000,2,2,Midland Beach,1480,1050,1989,42,321,70,Active,,,http://www.redfin.com/NY/Staten-Island/20-Peggy-Ln-10306/home/56106208,SIBORMLS,1134105,N,Y,40.5721269,-74.0899162
MLS Listing,,Single Family Residential,20 Croft Ct,Staten Island,NY,10306,488000,3,3,Richmond Town,1308,688,1988,42,373,,Active,,,http://www.redfin.com/NY/Staten-Island/20-Croft-Ct-10306/home/56105825,SIBORMLS,1134103,N,Y,40.562327,-74.140111
MLS Listing,,Single Family Residential,89-30 Moline St,Queens Village,NY,11428,498000,2,1,Bellerose Manor,1414,1600,1940,43,352,,Active,,,http://www.redfin.com/NY/Jamaica/89-30-Moline-St-11428/home/20805324,MLSLI,3183530,N,Y,40.7286659,-73.733609
MLS Listing,,Condo/Co-op,35-45 82 St #22,Jackson Heights,NY,11372,499000,2,1,Willow Court,950,,1906,44,525,,Active,,,http://www.redfin.com/NY/Flushing/35-45-82nd-St-11372/unit-22/home/170120385,MLSLI,3183432,N,Y,40.7505499,-73.884155
MLS Listing,,Condo/Co-op,6345 Saunders St Unit 6B,Rego Park,NY,11374,499999,2,2,The Essex,1250,,1956,48,400,,Active,,,http://www.redfin.com/NY/Flushing/63-45-Saunders-St-11374/unit-6B/home/169963072,MLSLI,3183001,N,Y,40.7297629,-73.863454
MLS Listing,,Single Family Residential,28 Lockman Ave,Staten  Island,NY,10303,488000,4,2.5,Staten  Island,1768,3650,1915,48,276,,Active,,,http://www.redfin.com/NY/Staten-Island/28-Lockman-Ave-10303/home/56051825,BNYMLS,435016,N,Y,40.6368675,-74.1615901
MLS Listing,,Condo/Co-op,2628 E 26 St Unit 3C,Brooklyn,NY,11235,499000,2,1,Brooklyn,783,,1988,48,637,,Active,,,http://www.redfin.com/NY/Brooklyn/2628-E-26th-St-11235/unit-3C/home/169949539,BNYMLS,434951,N,Y,40.5882284,-73.9436304
MLS Listing,,Single Family Residential,188-17 Williamson Ave,Springfield Gdns,NY,11413,499000,3,1,Springfield Gdns,1400,2883,1925,49,356,,Active,,,http://www.redfin.com/NY/Jamaica/188-17-Williamson-Ave-11413/home/20703090,MLSLI,3182633,N,Y,40.68233,-73.755483
MLS Listing,,Multi-Family (2-4 Unit),42 Curtis Pl,State Island,NY,10301,498000,4,2,State Island,1612,2500,1915,50,309,,Active,,,http://www.redfin.com/NY/Staten-Island/42-Curtis-Pl-10301/home/56028943,BNYMLS,434959,N,Y,40.6440284,-74.0840081
MLS Listing,,Condo/Co-op,56-05 31st Ave Unit 2N,Woodside,NY,11377,475000,2,1,Boulevard Gardens,,,1936,50,,,Active,,,http://www.redfin.com/NY/Woodside/56-05-31st-Ave-11377/unit-2N/home/20645877,MLSLI,3182580,N,Y,40.7574899,-73.9049399
MLS Listing,,Single Family Residential,229 Abingdon Ave,Staten Island,NY,10308,499000,3,2,Great Kills,1140,2500,1965,53,438,,Active,,,http://www.redfin.com/NY/Staten-Island/229-Abingdon-Ave-10308/home/56031845,SIBORMLS,1133969,N,Y,40.555225,-74.15788
MLS Listing,,Condo/Co-op,219 Beach 90th St Unit 3B,Rockaway Beach,NY,11693,479000,3,3,219 Beach 90th Street Co,1420,,2007,53,337,340,Active,,,http://www.redfin.com/NY/Rockaway-Beach/2-19-Beach-90th-St-11693/unit-00003B/home/23141286,MLSLI,3182094,N,Y,40.587504,-73.814468
MLS Listing,,Single Family Residential,179 Sandalwood Dr,Staten Island,NY,10308,499000,3,2,Great Kills,1350,2000,1986,53,370,,Active,,,http://www.redfin.com/NY/Staten-Island/179-Sandalwood-Dr-10308/home/56054279,SIBORMLS,1133960,N,Y,40.5604173,-74.1448751
MLS Listing,,Single Family Residential,25 Geo Ct,Staten Island,NY,10304,499000,3,2,Rosebank,1180,1260,2005,54,423,32,Active,,,http://www.redfin.com/NY/Staten-Island/25-Geo-Ct-10304/home/56107781,SIBORMLS,1133923,N,Y,40.613242,-74.07727
MLS Listing,,Townhouse,114-29 204 Th St,St. Albans,NY,11412,479995,3,2,St. Albans,,2200,1950,55,,,Active,,,http://www.redfin.com/NY/Jamaica/114-29-204th-St-11412/home/20739694,MLSLI,3181625,N,Y,40.700011,-73.750396
MLS Listing,,Condo/Co-op,61-20 Grand Central Park #14,Forest Hills,NY,11375,490000,3,1,Co-Op,1300,,1960,55,377,,Active,,,http://www.redfin.com/NY/Forest-Hills/61-20-Grand-Central-Pkwy-11375/unit-14/home/169896026,MLSLI,3181565,N,Y,40.7379288,-73.8469001
MLS Listing,,Single Family Residential,20 Ross Ln,Staten Island,NY,10312,499000,2,1,Eltingville,882,2912,1935,56,566,,Active,,,http://www.redfin.com/NY/Staten-Island/20-Ross-Ln-10312/home/56122476,SIBORMLS,1133895,N,Y,40.5395719,-74.166177
MLS Listing,,Condo/Co-op,166-25 Powells Cove Blv Unit 12G,Beechhurst,NY,11357,489000,2,2,Cryder House,1350,,1962,56,362,,Active,,,http://www.redfin.com/NY/Whitestone/166-25-Powells-Cove-Blvd-11357/unit-12G/home/169883633,MLSLI,3181380,N,Y,40.7944231,-73.796598
MLS Listing,,Single Family Residential,117-35 142nd Pl,Jamaica,NY,11436,485000,2,1,Jamaica,860,2079,1925,56,564,,Active,,,http://www.redfin.com/NY/Jamaica/117-35-142nd-Pl-11436/home/20713766,MLSLI,3181308,N,Y,40.677904,-73.798334
MLS Listing,,Single Family Residential,33 Timothy Ct,Staten Island,NY,10301,499900,3,2,Bulls Head,1920,1550,1997,56,260,,Active,,,http://www.redfin.com/NY/Staten-Island/33-Timothy-Ct-10314/home/56038976,SIBORMLS,1133866,N,Y,40.6061624,-74.1648812
MLS Listing,,Condo/Co-op,19-56 79th St #1,E. Elmhurst,NY,11370,479000,2,1,Garden Bay Manor,,,1939,56,,562,Active,,,http://www.redfin.com/NY/Flushing/1956-79th-St-11370/unit-1/home/20942110,MLSLI,3181187,N,Y,40.772229,-73.8913732
MLS Listing,,Townhouse,184-20 90th Ave,Hollis,NY,11423,489000,2,1,Hollis,,1120,1955,57,,,Active,,,http://www.redfin.com/NY/Jamaica/184-20-90th-Ave-11423/home/20761209,MLSLI,3181080,N,Y,40.7111969,-73.7764359
MLS Listing,,Single Family Residential,531 Greaves Ave,Staten Island,NY,10308,499999,2,2,Great Kills,1034,2340,1990,59,484,,Active,,,http://www.redfin.com/NY/Staten-Island/531-Greaves-Ave-10308/home/56081209,SIBORMLS,1133831,N,Y,40.5655177,-74.1535512
MLS Listing,,Condo/Co-op,680 W 204th St Unit 4E,New York,NY,10034,477000,2,1,New York,875,,1928,62,545,,Active,,,http://www.redfin.com/NY/New-York/680-W-204th-St-10034/unit-4E/home/45165813,HGMLS,5119596,N,Y,40.8675377,-73.9238118
MLS Listing,,Single Family Residential,31 Hemlock Ct,Staten Island,NY,10309,475000,3,3,Rossville,1782,3862,1983,62,267,253,Active,,,http://www.redfin.com/NY/Staten-Island/31-Hemlock-Ct-10309/home/56084760,SIBORMLS,1133721,N,Y,40.5489854,-74.2153925
MLS Listing,,Condo/Co-op,702 45th St Unit 4H,Sunset Park,NY,11220,489000,2,1,Linden Height,,,1924,64,,,Active,,,http://www.redfin.com/NY/Brooklyn/702-45th-St-11220/unit-4H/home/40647801,MLSLI,3179519,N,Y,40.6450615,-74.0028944
MLS Listing,,Condo/Co-op,111-50 75 Rd Unit 56A,Forest Hills,NY,11375,499000,2,1,Queensbury Hall,1000,,1939,64,499,,Active,,,http://www.redfin.com/NY/Unknown/111-50-75th-Rd-11375/unit-56A/home/108256839,MLSLI,3179440,N,Y,40.7177739,-73.8370701
MLS Listing,,Single Family Residential,144 Forest Grn,Staten Island,NY,10312,489000,3,2,Arden Heights,1112,1488,1970,66,440,63,Active,,,http://www.redfin.com/NY/Staten-Island/144-Forest-Grn-10312/home/56033115,SIBORMLS,1133684,N,Y,40.5552397,-74.1963676
MLS Listing,,Condo/Co-op,51-34 30th Ave Unit 5N,Woodside,NY,11377,495000,2,1,Blvd Gardens,,,1935,66,,,Active,,,http://www.redfin.com/NY/Unknown/5134-30th-Ave-11377/unit-5N/home/143040916,MLSLI,3179214,N,Y,40.7592027,-73.9048874
MLS Listing,,Condo/Co-op,983 W Fingerboard Rd,Staten Island,NY,10305,499900,2,3,Grasmere,1632,292460,1986,67,306,269,Active,,,http://www.redfin.com/NY/Staten-Island/983-W-Fingerboard-Rd-10304/home/56026958,SIBORMLS,1133627,N,Y,40.6013096,-74.0883647
MLS Listing,,Condo/Co-op,544 88 St Unit 3R,Brooklyn,NY,11209,485000,2,1,Brooklyn,900,,1980,68,539,,Active,,,http://www.redfin.com/NY/Brooklyn/544-88th-St-11209/unit-3R/home/144720462,BNYMLS,434587,N,Y,40.6194894,-74.0259718
MLS Listing,,Townhouse,130-27 226th St,Laurelton,NY,11413,499990,3,2,Laurelton,,2000,1930,69,,,Active,,,http://www.redfin.com/NY/Jamaica/130-27-226th-St-11413/home/20700755,MLSLI,3178207,N,Y,40.681913,-73.7410249
MLS Listing,,Townhouse,118-18 154th St,Jamaica,NY,11434,479000,2,2.5,Jamaica,,1350,2019,69,,,Active,,,http://www.redfin.com/NY/Jamaica/118-18-154th-St-11434/home/23131801,MLSLI,3178131,N,Y,40.680558,-73.788746
MLS Listing,,Condo/Co-op,1170 Ocean Pkwy Unit 4I,Brooklyn,NY,11230,499999,3,2,Brooklyn,1700,,1965,69,294,,Active,,,http://www.redfin.com/NY/Brooklyn/1170-Ocean-Pkwy-11230/unit-4i/home/169649785,BNYMLS,434489,N,Y,40.6201214,-73.9704227
MLS Listing,,Single Family Residential,135-05 Foch Blvd,S. Ozone Park,NY,11420,500000,2,3,S. Ozone Park,,2075,1925,70,,,Active,,,http://www.redfin.com/NY/Jamaica/135-05-Foch-Blvd-11420/home/20721868,MLSLI,3177872,N,Y,40.6775949,-73.804367
MLS Listing,,Single Family Residential,135-11 224 St,Laurelton,NY,11413,499999,3,1.5,Laurelton,1230,1230,1950,70,407,,Active,,,http://www.redfin.com/NY/Jamaica/135-11-224th-St-11413/home/20693172,MLSLI,3177836,N,Y,40.675849,-73.746445
MLS Listing,,Single Family Residential,24 Cyrus Ave,Brooklyn,NY,11229,475000,3,1.5,Brooklyn,,1800,1930,70,,,Active,,,http://www.redfin.com/NY/Brooklyn/24-Cyrus-Ave-11229/home/40910260,MLSLI,3177787,N,Y,40.5881547,-73.9253391
MLS Listing,,Townhouse,246 Brinsmade Ave,Bronx,NY,10465,498888,3,1.5,Bronx,1080,2199,1951,70,462,,Active,,,http://www.redfin.com/NY/The-Bronx/246-Brinsmade-Ave-10465/home/44751573,HGMLS,5117944,N,Y,40.815994,-73.82035
MLS Listing,,Condo/Co-op,Unit at 9281 Shore Rd,Brooklyn,NY,11209,499000,2,1,Bay Ridge,,,,71,,,Active,,,http://www.redfin.com/NY/Brooklyn/9281-Shore-Rd-11209/home/54602381,REBNY,CORC5928481,N,Y,40.6189361,-74.0396344
MLS Listing,,Condo/Co-op,224-24 Union Tpke Unit 2-M,Bayside,NY,11364,485000,2,2,Cambridge Hall,1200,,1950,71,404,,Active,,,http://www.redfin.com/NY/OAKLAND-GARDENS/22424-UNION-TPKE-11364/unit-2M/home/144799598,MLSLI,3177681,N,Y,40.735656,-73.744526
MLS Listing,,Condo/Co-op,Unit at 83 -33 Austin St,Queens,NY,11415,485000,2,1,Kew Gardens,,,,73,,,Active,,,http://www.redfin.com/NY/Jamaica/83-40-Austin-St-11415/home/20656365,REBNY,CORC5924247,N,Y,40.7083799,-73.8290102
MLS Listing,,Single Family Residential,1161 Hook Creek Blvd,Valley Stream,NY,11580,475000,3,3,Valley Stream,,5694,1956,73,,,Active,,,http://www.redfin.com/NY/Valley-Stream/1161-Hook-Creek-Blvd-11580/home/20414669,MLSLI,3177481,N,Y,40.6815954,-73.7255588
MLS Listing,,Multi-Family (2-4 Unit),,Queens,NY,11433,499000,4,3,,,2000,,74,,,Active,,,http://www.redfin.com/NY/Queens/Undisclosed-address-11422/home/145877435,BNYMLS,434432,N,Y,40.6584068,-73.7389596
MLS Listing,,Condo/Co-op,110-45 Queens Blvd #318,Forest Hills,NY,11375,499000,2,1,Coop Park Briar,1000,,1951,75,499,,Active,,,http://www.redfin.com/NY/Forest-Hills/11045-Queens-Blvd-11375/unit-318/home/40370255,MLSLI,3176872,N,Y,40.7195799,-73.83976
MLS Listing,,Condo/Co-op,6665 Colonial Rd Unit 1A,Brooklyn,NY,11220,490000,2,1,Brooklyn,940,,,75,521,,Active,,,http://www.redfin.com/NY/Brooklyn/6665-Colonial-Rd-11220/unit-1A/home/169605108,BNYMLS,434375,N,Y,40.6398985,-74.0296909
MLS Listing,,Single Family Residential,67 Dover Grn,Staten Island,NY,10312,489000,3,2,Arden Heights,2484,2266,1970,76,197,63,Active,,,http://www.redfin.com/NY/Staten-Island/67-Dover-Grn-10312/home/56101134,SIBORMLS,1133421,N,Y,40.556469,-74.195838
MLS Listing,,Townhouse,111-45 180th St,Jamaica,NY,11433,499000,4,2.5,Jamaica,1100,2675,1960,77,454,,Active,,,http://www.redfin.com/NY/Jamaica/111-45-180th-St-11433/home/20755315,MLSLI,3176238,N,Y,40.698764,-73.772571
MLS Listing,,Townhouse,194-06 109th Ave,St. Albans,NY,11412,479000,3,2.5,Queens,1450,3670,1920,77,330,,Active,,,http://www.redfin.com/NY/Jamaica/194-06-109th-Ave-11412/home/20743445,MLSLI,3176218,N,Y,40.705678,-73.762867
MLS Listing,,Condo/Co-op,110-45 71st Rd Unit 5h,Forest Hills,NY,11375,499000,2,1,Versailles,925,,1952,79,539,,Active,,,http://www.redfin.com/NY/Flushing/110-45-71st-Rd-11375/unit-5H/home/20644241,MLSLI,3175837,N,Y,40.7222907,-73.8398387
MLS Listing,,Condo/Co-op,112-20 72nd Dr Unit C03,Forest Hills,NY,11375,489000,2,1,The Balfour,,,1956,79,,,Active,,,http://www.redfin.com/NY/Forest-Hills/112-20-72nd-Dr-11375/unit-C03/home/169583249,MLSLI,3175772,N,Y,40.7198453,-73.8372688
MLS Listing,,Townhouse,26 Prospect Ave,Staten Island,NY,10301,475000,8,2,New Brighton,2580,2600,1920,79,184,,Active,,,http://www.redfin.com/NY/Staten-Island/26-Prospect-Ave-10301/home/56087186,SIBORMLS,1133355,N,Y,40.639919,-74.0889526
MLS Listing,,Condo/Co-op,4654 Amboy Rd #5,Staten Island,NY,10312,479000,2,2,Eltingville,1010,1010,2009,80,474,365,Active,,,http://www.redfin.com/NY/Staten-Island/4654-Amboy-Rd-10312/unit-5/home/169575436,SIBORMLS,1133351,N,Y,40.5406209,-74.1671632
MLS Listing,,Single Family Residential,77 Littlefield Ave,Staten Island,NY,10312,499000,3,2,Eltingville,1370,2380,1970,80,364,,Active,,,http://www.redfin.com/NY/Staten-Island/77-Littlefield-Ave-10312/home/56033916,SIBORMLS,1133339,N,Y,40.5359826,-74.1505925
MLS Listing,,Single Family Residential,187 Targee St,Staten Island,NY,10304,495000,4,2,Stapleton,1392,2500,1920,81,356,,Active,,,http://www.redfin.com/NY/Staten-Island/187-Targee-St-10304/home/56104838,SIBORMLS,1133318,N,Y,40.6225572,-74.0837328
MLS Listing,,Single Family Residential,140 Van Pelt Ave,Staten Island,NY,10303,475000,3,2,Mariners Harbor,1020,4335,1925,81,466,,Active,,,http://www.redfin.com/NY/Staten-Island/140-Van-Pelt-Ave-10303/home/56021923,SIBORMLS,1133317,N,Y,40.6328261,-74.1553976
MLS Listing,,Single Family Residential,220-17 97 Ave,Queens Village,NY,11429,480000,2,1.5,Queens Village,,2970,1930,81,,,Active,,,http://www.redfin.com/NY/Jamaica/220-17-97th-Ave-11429/home/20741712,MLSLI,3175237,N,Y,40.717758,-73.732638
MLS Listing,,Single Family Residential,239 Colony Ave,Staten Island,NY,10306,475000,4,2,Midland Beach,753,2240,1920,82,631,,Active,,,http://www.redfin.com/NY/Staten-Island/239-Colony-Ave-10306/home/56017428,SIBORMLS,1133295,N,Y,40.5730341,-74.0919582
MLS Listing,,Condo/Co-op,162-01 Powells Cove Blvd Unit 3B,Whitestone,NY,11357,499888,2,1.5,Cryder Point,,,1958,82,,,Active,,,http://www.redfin.com/NY/Flushing/162-01-Powells-Cove-Blvd-11357/unit-3B/home/40028588,MLSLI,3175033,N,Y,40.795134,-73.799261
MLS Listing,,Single Family Residential,117-30 141st St,Jamaica,NY,11436,499000,3,1,Jamaica,,1995,1930,82,,,Active,January-18-2020 12:00 PM,January-18-2020 03:00 PM,http://www.redfin.com/NY/Jamaica/117-30-141st-St-11436/home/20714276,MLSLI,3175005,N,Y,40.677566,-73.8006769
MLS Listing,,Single Family Residential,337 Brookfield Ave,Staten Island,NY,10308,499000,3,2,Great Kills,1092,2121,1979,83,457,,Active,,,http://www.redfin.com/NY/Staten-Island/337-Brookfield-Ave-10308/home/56106453,SIBORMLS,1133247,N,Y,40.5598371,-74.1589652
MLS Listing,,Multi-Family (2-4 Unit),173-11 110th Ave,Jamaica,NY,11433,477000,6,4,Jamaica,2168,4802,2005,86,220,,Active,,,http://www.redfin.com/NY/Jamaica/173-11-Brinkerhoff-Ave-11433/home/20645854,MLSLI,3174053,N,Y,40.697176,-73.780368
MLS Listing,,Single Family Residential,87 Treadwell Ave,Staten Island,NY,10302,484999,3,1,Port Richmond,1590,3941,1899,87,305,,Active,,,http://www.redfin.com/NY/Staten-Island/87-Treadwell-Ave-10302/home/56015554,SIBORMLS,1133184,N,Y,40.6378383,-74.1378234
MLS Listing,,Single Family Residential,30 E 32nd St,Brooklyn,NY,11226,500000,3,1,East Flatbush,,2000,1925,87,,,Active,,,http://www.redfin.com/NY/Brooklyn/30-E-32nd-St-11226/home/40779596,MLSLI,3173922,N,Y,40.650072,-73.9478649
MLS Listing,,Condo/Co-op,Unit at 1062 Bergen St,Brooklyn,NY,11216,499000,2,1,Crown Heights,,,,87,,,Active,,,http://www.redfin.com/NY/Brooklyn/1062-Bergen-St-11216/home/40913733,REBNY,DEGI3964230,N,Y,40.6758862,-73.9510218
MLS Listing,,Single Family Residential,190 Ludlam Ave,Elmont,NY,11003,499999,4,1.5,Belmont Park So.,,4000,1956,88,,,Active,,,http://www.redfin.com/NY/Elmont/190-Ludlam-Ave-11003/home/20471402,MLSLI,3173695,N,Y,40.7017439,-73.7220649
MLS Listing,,Multi-Family (2-4 Unit),938 Dumont Ave,Brooklyn,NY,11207,475000,8,3,Brooklyn,2000,1800,1910,88,238,,Active,,,http://www.redfin.com/NY/Brooklyn/938-Dumont-Ave-11207/home/40761690,BNYMLS,434131,N,Y,40.6676806,-73.8838854
MLS Listing,,Condo/Co-op,6766 108 St Unit 6F,Forest Hills,NY,11375,490000,2,1,1000,,,1950,88,,,Active,,,http://www.redfin.com/NY/Flushing/67-66-108th-St-11375/unit-6F/home/169450723,MLSLI,3173584,N,Y,40.7271058,-73.8471227
MLS Listing,,Single Family Residential,,Valley Stream,NY,11580,475000,3,1,Valley Stream,,4000,1958,89,,,Active,,,http://www.redfin.com/NY/Valley-Stream/Undisclosed-address-11580/home/20415890,MLSLI,3173243,N,Y,40.6770845,-73.7256048
MLS Listing,,Condo/Co-op,37-75 64th St #52,Woodside,NY,11377,499999,3,1,Hicks Stryker,,,1917,90,,,Active,,,http://www.redfin.com/NY/Woodside/3775-64th-St-11377/unit-52/home/20661343,MLSLI,3172898,N,Y,40.7487199,-73.8988
MLS Listing,,Condo/Co-op,Unit at 61 -15 98th St,Queens,NY,11374,490000,2,1.5,Rego Park,,,,90,,,Active,,,http://www.redfin.com/NY/Rego-Park/61-35-98th-St-11374/home/169425099,REBNY,UCOM1854383,N,Y,40.7343029,-73.8591178
MLS Listing,,Single Family Residential,64 Zachary Ct,Staten Island,NY,10310,488000,3,3,Westerleigh,1600,1425,1989,91,305,,Active,,,http://www.redfin.com/NY/Staten-Island/64-Zachary-Ct-10310/home/56028349,SIBORMLS,1133035,N,Y,40.625853,-74.1308619
MLS Listing,,Condo/Co-op,65-60 Wetherole St Unit 5E,Rego Park,NY,11374,489000,2,2,Coop,1200,,1947,91,408,922,Active,,,http://www.redfin.com/NY/Flushing/65-60-Wetherole-St-11374/unit-5E/home/20634476,MLSLI,3172539,N,Y,40.7258349,-73.858482
MLS Listing,,Condo/Co-op,Unit at 4113 Seventh Ave,Brooklyn,NY,11232,475000,2,1,Sunset Park,,,,91,,,Active,,,http://www.redfin.com/NY/Brooklyn/4113-7th-Ave-11232/home/169409564,REBNY,KWRE1854261,N,Y,40.6470349,-74.0007476
MLS Listing,,Condo/Co-op,,Brooklyn,NY,11232,475000,2,1,,700,,,92,679,,Active,,,http://www.redfin.com/NY/Brooklyn/Undisclosed-address-11229/home/168405450,BNYMLS,434004,N,Y,40.5988077,-73.9447994
MLS Listing,,Single Family Residential,20 Teri Ct,Staten  Island,NY,10314,479000,2,2.25,Staten  Island,2000,2256,1988,93,240,,Active,,,http://www.redfin.com/NY/Staten-Island/20-Teri-Ct-10314/home/77420901,BNYMLS,434003,N,Y,40.5902756,-74.1521617
MLS Listing,,Condo/Co-op,138-10 Franklin Ave Unit 14A,Flushing,NY,11355,479000,2,2,Carlyle Towers,900,,1963,95,532,,Active,,,http://www.redfin.com/NY/Flushing/138-10-Franklin-Ave-11355/unit-14A/home/169394467,MLSLI,3171928,N,Y,40.7546674,-73.8255947
MLS Listing,,Single Family Residential,2739 Haring St,Brooklyn,NY,11235,499000,3,1,Brooklyn,1168,2242,1920,95,427,,Active,,,http://www.redfin.com/NY/Brooklyn/2739-Haring-St-11235/home/40909112,BNYMLS,433932,N,Y,40.586479,-73.9380372
MLS Listing,,Single Family Residential,345 Van Pelt Ave,Staten Island,NY,10303,489900,3,2,Mariners Harbor,1400,1606,2018,96,350,,Active,,,http://www.redfin.com/NY/Staten-Island/345-Van-Pelt-Ave-10303/home/160451982,SIBORMLS,1132904,N,Y,40.6271505,-74.1553896
MLS Listing,,Single Family Residential,130-50 146th St,Jamaica,NY,11436,499000,4,1,Jamaica,,3876,1950,97,,,Active,,,http://www.redfin.com/NY/Jamaica/130-50-146th-St-11436/home/20711683,MLSLI,3171269,N,Y,40.668962,-73.792955
MLS Listing,,Single Family Residential,171-07 119th Rd,Jamaica,NY,11434,500000,3,2,Jamaica,,3148,1940,97,,,Active,,,http://www.redfin.com/NY/Jamaica/171-07-119th-Rd-11434/home/20704690,MLSLI,3171118,N,Y,40.683869,-73.774375
MLS Listing,,Condo/Co-op,54 Veronica Pl Unit 1B,Brooklyn,NY,11226,479000,2,1,Brooklyn,845,,1988,98,567,,Active,,,http://www.redfin.com/NY/Brooklyn/54-Veronica-Pl-11226/unit-1B/home/40786599,BNYMLS,433785,N,Y,40.6491494,-73.9530493
MLS Listing,,Condo/Co-op,63-89 Saunders St Unit 1D,Rego Park,NY,11374,495000,2,1,Saunders Apartments,,,1942,99,,,Active,,,http://www.redfin.com/NY/Flushing/63-89-Saunders-St-11374/unit-1D/home/40436470,MLSLI,3170557,N,Y,40.7291666,-73.8619839
MLS Listing,,Condo/Co-op,275 Webster Ave Unit 1b,Brooklyn,NY,11230,478000,2,1,Kensington,900,20490,1964,100,531,801,Active,,,http://www.redfin.com/NY/Brooklyn/275-Webster-Ave-11230/unit-1B/home/71607803,SIBORMLS,1132789,N,Y,40.6329634,-73.9709274
MLS Listing,,Single Family Residential,147-07 116th Ave,Jamaica,NY,11436,499000,3,1.5,Jamaica,,2000,1920,101,,,Active,,,http://www.redfin.com/NY/Jamaica/147-07-116th-Ave-11436/home/20718399,MLSLI,3170318,N,Y,40.682422,-73.794392
MLS Listing,,Condo/Co-op,3135 Johnson Ave Unit 11B,Bronx,NY,10463,475000,2,2,Riverdale,1200,,1954,101,396,,Active,,,http://www.redfin.com/NY/The-Bronx/3135-Johnson-Ave-10463/unit-11B/home/169283332,HGMLS,5087896,N,Y,40.8828679,-73.9112962
MLS Listing,,Condo/Co-op,212-30 23rd Ave Unit 4E,Bayside,NY,11360,499000,3,2,Bay Terr Section 12,1500,,1964,102,333,,Active,,,http://www.redfin.com/NY/Bayside/21230-23rd-Ave-11360/unit-4E/home/169279136,MLSLI,3170049,N,Y,40.7817235,-73.7778303
MLS Listing,,Townhouse,230 Targee St,Staten Island,NY,10304,495000,2,1,Clifton,1372,2128,1988,102,361,,Active,,,http://www.redfin.com/NY/Staten-Island/230-Targee-St-10304/home/56083899,SIBORMLS,1132746,N,Y,40.6213895,-74.0844071
MLS Listing,,Single Family Residential,5 Geyser Dr,Staten Island,NY,10312,488000,3,2,Arden Heights,2392,2070,1980,102,204,,Active,,,http://www.redfin.com/NY/Staten-Island/5-Geyser-Dr-10312/home/56032958,SIBORMLS,1132745,N,Y,40.549446,-74.199598
MLS Listing,,Condo/Co-op,85-14 Broadway Unit 2S,Elmhurst,NY,11373,475000,2,1,Alabama,950,,1961,103,500,,Active,,,http://www.redfin.com/NY/Elmhurst/85-14-Broadway-11373/unit-2S/home/20645473,MLSLI,3169563,N,Y,40.738931,-73.8779388
MLS Listing,,Single Family Residential,215 Sterling Rd,Elmont,NY,11003,475000,4,2,Elmont,,5000,1949,105,,,Active,,,http://www.redfin.com/NY/Elmont/215-Sterling-Rd-11003/home/20473873,MLSLI,3168721,N,Y,40.7025889,-73.7225706
MLS Listing,,Condo/Co-op,5700 Arlington Ave Unit 6W,Bronx,NY,10471,480000,2,1,Bronx,1030,,1962,108,466,,Active,,,http://www.redfin.com/NY/The-Bronx/5700-Arlington-Ave-10471/unit-6W/home/44799361,HGMLS,5074022,N,Y,40.9069228,-73.9062512
MLS Listing,,Single Family Residential,33 Bailey Pl,Staten Island,NY,10303,497500,3,3,Mariners Harbor,1232,2800,2003,108,404,,Active,,,http://www.redfin.com/NY/Staten-Island/33-Bailey-Pl-10303/home/56074847,SIBORMLS,1132584,N,Y,40.6389322,-74.1692898
MLS Listing,,Townhouse,116-09 167 St,Jamaica,NY,11434,500000,3,1.5,Jamaica,,1224,,109,,,Active,,,http://www.redfin.com/NY/Jamaica/116-09-167th-St-11434/home/20709423,MLSLI,3167893,N,Y,40.6867804,-73.7801974
MLS Listing,,Single Family Residential,284 Harbor Rd,Staten Island,NY,10303,485000,3,2,Mariners Harbor,1316,9692,1901,110,369,,Active,,,http://www.redfin.com/NY/Staten-Island/284-Harbor-Rd-10303/home/56129371,SIBORMLS,1132522,N,Y,40.6296043,-74.1606383
MLS Listing,,Single Family Residential,114-60 Van Wyck Expy Expy,S. Ozone Park,NY,11420,499000,2,,Wakefield,,1600,1930,111,,,Active,,,http://www.redfin.com/NY/South-Ozone-Park/11460-Van-Wyck-Expy-11420/home/20725887,MLSLI,3167134,N,Y,40.6812536,-73.8055873
MLS Listing,,Multi-Family (2-4 Unit),171-24 104th Ave,Jamaica,NY,11433,485000,4,2,Jamaica,,2700,1920,111,,,Active,,,http://www.redfin.com/NY/Jamaica/171-24-104th-Ave-11433/home/20759953,MLSLI,3167131,N,Y,40.70248,-73.7858569
MLS Listing,,Condo/Co-op,85-28 Grand Ave Unit 4B,Elmhurst,NY,11373,499000,2,1,Grandview,,,1990,111,,347,Active,,,http://www.redfin.com/NY/Elmhurst/85-28-Grand-Ave-11373/unit-4B/home/28566273,MLSLI,3167065,N,Y,40.7352522,-73.8811242
MLS Listing,,Single Family Residential,12 Meyer Ave,Lawrence,NY,11559,499000,3,2,Meadowmere Park,4000,,1920,112,125,,Active,,,http://www.redfin.com/NY/Lawrence/12-Meyer-Ave-11559/home/20388904,MLSLI,3166958,N,Y,40.6368672,-73.7427061
MLS Listing,,Single Family Residential,127 Pembrook Loop,Staten Island,NY,10309,499999,3,3,Woodrow,1828,1269,1992,112,274,90,Active,,,http://www.redfin.com/NY/Staten-Island/127-Pembrook-Loop-10309/home/56080083,SIBORMLS,1132448,N,Y,40.5357582,-74.2202528
MLS Listing,,Single Family Residential,111-44 114th St,S. Ozone Park,NY,11420,479900,2,2,S. Ozone Park,1000,2162,1925,115,480,,Active,,,http://www.redfin.com/NY/Jamaica/111-44-114th-St-11420/home/20723179,MLSLI,3166327,N,Y,40.67809,-73.82519
MLS Listing,,Single Family Residential,129-60 135th St,S. Ozone Park,NY,11420,499999,3,2,S. Ozone Park,,1900,1920,115,,,Active,,,http://www.redfin.com/NY/Jamaica/129-60-135th-St-11420/home/20721241,MLSLI,3166225,N,Y,40.670587,-73.803841
MLS Listing,,Single Family Residential,859 Calhoun Ave,Bronx,NY,10465,499900,2,2,Bronx,1680,2199,1955,116,298,,Active,,,http://www.redfin.com/NY/The-Bronx/859-Calhoun-Ave-10465/home/44790529,HGMLS,5071282,N,Y,40.8282717,-73.8268238
MLS Listing,,Single Family Residential,2526 Mickle Ave,Bronx,NY,10469,499000,3,2.5,Bronx,1400,,1931,117,356,,Active,,,http://www.redfin.com/NY/The-Bronx/2526-Mickle-Ave-10469/home/44792645,HGMLS,5048804,N,Y,40.8635842,-73.840551
MLS Listing,,Condo/Co-op,149 Marine Ave Unit LC,Brooklyn,NY,11209,488000,2,1,Brooklyn,800,,,117,610,,Active,,,http://www.redfin.com/NY/Brooklyn/149-Marine-Ave-11209/unit-LC/home/169098857,BNYMLS,433355,N,Y,40.6166936,-74.0351991
MLS Listing,,Single Family Residential,328 Beach 74th St,Arverne,NY,11692,475000,4,2,Arverne,880,2700,1920,117,540,,Active,,,http://www.redfin.com/NY/Arverne/328-Beach-74th-St-11692/home/20669916,MLSLI,3165352,N,Y,40.5916628,-73.8022393
MLS Listing,,Single Family Residential,3236 Corsa Ave,Bronx,NY,10469,500000,3,2.5,Bronx,1400,1799,1950,118,357,,Active,,,http://www.redfin.com/NY/The-Bronx/3236-Corsa-Ave-10469/home/44783036,HGMLS,5062007,N,Y,40.8737434,-73.8454193
MLS Listing,,Single Family Residential,123 Lee Ave,Staten Island,NY,10307,499000,3,2,Tottenville,1196,3960,1901,118,417,,Active,,,http://www.redfin.com/NY/Staten-Island/123-Lee-Ave-10307/home/56056625,SIBORMLS,1132299,N,Y,40.5138635,-74.2455149
MLS Listing,,Multi-Family (2-4 Unit),259-07 147th Rd,Rosedale,NY,11422,500000,3,2,Community 29,,7440,1930,118,,,Active,,,http://www.redfin.com/NY/Jamaica/259-07-147th-Rd-11422/home/20685920,MLSLI,3165017,N,Y,40.656537,-73.729349
MLS Listing,,Single Family Residential,36 Bunnell Ct,Staten  Island,NY,10312,479900,3,1.5,Staten  Island,1232,880,1986,119,390,,Active,,,http://www.redfin.com/NY/Staten-Island/36-Bunnell-Ct-10312/home/56037250,BNYMLS,433303,N,Y,40.552687,-74.199668
MLS Listing,,Multi-Family (5+ Unit),1226 Tinton Ave,Bronx,NY,10456,499000,16,3,Morrisania,,2915,1910,119,,,Active,,,http://www.redfin.com/NY/The-Bronx/1226-Tinton-Ave-10456/home/44602586,MLSLI,3164842,N,Y,40.829847,-73.899758
MLS Listing,,Condo/Co-op,5700 Arlington Ave Unit 18G,Bronx,NY,10471,499000,2,1,Riverdale,1030,,1965,120,484,,Active,,,http://www.redfin.com/NY/The-Bronx/5700-Arlington-Ave-10471/unit-18G/home/169057966,HGMLS,5065728,N,Y,40.9069228,-73.9062512
MLS Listing,,Single Family Residential,107 Prospect St,Staten Island,NY,10304,495999,3,3,Stapleton,1312,2250,1901,124,378,,Active,,,http://www.redfin.com/NY/Staten-Island/107-Prospect-St-10304/home/56047274,SIBORMLS,1132157,N,Y,40.6289661,-74.0776639
MLS Listing,,Condo/Co-op,83-75 117 St Unit 4F,Kew Gardens,NY,11415,499000,2,2,Kew Condominium,,,2006,124,,299,Active,,,http://www.redfin.com/NY/Richmond-Hill/8375-117th-St-11418/unit-4F/home/20662989,MLSLI,3163523,N,Y,40.7046554,-73.8349541
MLS Listing,,Single Family Residential,108-25 Fern Pl,Jamaica,NY,11433,499999,3,3,Jamaica,,3000,1955,124,,,Active,,,http://www.redfin.com/NY/Jamaica/10825-Fern-Pl-11433/home/20755766,MLSLI,3163490,N,Y,40.700786,-73.779848
MLS Listing,,Townhouse,3 Young St,Staten Island,NY,10304,489000,6,2,Stapleton,1896,1530,1915,124,258,,Active,,,http://www.redfin.com/NY/Staten-Island/3-Young-St-10304/home/56101374,SIBORMLS,1132144,N,Y,40.621316,-74.085326
MLS Listing,,Townhouse,4061 Paulding Ave,Bronx,NY,10466,495000,3,2.5,Bronx,1485,1799,1955,125,333,,Active,,,http://www.redfin.com/NY/The-Bronx/4061-Paulding-Ave-10466/home/44739454,HGMLS,5059021,N,Y,40.88761,-73.850731
MLS Listing,,Single Family Residential,257-10 149th Ave,Rosedale,NY,11422,500000,3,2,Rosedale,,2500,1955,125,,,Active,,,http://www.redfin.com/NY/Jamaica/257-10-149th-Ave-11422/home/20685021,MLSLI,3163058,N,Y,40.652695,-73.731654
MLS Listing,,Single Family Residential,111-36 139th St,Jamaica,NY,11435,499000,2,2,Queens,,2000,1925,126,,,Active,,,http://www.redfin.com/NY/Jamaica/111-36-139th-St-11435/home/20719116,MLSLI,3162902,N,Y,40.683996,-73.8049489
MLS Listing,,Single Family Residential,109 Landscape Ave,Yonkers,NY,10705,499000,4,4,Yonkers,2026,6294,1905,129,246,,Active,,,http://www.redfin.com/NY/Yonkers/109-Landscape-Ave-10705/home/20182756,HGMLS,5053414,N,Y,40.9120794,-73.8945769
MLS Listing,,Single Family Residential,116 Grimsby St,Staten Island,NY,10306,498000,2,1,South Beach,923,4000,2017,130,540,,Active,,,http://www.redfin.com/NY/Staten-Island/116-Grimsby-St-10306/home/56133237,SIBORMLS,1132001,N,Y,40.5751715,-74.0927884
MLS Listing,,Condo/Co-op,5-06 115 St Unit 506F,College Point,NY,11356,499000,2,2,Bay Park Estates,1000,,1988,131,499,414,Active,,,http://www.redfin.com/NY/Flushing/506-115th-St-11356/unit-506F/home/20868872,MLSLI,3161243,N,Y,40.7902959,-73.8530174
MLS Listing,,Townhouse,111-15 Francis Lewis Blvd,Queens Village,NY,11429,475000,3,2.5,Queens Village,,1800,1945,131,,,Active,,,http://www.redfin.com/NY/Jamaica/111-15-Francis-Lewis-Blvd-11429/home/20588274,MLSLI,3161242,N,Y,40.70526,-73.749915
MLS Listing,,Condo/Co-op,33-45 90th St Unit 4F,Jackson Heights,NY,11372,495000,3,1,South Ridge,,,1957,131,,,Active,,,http://www.redfin.com/NY/Jackson-Heights/3345-90th-St-11372/unit-4F/home/168878809,MLSLI,3161125,N,Y,40.7563379,-73.8779356
MLS Listing,,Single Family Residential,26 Ellington St,Staten Island,NY,10304,479000,2,3,Concord,896,30,1925,131,535,,Active,,,http://www.redfin.com/NY/Staten-Island/26-Ellington-St-10304/home/56136077,SIBORMLS,1131928,N,Y,40.6129435,-74.0860158
MLS Listing,,Townhouse,404 Hendrix St,Brooklyn,NY,11207,489999,3,1,Brooklyn,,3367,1990,132,,,Active,,,http://www.redfin.com/NY/Brooklyn/404-Hendrix-St-11207/home/40760030,MLSLI,3161045,N,Y,40.6720407,-73.8894676
MLS Listing,,Single Family Residential,1981 Gildersleeve Ave,Bronx,NY,10473,485000,3,1,Bronx,768,2243,1940,132,632,,Active,,,http://www.redfin.com/NY/The-Bronx/1981-Gildersleeve-Ave-10473/home/44723516,HGMLS,5049324,N,Y,40.8099511,-73.8520373
MLS Listing,,Single Family Residential,260 Elizabeth St,Staten Island,NY,10310,499999,3,2,Clove Lake,1128,2175,2016,132,443,,Active,,,http://www.redfin.com/NY/Staten-Island/260-Elizabeth-St-10310/home/109611860,SIBORMLS,1131888,N,Y,40.6276817,-74.1182525
MLS Listing,,Single Family Residential,24 Yacht Club Cv,Staten Island,NY,10308,499000,3,2,Great Kills,1684,1140,1971,132,296,267,Active,,,http://www.redfin.com/NY/Staten-Island/24-Yacht-Club-Cv-10308/home/56019155,SIBORMLS,1131881,N,Y,40.546783,-74.1389083
MLS Listing,,Condo/Co-op,Unit at 516 E 82nd St,New York,NY,10028,499000,2,1,Upper East Side,,,,134,,,Active,,,http://www.redfin.com/NY/New-York/516-E-82nd-St-10028/home/59313267,REBNY,DEGI3931092,N,Y,40.7727632,-73.9481402
MLS Listing,,Single Family Residential,1458 William Pl,Bronx,NY,10461,485000,2,1.5,Bronx,717,2374,1920,136,676,,Active,,,http://www.redfin.com/NY/The-Bronx/1458-William-Pl-10461/home/44803953,HGMLS,4940179,N,Y,40.8400902,-73.8350947
MLS Listing,,Single Family Residential,155 Lathrop Ave,Staten Island,NY,10314,499000,3,2,Westerleigh,1976,1650,1925,137,253,,Active,,,http://www.redfin.com/NY/Staten-Island/155-Lathrop-Ave-10314/home/56109077,SIBORMLS,1131836,N,Y,40.6190724,-74.1358689
MLS Listing,,Single Family Residential,2785 Brown St,Brooklyn,NY,11235,499000,2,1,Brooklyn,608,1575,1920,140,821,,Active,,,http://www.redfin.com/NY/Brooklyn/2785-Brown-St-11235/home/40909417,BNYMLS,432772,N,Y,40.5854476,-73.9369119
MLS Listing,,Single Family Residential,2 Clove Lake Pl,Staten Island,NY,10310,499888,4,2,Clove Lake,1144,3773,1915,140,437,,Active,,,http://www.redfin.com/NY/Staten-Island/2-Clove-Lake-Pl-10310/home/56049828,SIBORMLS,1131700,N,Y,40.6282993,-74.1164831
MLS Listing,,Condo/Co-op,183 Beach 117th St #1,Rockaway Park,NY,11694,495000,2,2,183 Beach 117 St Condo,,,2003,143,,232,Active,,,http://www.redfin.com/NY/Far-Rockaway/183-Beach-117th-St-11694/unit-1/home/20666235,MLSLI,3158702,N,Y,40.5789268,-73.838057
MLS Listing,,Single Family Residential,1097 Arden Ave,Staten Island,NY,10312,499000,3,2,Annandale,1280,2750,1960,143,390,,Active,,,http://www.redfin.com/NY/Staten-Island/1097-Arden-Ave-10312/home/56023832,SIBORMLS,1131720,N,Y,40.542851,-74.172527
MLS Listing,,Single Family Residential,400 Jersey St,Staten Island,NY,10301,499000,2,2,New Brighton,1216,1675,1930,143,410,,Active,,,http://www.redfin.com/NY/Staten-Island/400-Jersey-St-10301/home/168720586,SIBORMLS,1131709,N,Y,40.6385646,-74.0877136
MLS Listing,,Condo/Co-op,61-35 98 St Unit 4D,Rego Park,NY,11374,499999,2,1.5,Park City Estates,,,1960,146,,,Active,,,http://www.redfin.com/NY/Rego-Park/61-35-98th-St-11374/unit-4D/home/109704393,MLSLI,3157657,N,Y,40.7343029,-73.8591178
MLS Listing,,Condo/Co-op,224 22 St Unit 3B,Brooklyn,NY,11232,500000,2,1,Brooklyn,658,,1995,147,760,,Active,,,http://www.redfin.com/NY/Brooklyn/224-22nd-St-11232/unit-3B/home/40690022,BNYMLS,432460,N,Y,40.660901,-73.994646
MLS Listing,,Single Family Residential,128-25 148th St,Jamaica,NY,11436,488000,3,2,Jamaica,,2000,1920,149,,,Active,,,http://www.redfin.com/NY/Jamaica/128-25-148th-St-11436/home/20713620,MLSLI,3156986,N,Y,40.670794,-73.790223
MLS Listing,,Condo/Co-op,42-45 Kissena Blvd Unit 3N,Flushing,NY,11355,479000,2,1,The Newport,,,1956,150,,720,Active,,,http://www.redfin.com/NY/Flushing/42-45-Kissena-Blvd-11355/unit-3N/home/143111390,MLSLI,3156831,N,Y,40.7566154,-73.8254585
MLS Listing,,Condo/Co-op,41-50 78 St #508,Elmhurst,NY,11373,479000,2,2,41-50 78 St Corp,,,1951,151,,,Active,,,http://www.redfin.com/NY/Unknown/41-50-78th-St-11373/unit-508/home/147820796,MLSLI,3156420,N,Y,40.744231,-73.8874467
MLS Listing,,Townhouse,116-28 217th St,Cambria Heights,NY,11411,479000,3,2,Cambria Heights,,2000,1945,151,,,Active,,,http://www.redfin.com/NY/Jamaica/116-28-217th-St-11411/home/20728064,MLSLI,3156204,N,Y,40.696853,-73.742582
MLS Listing,,Townhouse,3363 Wilson Ave,Bronx,NY,10469,499000,3,2.5,Bronx,1799,2350,1940,152,277,,Active,,,http://www.redfin.com/NY/The-Bronx/3363-Wilson-Ave-10469/home/44782502,MLSLI,3156022,N,Y,40.874934,-73.850693
MLS Listing,,Single Family Residential,37 Walker St,Staten Island,NY,10301,499000,3,1,Port Richmond,1170,2500,1920,153,426,,Active,,,http://www.redfin.com/NY/Staten-Island/37-Walker-St-10302/home/56103102,SIBORMLS,1131443,N,Y,40.6303129,-74.141693
MLS Listing,,Townhouse,830 E 223rd St,Bronx,NY,10466,485000,4,2,Bronx,,2057,1955,154,,,Active,,,http://www.redfin.com/NY/The-Bronx/830-E-223rd-St-10466/home/44737839,MLSLI,3155457,N,Y,40.8849815,-73.8573552
MLS Listing,,Single Family Residential,1141 E 98 St,Brooklyn,NY,11236,499000,2,1.75,Brooklyn,1248,2000,1925,154,400,,Active,,,http://www.redfin.com/NY/Brooklyn/1141-E-98th-St-11236/home/40891759,BNYMLS,432408,N,Y,40.643811,-73.898923
MLS Listing,,Single Family Residential,3099 Hatting Pl,Bronx,NY,10465,498000,3,1,Bronx,1512,3741,1915,157,329,,Active,,,http://www.redfin.com/NY/The-Bronx/3099-Hatting-Pl-10465/home/44750034,HGMLS,5018568,N,Y,40.8146214,-73.8066852
MLS Listing,,Condo/Co-op,Unit at 5800 Arlington Ave,Bronx,NY,10471,490000,2,1,Riverdale,,,,158,,,Active,,,http://www.redfin.com/NY/Bronx/5800-Arlington-Ave-10471/home/148740061,REBNY,DEGI3905642,N,Y,40.9080135,-73.9055787
MLS Listing,,Single Family Residential,70 Whitney Ave,Floral Park,NY,11001,499000,2,1,Floral Park,1089,4000,1930,158,458,,Active,,,http://www.redfin.com/NY/Floral-Park/70-Whitney-Ave-11001/home/20554937,MLSLI,3154337,N,Y,40.731322,-73.7053181
MLS Listing,,Single Family Residential,20 East Reading Ave,Staten Island,NY,10308,499000,3,2,Great Kills,1600,2400,1976,159,312,,Active,,,http://www.redfin.com/NY/Staten-Island/20-E-Reading-Ave-10308/home/56030509,SIBORMLS,1131297,N,Y,40.5565193,-74.1595403
MLS Listing,,Condo/Co-op,37-30 83rd St Unit 3B,Jackson Heights,NY,11372,484000,2,1,30,900,,1955,160,538,,Active,,,http://www.redfin.com/NY/Flushing/37-30-83rd-St-11372/unit-3B/home/20622538,MLSLI,3153815,N,Y,40.7487647,-73.8834851
MLS Listing,,Single Family Residential,54 Millstone Ct,Staten Island,NY,10314,488888,3,3,New Springville,1350,1400,2000,163,362,33,Active,,,http://www.redfin.com/NY/Staten-Island/54-Millstone-Ct-10314/home/56020871,SIBORMLS,1131172,N,Y,40.5755185,-74.1641576
MLS Listing,,Single Family Residential,823 Tysens Ln,Staten Island,NY,10306,475000,3,2,Oakwood - New Dorp Beach,1190,2600,1970,164,399,,Active,,,http://www.redfin.com/NY/Staten-Island/823-Tysens-Ln-10306/home/56053837,SIBORMLS,1131165,N,Y,40.559472,-74.108172
MLS Listing,,Single Family Residential,253 Gordon St,Staten Island,NY,10304,475000,4,2,Stapleton,992,3000,1910,164,479,,Active,,,http://www.redfin.com/NY/Staten-Island/253-Gordon-St-10304/home/56028811,SIBORMLS,1131162,N,Y,40.6210559,-74.083033
MLS Listing,,Single Family Residential,136 Holland Ave,Staten Island,NY,10303,499000,3,3,Mariners Harbor,1518,2288,2007,166,329,,Active,,,http://www.redfin.com/NY/Staten-Island/136-Holland-Ave-10303/home/56117974,SIBORMLS,1131072,N,Y,40.636735,-74.171499
MLS Listing,,Multi-Family (2-4 Unit),2043 Bathgate Ave,Bronx,NY,10457,489000,5,2,Bronx,1512,1512,1901,168,323,,Active,,,http://www.redfin.com/NY/The-Bronx/2043-Bathgate-Ave-10457/home/44604052,MLSLI,3151517,N,Y,40.8499993,-73.8956447
MLS Listing,,Condo/Co-op,112-26 38 Ave Unit 3B,Corona,NY,11368,489000,2,2,Aftab Platinum,,,2011,168,,277,Active,,,http://www.redfin.com/NY/Flushing/112-26-38th-Ave-11368/unit-3B/home/40371623,MLSLI,3151485,N,Y,40.753593,-73.8543399
MLS Listing,,Single Family Residential,170-18 118 Ave,Jamaica,NY,11434,499000,3,2,Jamaica,,2600,1930,168,,,Active,,,http://www.redfin.com/NY/Jamaica/170-18-118th-Ave-11434/home/20704669,MLSLI,3151390,N,Y,40.685462,-73.775635
MLS Listing,,Single Family Residential,112-36 198th St,Jamaica,NY,11412,495000,3,2,Jamaica,1224,3000,1930,170,404,,Active,,,http://www.redfin.com/NY/Jamaica/112-36-198th-St-11412/home/20742326,MLSLI,3151096,N,Y,40.701141,-73.757536
MLS Listing,,Condo/Co-op,Unit at 920 E 17th St,Brooklyn,NY,11230,475000,2,1,Midwood,,,,172,,,Active,,,http://www.redfin.com/NY/Brooklyn/920-E-17th-St-11230/home/167923453,REBNY,UCOM1839308,N,Y,40.6286848,-73.9608229
MLS Listing,,Condo/Co-op,Unit at 514 E 82nd St,New York,NY,10028,499000,2,1,Upper East Side,,,,177,,,Active,,,http://www.redfin.com/NY/New-York/514-E-82nd-St-10028/home/143028372,REBNY,CORC5833012,N,Y,40.7727892,-73.9482321
MLS Listing,,Single Family Residential,68 Virginia Ave,Staten  Island,NY,10305,475000,3,1.5,Staten  Island,1020,2500,1910,178,466,,Active,,,http://www.redfin.com/NY/Staten-Island/68-Virginia-Ave-10305/home/56113212,BNYMLS,431834,N,Y,40.6144109,-74.069236
MLS Listing,,Condo/Co-op,90-11 35 Th Ave Unit 4I,Jackson Heights,NY,11372,498000,2,1,Co-Op,972,,1956,179,512,,Active,,,http://www.redfin.com/NY/Flushing/90-11-35th-Ave-11372/unit-4I/home/167614820,MLSLI,3148335,N,Y,40.7528037,-73.876822
MLS Listing,,Single Family Residential,145-36 130 Ave,Jamaica,NY,11436,499900,3,3,Jamaica,,2000,1930,182,,,Active,,,http://www.redfin.com/NY/Jamaica/145-36-130th-Ave-11436/home/20710330,MLSLI,3147254,N,Y,40.670186,-73.792963
MLS Listing,,Townhouse,1541 E 52nd St,Brooklyn,NY,11234,494500,3,1,Brooklyn,,1800,1925,185,,,Active,,,http://www.redfin.com/NY/Brooklyn/1541-E-52nd-St-11234/home/40880611,MLSLI,3146881,N,Y,40.6220319,-73.9250741
MLS Listing,,Multi-Family (2-4 Unit),497 E 94th St,Brooklyn,NY,11212,499000,5,2,Brooklyn,,2000,1920,186,,,Active,,,http://www.redfin.com/NY/Brooklyn/497-E-94th-St-11212/home/40773450,MLSLI,3146396,N,Y,40.655349,-73.9173819
MLS Listing,,Single Family Residential,2778 Bainbridge Ave,Bronx,NY,10458,485000,7,3.5,Bedford Park,,2875,1910,186,,,Active,,,http://www.redfin.com/NY/The-Bronx/2778-Bainbridge-Ave-10458/home/44713863,MLSLI,3146339,N,Y,40.867515,-73.889076
MLS Listing,,Single Family Residential,216 Ada Dr,Staten  Island,NY,10314,475000,4,1.75,Staten  Island,1288,2530,1978,186,369,,Active,,,http://www.redfin.com/NY/Staten-Island/216-Ada-Dr-10314/home/56082619,BNYMLS,431566,N,Y,40.620775,-74.161834
MLS Listing,,Single Family Residential,231-56 Mentone Ave,Laurelton,NY,11413,489000,3,2.5,Laurelton,,3100,1940,189,,,Active,,,http://www.redfin.com/NY/Jamaica/231-56-Mentone-Ave-11413/home/20694645,MLSLI,3145299,N,Y,40.666623,-73.742857
MLS Listing,,Condo/Co-op,42-20 Kissena Blvd Unit D9,Flushing,NY,11355,498888,2,1,Yorkshire Garden,1153,,1926,189,433,494,Active,,,http://www.redfin.com/NY/Flushing/4220-Kissena-Blvd-11355/unit-D9/home/20854727,MLSLI,3144952,N,Y,40.7563855,-73.8266422
MLS Listing,,Single Family Residential,11 Bayview Ave,Lawrence,NY,11559,489000,3,2,Lawrence,,3800,1991,194,,,Active,,,http://www.redfin.com/NY/LAWRENCE/11-BAYVIEW-AVE-11559/home/20386956,MLSLI,3144112,N,Y,40.634818,-73.743662
MLS Listing,,Condo/Co-op,201-02 Rocky Hill Rd Unit L2,Bayside,NY,11361,499888,2,1,Rocky Hill Condominiums,,,1949,200,,517,Active,,,http://www.redfin.com/NY/Queens/20102-Rocky-Hill-Rd-11361/unit-L2/home/167143091,MLSLI,3142413,N,Y,40.753395,-73.7780923
MLS Listing,,Single Family Residential,527 Saratoga Ave,Brooklyn,NY,11212,499000,4,2.5,Brooklyn,,2000,1987,201,,,Active,,,http://www.redfin.com/NY/Brooklyn/527-Saratoga-Ave-11212/home/40752698,MLSLI,3141905,N,Y,40.6680521,-73.9168195
MLS Listing,,Single Family Residential,64 Lorrain Ave,Staten Island,NY,10312,489900,3,4,Annandale,1394,1955,2004,213,351,,Active,,,http://www.redfin.com/NY/Staten-Island/64-Lorrain-Ave-10312/home/56119889,SIBORMLS,1129840,N,Y,40.5419933,-74.1752387
MLS Listing,,Multi-Family (2-4 Unit),754 E 84th St,Brooklyn,NY,11236,500000,7,3,Brooklyn,,2325,1965,215,,,Active,,,http://www.redfin.com/NY/Brooklyn/754-E-84th-St-11236/home/40885585,MLSLI,3137642,N,Y,40.6377219,-73.911108
MLS Listing,,Condo/Co-op,Unit at 1020 Grand Concourse,Bronx,NY,10452,475000,2,2,Concourse,,,,217,,,Active,,,http://www.redfin.com/NY/Bronx/1020-Grand-Concourse-10452/home/167076274,REBNY,UCOM1828801,N,Y,40.8376318,-73.9212858
MLS Listing,,Condo/Co-op,Unit at 414 Elmwood Ave,Brooklyn,NY,11230,499950,2,2,Midwood,,,,217,,,Active,,,http://www.redfin.com/NY/Brooklyn/414-Elmwood-Ave-11230/home/108526673,REBNY,KWNY232415,N,Y,40.6272116,-73.9729292
MLS Listing,,Single Family Residential,218-19 132nd Ave,Laurelton,NY,11413,495000,3,2.5,Laurelton,1064,4000,1925,217,465,,Active,,,http://www.redfin.com/NY/Jamaica/218-19-132nd-Ave-11413/home/20700513,MLSLI,3136855,N,Y,40.68241,-73.748857
MLS Listing,,Townhouse,65 Mountainview Ave,Staten Island,NY,10314,480000,2,1,Castletn Corner,2160,4170,1928,222,222,,Active,,,http://www.redfin.com/NY/Staten-Island/65-Mountainview-Ave-10314/home/56058711,SIBORMLS,1129582,N,Y,40.6109959,-74.1264725
MLS Listing,,Townhouse,415 Beach 37th St,Far Rockaway,NY,11691,495000,3,2,Far Rockaway,,2474,2008,222,,,Active,,,http://www.redfin.com/NY/Far-Rockaway/415-Beach-37th-St-11691/home/20676193,MLSLI,3135580,N,Y,40.5965795,-73.770036
MLS Listing,,Single Family Residential,128-43 226 St,Laurelton,NY,11413,475000,3,2,Laurelton,1148,10518,1945,223,414,,Active,,,http://www.redfin.com/NY/Jamaica/128-43-226th-St-11413/home/20701058,BNYMLS,430568,N,Y,40.6836,-73.739829
MLS Listing,,Single Family Residential,157 Vulcan St,Staten Island,NY,10305,499999,3,2,South Beach,1700,2920,1925,224,294,,Active,,,http://www.redfin.com/NY/Staten-Island/157-Vulcan-St-10305/home/56081868,SIBORMLS,1129491,N,Y,40.5886708,-74.0739735
MLS Listing,,Townhouse,87-45 88th St,Woodhaven,NY,11421,499999,2,1,Woodhaven,1104,1314,1915,225,453,,Active,,,http://www.redfin.com/NY/Jamaica/87-45-88th-St-11421/home/20785219,MLSLI,3134307,N,Y,40.6914937,-73.8556987
MLS Listing,,Condo/Co-op,Unit at 1100 Grand Concourse,Bronx,NY,10451,499000,3,2,Concourse,,,,235,,,Active,,,http://www.redfin.com/NY/The-Bronx/1100-Grand-Concourse-10456/home/44801672,REBNY,SPIR703835,N,Y,40.831991,-73.919124
MLS Listing,,Condo/Co-op,150 Beach 123 St Unit 2L,Queens,NY,11694,495000,2,2,Queens,1325,,1982,236,374,,Active,,,http://www.redfin.com/NY/Rockaway-Park/150-Beach-123rd-St-11694/unit-2L/home/166808347,BNYMLS,430184,N,Y,40.576525,-73.8420442
MLS Listing,,Single Family Residential,11542 Inwood St,Jamaica,NY,11436,500000,2,2,Jamaica,1071,4000,1930,245,467,,Active,,,http://www.redfin.com/NY/Jamaica/115-42-Inwood-St-11436/home/20717081,MLSLI,3128312,N,Y,40.682087,-73.796925
MLS Listing,,Townhouse,196 Elm St,Staten Island,NY,10310,479000,4,2,Randall Manor,1440,4620,1925,250,333,,Active,,,http://www.redfin.com/NY/Staten-Island/196-Elm-St-10310/home/56013772,SIBORMLS,1128706,N,Y,40.6368958,-74.1138339
MLS Listing,,Single Family Residential,87-46 109th St,Richmond Hill,NY,11418,485000,3,1,Richmond Hill,1411,2000,1920,251,344,,Active,,,http://www.redfin.com/NY/Jamaica/87-46-109th-St-11418/home/20775186,MLSLI,3126423,N,Y,40.694545,-73.838407
MLS Listing,,Single Family Residential,178 Wellington Rd,Elmont,NY,11003,500000,3,1.5,Elmont,1800,5000,1947,255,278,,Active,,,http://www.redfin.com/NY/Elmont/178-Wellington-Rd-11003/home/20473911,MLSLI,3125195,N,Y,40.7042474,-73.725237
MLS Listing,,Condo/Co-op,Unit at 5900 Arlington Ave,Bronx,NY,10471,495000,2,1,Riverdale,,,,262,,,Active,,,http://www.redfin.com/NY/The-Bronx/5900-Arlington-Ave-10471/home/143429779,REBNY,UCOM1777988,N,Y,40.9092281,-73.9056859
MLS Listing,,Condo/Co-op,Unit at 2127 First Ave,New York,NY,10029,480000,3,1.5,East Harlem,,,,266,,,Active,,,http://www.redfin.com/NY/New-York/2127-1st-Ave-10029/home/163305634,REBNY,UCOM1819187,N,Y,40.7919506,-73.9387146
MLS Listing,,Condo/Co-op,Unit at 137 W 142nd St,New York,NY,10030,475000,2,1,Mt. Morris Park,,,,270,,,Active,,,http://www.redfin.com/NY/New-York/137-W-142nd-St-10030/home/162623490,REBNY,FOXW16628,N,Y,40.8192799,-73.9389442
MLS Listing,,Townhouse,137-66 westgate St,Springfield Gdns,NY,11413,499000,3,1.5,Springfield Gdns,,2760,1930,270,,,Active,,,http://www.redfin.com/NY/Springfield-Gardens/13766-Westgate-St-11413/home/20690908,MLSLI,3120448,N,Y,40.672922,-73.760663
MLS Listing,,Single Family Residential,2549 Mickle Ave,Bronx,NY,10469,495000,3,1.5,Bronx,1360,2500,1950,272,364,,Active,,,http://www.redfin.com/NY/The-Bronx/2549-Mickle-Ave-10469/home/44741042,HGMLS,4922100,N,Y,40.864502,-73.8409759
MLS Listing,,Multi-Family (2-4 Unit),116-16 167th St,Jamaica,NY,11434,479000,4,2,Jamaica,,3000,1925,272,,,Active,,,http://www.redfin.com/NY/Jamaica/116-16-167th-St-11434/home/20712140,MLSLI,3119719,N,Y,40.686502,-73.780516
MLS Listing,,Condo/Co-op,71-77 159th St Unit 3D,Fresh Meadows,NY,11365,499000,2,1,condo,,,2011,273,,275,Active,,,http://www.redfin.com/NY/Fresh-Meadows/71-77-159th-St-11365/unit-3D/home/59308149,MLSLI,3119566,N,Y,40.7281289,-73.8096366
MLS Listing,,Condo/Co-op,24 Pennyfield Ave Unit 3C,Bronx,NY,10465,475000,3,2,Bronx,1200,36847,2001,277,396,425,Active,,,http://www.redfin.com/NY/The-Bronx/24-Pennyfield-Ave-10465/unit-3C/home/44801998,HGMLS,4920642,N,Y,40.8098551,-73.8023425
MLS Listing,,Single Family Residential,105-43 86th St,Ozone Park,NY,11417,495000,2,2,Ozone Park,,2500,1920,283,,,Active,,,http://www.redfin.com/NY/Jamaica/105-43-86th-St-11417/home/20777278,MLSLI,3116519,N,Y,40.678598,-73.8516719
MLS Listing,,Single Family Residential,2075 North Railroad Ave,Staten  Island,NY,10306,499000,3,1,Staten  Island,1150,4953,1950,292,434,,Active,,,http://www.redfin.com/NY/Staten-Island/2075-N-Railroad-Ave-10306/home/56018930,BNYMLS,428428,N,Y,40.5602045,-74.1328734
MLS Listing,,Multi-Family (2-4 Unit),116-38 192nd St,St. Albans,NY,11412,500000,6,4,Saint Alban Heights,,5000,1920,293,,,Active,,,http://www.redfin.com/NY/Jamaica/116-38-192nd-St-11412/home/20737697,MLSLI,3112822,N,Y,40.692981,-73.759962
MLS Listing,,Condo/Co-op,Unit at 1919 Madison Ave,New York,NY,10035,499000,2,1,East Harlem,,,,293,,,Active,,,http://www.redfin.com/NY/New-York/1919-Madison-Ave-10035/home/160759516,REBNY,KWNY230308,N,Y,40.8045686,-73.9410797
MLS Listing,,Single Family Residential,1331 Richmond Ave,Staten Island,NY,10314,489999,3,2,Graniteville,1504,3328,1899,300,326,,Active,,,http://www.redfin.com/NY/Staten-Island/1331-Richmond-Ave-10314/home/56121361,SIBORMLS,1127131,N,Y,40.6157196,-74.1567737
MLS Listing,,Condo/Co-op,408 121 St #26,Queeens,NY,11356,495000,4,3,Queeens,829,,1981,305,597,,Active,,,http://www.redfin.com/NY/Flushing/408-121st-St-11356/unit-26/home/20875860,BNYMLS,427996,N,Y,40.793093,-73.8462626
MLS Listing,,Condo/Co-op,327 Surf Dr,Bronx,NY,10473,489000,3,2,Bronx,1311,,2007,321,373,494,Active,,,http://www.redfin.com/NY/The-Bronx/327-Surf-Dr-10473/home/44804991,HGMLS,4910256,N,Y,40.806515,-73.853434
MLS Listing,,Condo/Co-op,Unit at 4313 Ninth Ave,Brooklyn,NY,11232,495000,2,1,Sunset Park,,,,322,,,Active,,,http://www.redfin.com/NY/Brooklyn/4313-9th-Ave-11232/home/40679881,REBNY,CORC5676725,N,Y,40.643159,-73.997575
MLS Listing,,Condo/Co-op,62 Heron Ln #392,Bronx,NY,10473,483001,3,2,Bronx,1206,,2008,324,400,415,Active,,,http://www.redfin.com/NY/The-Bronx/62-Heron-Ln-10473/unit-392/home/44770294,HGMLS,4909746,N,Y,40.8056718,-73.8505883
MLS Listing,,Multi-Family (2-4 Unit),52 Beach St,Staten Island,NY,10304,499000,6,3,Stapleton,2552,3125,1899,326,196,,Active,,,http://www.redfin.com/NY/Staten-Island/52-Beach-St-10304/home/56117846,SIBORMLS,1126436,N,Y,40.627804,-74.0781343
MLS Listing,,Condo/Co-op,Unit at 92 -21 77th St,Queens,NY,11421,475000,3,1.5,Jamaica,,,,333,,,Active,,,http://www.redfin.com/NY/Jamaica/92-48-77th-St-11421/home/160465349,REBNY,HGLR3198,N,Y,40.684223,-73.863323
MLS Listing,,Single Family Residential,238-60 116th Ave,Elmont,NY,11003,487000,3,2,Elmont,,5047,1947,339,,,Active,,,http://www.redfin.com/NY/Elmont/238-60-116th-Ave-11003/home/20465399,MLSLI,3099739,N,Y,40.6919462,-73.7221108
MLS Listing,,Single Family Residential,94-17 132nd St,Richmond Hill,NY,11419,489000,2,1,Richmond Hill,,2017,1920,346,,,Active,,,http://www.redfin.com/NY/South-Richmond-Hill/94-17-132nd-St-11419/home/20773455,MLSLI,3097957,N,Y,40.6959839,-73.8166103
MLS Listing,,Multi-Family (2-4 Unit),86 Simonson Pl,Staten  Island,NY,10302,498000,5,2,Staten  Island,1276,2500,1930,363,390,,Active,,,http://www.redfin.com/NY/Staten-Island/86-Simonson-Pl-10302/home/56091931,BNYMLS,426449,N,Y,40.6327263,-74.1314627
MLS Listing,,Single Family Residential,55 Geo Ct,Staten  Island,NY,10304,475000,3,2.5,Staten  Island,1180,1463,2004,371,403,,Active,,,http://www.redfin.com/NY/Staten-Island/55-Geo-Ct-10304/home/56134309,BNYMLS,426196,N,Y,40.6136866,-74.0770788
MLS Listing,,Single Family Residential,16 Iroquois St,Staten Island,NY,10305,479000,3,3,Midland Beach,1260,1500,2018,392,380,,Active,,,http://www.redfin.com/NY/Staten-Island/16-Iroquois-St-10305/home/56102306,SIBORMLS,1124837,N,Y,40.5747855,-74.0861075
MLS Listing,,Single Family Residential,1006 Throggs Neck Expy,Bronx,NY,10465,485000,3,2.5,Bronx,1620,2243,1960,452,299,,Active,,,http://www.redfin.com/NY/The-Bronx/1006-Throgs-Neck-Expy-10465/unit-SR/home/44792784,HGMLS,4848744,N,Y,40.833539,-73.821383
MLS Listing,,Townhouse,4 Van Siclen Ct,Brooklyn,NY,11207,498000,4,2.5,Brooklyn,,1660,1910,464,,,Active,,,http://www.redfin.com/NY/Brooklyn/4-Van-Siclen-Ct-11207/home/40757488,MLSLI,3071402,N,Y,40.68092,-73.892515
MLS Listing,,Condo/Co-op,Unit at 920 E 17th St,Brooklyn,NY,11230,475000,2,1,Midwood,,,,522,,,Active,,,http://www.redfin.com/NY/Unknown/920-E-17th-St-11230/home/146523376,REBNY,UCOM1769178,N,Y,40.6286848,-73.9608229
MLS Listing,,Single Family Residential,126 Neptune Ave,Brooklyn,NY,11235,500000,4,2,Brooklyn,1134,1786,1930,669,441,,Active,,,http://www.redfin.com/NY/Brooklyn/126-Neptune-Ave-11235/home/40906599,BNYMLS,418602,N,Y,40.5821818,-73.9580838
MLS Listing,,Single Family Residential,131 Ridgeway Ave,Staten Island,NY,10314,475000,3,3,Travis,1202,1517,2004,857,395,,Active,,,http://www.redfin.com/NY/Staten-Island/131-Ridgeway-Ave-10314/home/56118930,SIBORMLS,1113518,N,Y,40.5941315,-74.1837318
MLS Listing,,Single Family Residential,218-03 135th Ave,Laurelton,NY,11413,485000,3,1.5,Laurelton,2100,6242,1930,886,231,,Active,,,http://www.redfin.com/NY/Jamaica/218-03-135th-Ave-11413/home/20699936,MLSLI,2962281,N,Y,40.678343,-73.752064
MLS Listing,,Condo/Co-op,Unit at 870 Riverside Dr,New York,NY,10032,499000,2,1,Washington Heights,,,,950,,,Active,,,http://www.redfin.com/NY/New-York/870-Riverside-Dr-10032/home/113112562,REBNY,HALS14373354,N,Y,40.8368699,-73.9464985
MLS Listing,,Single Family Residential,331 Beach 45,Far Rockaway,NY,11691,489000,5,3,Far Rockaway,,2700,1930,976,,,Active,,,http://www.redfin.com/NY/Far-Rockaway/331-B-45-St-11691/home/20674134,MLSLI,2937662,N,Y,40.5945806,-73.7765827
For-Sale-by-Owner Listing,,Single Family Residential,984 Schenck Ave,Brooklyn,NY,11207,499000,2,2.5,Brooklyn,1066,,,54,468,,Active,,,http://www.redfin.com/NY/Brooklyn/984-Schenck-Ave-11207/home/40768709,FSBO.com,514231,N,Y,40.656295,-73.880667
