SALE TYPE,SOLD DATE,PROPERTY TYPE,ADDRESS,CITY,STATE OR PROVINCE,ZIP OR POSTAL CODE,PRICE,BEDS,BATHS,LOCATION,SQUARE FEET,LOT SIZE,YEAR BUILT,DAYS ON MARKET,$/SQUARE FEET,HOA/MONTH,STATUS,NEXT OPEN HOUSE START TIME,NEXT OPEN HOUSE END TIME,URL (SEE http://www.redfin.com/buy-a-home/comparative-market-analysis FOR INFO ON PRICING),SOURCE,MLS#,FAVORITE,INTERESTED,LATITUDE,LONGITUDE
MLS Listing,,Condo/Co-op,70-61 Park Dr,Flushing,NY,11367,544000,2,1,Regent,850,,1960,2,640,,Active,,,http://www.redfin.com/NY/Flushing/7061-Park-Dr-E-11367/home/170270413,MLSLI,3191137,N,Y,40.72601,-73.8295693
MLS Listing,,Condo/Co-op,Unit at 448 Neptune Ave,Brooklyn,NY,11224,535000,2,2,Brighton Beach,,,,2,,,Active,,,http://www.redfin.com/NY/Brooklyn/448-Neptune-Ave-11224/home/170270305,REBNY,DEGI4076220,N,Y,40.5788982,-73.9700091
MLS Listing,,Multi-Family (2-4 Unit),85-08 95th Ave,Ozone Park,NY,11416,550000,2,2,Ozone Park,,2000,1922,3,,,Active,January-15-2020 01:00 PM,January-15-2020 03:00 PM,http://www.redfin.com/NY/Jamaica/85-08-95th-Ave-11416/home/20784148,MLSLI,3191041,N,Y,40.684568,-73.855485
MLS Listing,,Condo/Co-op,63-60 102nd St Unit A2,Rego Park,NY,11374,549000,2,1,New Hampshire House,1106,36800,1949,3,496,579,Active,,,http://www.redfin.com/NY/Flushing/6360-102nd-St-11374/unit-A2/home/20915367,MLSLI,3191000,N,Y,40.7319691,-73.8541569
MLS Listing,,Condo/Co-op,18 Landing Way #46,Bronx,NY,10464,525000,2,2.5,Bronx,1571,230876,1981,3,334,850,Active,,,http://www.redfin.com/NY/The-Bronx/18-Landing-Way-10464/unit-46/home/44803422,HGMLS,6003396,N,Y,40.8466261,-73.7834167
MLS Listing,,Condo/Co-op,70-25 Yellowstone Blvd Unit 20D,Forest Hills,NY,11375,549000,2,1,Gerard Towers,,,1964,3,,,Active,,,http://www.redfin.com/NY/Forest-Hills/7025-Yellowstone-Blvd-11375/unit-20D/home/169051194,MLSLI,3190955,N,Y,40.7226213,-73.8493251
MLS Listing,,Single Family Residential,135-07 Foch Blvd,S. Ozone Park,NY,11420,529999,2,2.5,S. Ozone Park,,2075,1945,4,,,Active,,,http://www.redfin.com/NY/Jamaica/135-07-Foch-Blvd-11420/home/20720848,MLSLI,3190511,N,Y,40.67762,-73.804298
MLS Listing,,Condo/Co-op,38-11 108th St Unit 2D,Corona,NY,11368,538000,2,2,Corona Tower Condo,880,,2006,4,611,521,Active,,,http://www.redfin.com/NY/Flushing/38-11-108th-St-11368/unit-2D/home/20664094,MLSLI,3190496,N,Y,40.751989,-73.8591355
MLS Listing,,Single Family Residential,241-02 85th Rd,Bellerose,NY,11426,549000,2,2,Bellerose,600,3610,1920,4,915,,Active,,,http://www.redfin.com/NY/Jamaica/241-02-85th-Rd-11426/home/20588563,MLSLI,3190481,N,Y,40.7324399,-73.72514
MLS Listing,,Single Family Residential,289 Pacific Ave,Staten Island,NY,10312,529999,2,1,Eltingville,912,4000,1950,5,581,,Active,,,http://www.redfin.com/NY/Staten-Island/289-Pacific-Ave-10312/home/56055043,SIBORMLS,1134692,N,Y,40.5424486,-74.1584289
MLS Listing,,Condo/Co-op,13-22 Bell Blvd Unit Duplex,Bayside,NY,11360,519000,2,1,Bay Terrace Garden #1,,,1954,6,,,Active,,,http://www.redfin.com/NY/Bayside/13-22-Bell-Blvd-11360/unit-DUPLEX/home/50268490,MLSLI,3189996,N,Y,40.7881256,-73.781561
MLS Listing,,Condo/Co-op,155 Bay St Unit 5j,Staten Island,NY,10301,550000,2,2,St. George,1248,1248,2005,6,441,818,Active,,,http://www.redfin.com/NY/Staten-Island/155-Bay-St-10301/unit-5J/home/56135514,SIBORMLS,1134676,N,Y,40.638148,-74.0756332
MLS Listing,,Condo/Co-op,87-30 62nd Ave Unit 6C,Rego Park,NY,11374,509000,2,1.5,Austin Towers,858,33649,1989,6,593,536,Active,,,http://www.redfin.com/NY/Rego-Park/87-30-62nd-Ave-11374/unit-6C/home/20899097,MLSLI,3189842,N,Y,40.7284524,-73.8683238
MLS Listing,,Condo/Co-op,85-11 34 Ave Unit 6D,Jackson Heights,NY,11372,535000,2,1,Jackson Heights,850,,1951,7,629,367,Active,,,http://www.redfin.com/NY/Jackson-Heights/85-11-34th-Ave-11372/unit-6D/home/20929146,MLSLI,3189814,N,Y,40.7543537,-73.8818757
MLS Listing,,Condo/Co-op,Unit at 130 Lenox Ave,New York,NY,10026,515000,2,1,West Harlem,,,,7,,,Active,,,http://www.redfin.com/NY/New-York/130-Lenox-Ave-10026/home/170221504,REBNY,UCOM1864564,N,Y,40.8021896,-73.9491979
MLS Listing,,Condo/Co-op,Unit at 130 Lenox Ave,New York,NY,10026,525000,2,1,West Harlem,,,,7,,,Active,,,http://www.redfin.com/NY/New-York/130-Malcolm-X-Blvd-10026/home/45163555,REBNY,UCOM116317,N,Y,40.8023312,-73.9494559
MLS Listing,,Condo/Co-op,Unit at 1155 Ocean Ave,Brooklyn,NY,11230,550000,2,1,Flatbush,,,,7,,,Active,,,http://www.redfin.com/NY/Brooklyn/1155-Ocean-Ave-11230/home/40659413,REBNY,MAIS357081,N,Y,40.6341788,-73.9577031
MLS Listing,,Condo/Co-op,Unit at 320 E 42nd St,New York,NY,10017,500000,2,2,Murray Hill Kips Bay,,,,7,,,Active,,,http://www.redfin.com/NY/New-York/320-E-42nd-St-10017/home/148705051,REBNY,CORC5957576,N,Y,40.7492776,-73.9714601
MLS Listing,,Condo/Co-op,2925 Brighton 8 St Unit 1A,Brooklyn,NY,11235,544900,2,2,Brooklyn,1060,,2004,9,514,,Active,,,http://www.redfin.com/NY/Brooklyn/2925-Brighton-8th-St-11235/unit-1A/home/40662012,BNYMLS,435675,N,Y,40.5811002,-73.9607448
MLS Listing,,Single Family Residential,1229 East 87 St,Brooklyn,NY,11236,525000,2,1.75,Brooklyn,1160,2833,1935,10,453,,Active,,,http://www.redfin.com/NY/Brooklyn/1229-E-87th-St-11236/home/40888551,BNYMLS,435667,N,Y,40.6333962,-73.9018918
MLS Listing,,Condo/Co-op,1208 Sheepshead Bay Rd Unit 2A,Brooklyn,NY,11235,536000,2,1,Brooklyn,831,,1988,10,645,,Active,,,http://www.redfin.com/NY/Brooklyn/1208-Sheepshead-Bay-Rd-11235/unit-2A/home/40865480,BNYMLS,435544,N,Y,40.5904462,-73.9571859
MLS Listing,,Single Family Residential,13 Admiralty Loop,Staten Island,NY,10309,539000,2,3,Princes Bay,2112,1660,1989,11,255,250,Active,,,http://www.redfin.com/NY/Staten-Island/13-Admiralty-Loop-10309/home/56108655,SIBORMLS,1134531,N,Y,40.514346,-74.201482
MLS Listing,,Single Family Residential,178-11 119th Rd,Jamaica,NY,11434,549000,2,2,Jamaica,,4000,1925,11,,,Active,,,http://www.redfin.com/NY/Jamaica/178-11-119th-Rd-11434/home/20705424,MLSLI,3188554,N,Y,40.687103,-73.766448
MLS Listing,,Condo/Co-op,49-07 108th St Unit 1 A,Corona,NY,11368,509000,2,1,108 Condominium,900,1072,2007,12,566,220,Active,,,http://www.redfin.com/NY/Corona/4907-108th-St-11368/unit-1A/home/20629295,MLSLI,3188398,N,Y,40.7450934,-73.8555522
MLS Listing,,Condo/Co-op,Unit at 87 -10 51st Ave,Queens,NY,11373,550000,2,1,Elmhurst,,,,12,,,Active,,,http://www.redfin.com/NY/Flushing/87-05-51st-Ave-11373/home/170192795,REBNY,HDAX1293,N,Y,40.739145,-73.8763029
MLS Listing,,Condo/Co-op,87-10 51st Ave Unit 3A,Elmhurst,NY,11373,550000,2,1,The Continental Park,925,,1962,13,595,,Active,,,http://www.redfin.com/NY/Flushing/87-10-51st-Ave-11373/unit-3A/home/20637440,MLSLI,3188337,N,Y,40.7385497,-73.8759989
MLS Listing,,Single Family Residential,191 Rosedale Ave,Staten Island,NY,10312,519000,2,3,Huguenot,1594,2010,1990,16,326,,Active,,,http://www.redfin.com/NY/Staten-Island/191-Rosedale-Ave-10312/home/56057953,SIBORMLS,1134474,N,Y,40.547386,-74.195866
MLS Listing,,Condo/Co-op,118-17 Union Tpke Unit 4H,Forest Hills,NY,11375,529000,2,2,Park Lane North,1200,,1973,17,441,,Active,,,http://www.redfin.com/NY/Forest-Hills/118-17-Union-Tpke-11375/unit-4H/home/28684408,MLSLI,3187850,N,Y,40.7129779,-73.8345967
MLS Listing,,Single Family Residential,844 Hollywood Ave,Bronx,NY,10465,520000,2,1.5,Bronx,1292,2500,1920,18,402,,Active,January-18-2020 02:00 PM,January-18-2020 03:00 PM,http://www.redfin.com/NY/The-Bronx/844-Hollywood-Ave-10465/home/44759558,HGMLS,5129365,N,Y,40.8305442,-73.8215855
MLS Listing,,Condo/Co-op,84-10 101 St Unit 2-O,Richmond Hill,NY,11418,525000,2,1.5,Condominium,1081,,1890,24,486,,Active,,,http://www.redfin.com/NY/Richmond-Hill/84-10-101st-St-11418/unit-2O/home/20781371,MLSLI,3187227,N,Y,40.6979652,-73.8481381
MLS Listing,,Single Family Residential,332 Wilson Ave,Staten Island,NY,10312,525000,2,2,Eltingville,1168,8840,1920,24,449,,Active,,,http://www.redfin.com/NY/Staten-Island/332-Wilson-Ave-10312/home/56032910,SIBORMLS,1134407,N,Y,40.5464327,-74.1625189
MLS Listing,,Condo/Co-op,104-59 38 Ave Unit 2B,Corona,NY,11368,518000,2,1,N/A,,,2009,26,,180,Active,,,http://www.redfin.com/NY/Corona/104-59-38th-Ave-11368/unit-2B/home/37047455,MLSLI,3186835,N,Y,40.752504,-73.861096
MLS Listing,,Condo/Co-op,5800 Arlington Ave Unit 7C,Bronx,NY,10471,525000,2,2,Bronx,1150,,1960,27,457,,Active,,,http://www.redfin.com/NY/The-Bronx/5800-Arlington-Ave-10471/unit-7C/home/170123515,HGMLS,5127407,N,Y,40.9080135,-73.9055787
MLS Listing,,Condo/Co-op,220 Bay 44th St Unit 220B,Brooklyn,NY,11214,525000,2,1.75,Brooklyn,987,,1993,28,532,,Active,,,http://www.redfin.com/NY/Brooklyn/220-Bay-44th-St-11214/unit-220B/home/40849490,BNYMLS,435391,N,Y,40.590005,-73.9897645
MLS Listing,,Condo/Co-op,Unit at 21 -41 34th Ave,Queens,NY,11106,517000,2,1,Long Island City,,,,29,,,Active,,,http://www.redfin.com/NY/Queens/21-15-34th-Ave-11106/home/170107318,REBNY,MOSP1862745,N,Y,40.7632487,-73.9329541
MLS Listing,,Condo/Co-op,Unit at 239 W 148th St,New York,NY,10039,550000,2,1,Harlem,,,,31,,,Active,,,http://www.redfin.com/NY/New-York/239-W-148th-St-10039/home/45169707,REBNY,DEGI4047773,N,Y,40.8246846,-73.9398168
MLS Listing,,Single Family Residential,111-42 147 St,Jamaica,NY,11435,539000,2,2.5,Jamaica,,2000,1925,32,,,Active,,,http://www.redfin.com/NY/Jamaica/11142-147th-St-11435/home/20714354,MLSLI,3185860,N,Y,40.6866949,-73.7970234
MLS Listing,,Condo/Co-op,Unit at 3810 Broadway,New York,NY,10032,545000,2,1,Washington Heights,,,,32,,,Active,,,http://www.redfin.com/NY/New-York/3810-Broadway-10032/home/45229800,REBNY,DEGI4047634,N,Y,40.8349812,-73.9439045
MLS Listing,,Condo/Co-op,60-11 Broadway Unit 6V,Woodside,NY,11377,535888,2,1,Henderson Apartments,,,1960,33,,,Active,,,http://www.redfin.com/NY/Woodside/6011-Broadway-11377/unit-6V/home/102812609,MLSLI,3185796,N,Y,40.75136,-73.901432
MLS Listing,,Condo/Co-op,1680 Ocean Ave Unit 3B,Brooklyn,NY,11230,509000,2,2,Brooklyn,1517,,1935,34,336,,Active,,,http://www.redfin.com/NY/Brooklyn/1680-Ocean-Ave-11230/unit-3B/home/103487874,BNYMLS,435274,N,Y,40.6211681,-73.9559582
MLS Listing,,Condo/Co-op,37-50 87th St Unit 5F,Jackson Heights,NY,11372,515000,2,1,Monticello,,,1950,35,,,Active,,,http://www.redfin.com/NY/Jackson-Heights/3750-87th-St-11372/unit-5F/home/28625606,MLSLI,3185257,N,Y,40.748944,-73.8797307
MLS Listing,,Condo/Co-op,61-55 98th St Unit 8D,Rego Park,NY,11374,550000,2,1.5,Park City Estates,1200,,1960,35,458,,Active,,,http://www.redfin.com/NY/Rego-Park/61-55-98th-St-11374/unit-8D/home/21454322,MLSLI,3185205,N,Y,40.7335541,-73.8596902
MLS Listing,,Condo/Co-op,Unit at 102 -10 66th Rd,Queens,NY,11375,505000,2,1,Queens ( Other),,,,38,,,Active,,,http://www.redfin.com/NY/Forest-Hills/102-33-66th-Rd-11375/home/170020872,REBNY,KIAN533748,N,Y,40.7286368,-73.850485
MLS Listing,,Single Family Residential,4A Garden St,Staten  Island,NY,10314,529000,2,1,Staten  Island,1680,1400,1988,39,315,,Active,,,http://www.redfin.com/NY/Staten-Island/4A-Garden-St-10314/home/168675600,BNYMLS,435174,N,Y,40.611766,-74.122327
MLS Listing,,Condo/Co-op,319 E 105th St Unit 2C,New York,NY,10029,524900,2,1,New York,721,,1950,41,728,700,Active,,,http://www.redfin.com/NY/New-York/319-E-105th-St-10029/unit-2C/home/45298606,HGMLS,5123972,N,Y,40.7897278,-73.9417915
MLS Listing,,Condo/Co-op,61-20 Grand Central Pkwy Unit B1103,Forest Hills,NY,11375,549888,2,2,The Fairview,,,1965,41,,,Active,,,http://www.redfin.com/NY/Forest-Hills/61-20-Grand-Central-Pkwy-11375/unit-B1103/home/50258101,MLSLI,3183861,N,Y,40.7380691,-73.8473845
MLS Listing,,Condo/Co-op,Unit at 1615 Ave I,Brooklyn,NY,11230,539000,2,1,Midwood,,,,42,,,Active,,,http://www.redfin.com/NY/Brooklyn/1615-Avenue-I-11230/home/169996534,REBNY,UCOM1861138,N,Y,40.6281935,-73.960305
MLS Listing,,Condo/Co-op,Unit at 920 E 17th St,Brooklyn,NY,11230,525000,2,1,Midwood,,,,42,,,Active,,,http://www.redfin.com/NY/Brooklyn/920-E-17th-St-11230/home/55627109,REBNY,UCOM1276759,N,Y,40.6279398,-73.9601586
MLS Listing,,Condo/Co-op,105-24 64th Rd Unit 4M,Forest Hills,NY,11375,529000,2,1,Boulevard Tenants Corp.,,,1950,42,,,Active,,,http://www.redfin.com/NY/Forest-Hills/105-24-64th-Rd-11375/unit-4M/home/92322774,MLSLI,3183584,N,Y,40.7315233,-73.8504063
MLS Listing,,Condo/Co-op,5 Leeward Ln Unit 2-4,Bronx,NY,10464,529000,2,2.5,Bronx,1537,,1983,44,344,850,Active,,,http://www.redfin.com/NY/The-Bronx/5-Leeward-Ln-10464/unit-24/home/44750245,HGMLS,5122722,N,Y,40.8462285,-73.7830789
MLS Listing,,Condo/Co-op,1543 W 1 St Unit A8,Brooklyn,NY,11204,538000,2,1,Brooklyn,912,,1932,52,590,,Active,,,http://www.redfin.com/NY/Brooklyn/1543-W-1st-St-11204/unit-A8/home/40652127,BNYMLS,434940,N,Y,40.6088324,-73.9747843
MLS Listing,,Condo/Co-op,54-09 108th St Unit 2A,Corona,NY,11368,540000,2,2,0,,,1992,53,,,Active,,,http://www.redfin.com/NY/Corona/54-09-108th-St-11368/unit-2A/home/20918353,MLSLI,3182047,N,Y,40.7419498,-73.8538512
MLS Listing,,Condo/Co-op,515 Avenue I Unit 5F,Brooklyn,NY,11230,530000,2,1,Brooklyn,1200,,1930,58,442,,Active,,,http://www.redfin.com/NY/Brooklyn/515-Avenue-I-11230/unit-5F/home/169857511,BNYMLS,434811,N,Y,40.6266848,-73.9719538
MLS Listing,,Multi-Family (2-4 Unit),137-33 233rd St,Jamaica,NY,11422,525000,2,2,Jamaica,1360,3142,1925,60,386,,Active,,,http://www.redfin.com/NY/Jamaica/137-33-233rd-St-11422/home/20695222,MLSLI,3180500,N,Y,40.6705756,-73.7393407
MLS Listing,,Single Family Residential,3087 Hatting Pl,Bronx,NY,10465,549000,2,1,Bronx,1426,3998,1915,60,385,,Active,,,http://www.redfin.com/NY/The-Bronx/3087-Hatting-Pl-10465/home/44785849,HGMLS,5120103,N,Y,40.8144031,-73.8071103
MLS Listing,,Townhouse,1621 Tenbroeck Ave,Bronx,NY,10461,539000,2,2,Bronx,1512,1999,1935,63,356,,Active,,,http://www.redfin.com/NY/The-Bronx/1621-Tenbroeck-Ave-10461/home/44733251,HGMLS,5117396,N,Y,40.8490189,-73.8472705
MLS Listing,,Condo/Co-op,144-70 41 Ave Unit 5H&6H,Flushing,NY,11355,529000,2,1.5,The Plaza,1200,,1962,64,441,,Active,,,http://www.redfin.com/NY/Flushing/144-70-41st-Ave-11355/unit-5H-6H/home/169770522,MLSLI,3179468,N,Y,40.7610336,-73.8188858
MLS Listing,,Condo/Co-op,Unit at 22 -30 76th St,Queens,NY,11370,539000,2,1,East Elmhurst,,,,66,,,Active,,,http://www.redfin.com/NY/East-Elmhurst/22-31-76th-St-11370/home/169750429,REBNY,BOUK187225,N,Y,40.7684038,-73.8928629
MLS Listing,,Condo/Co-op,144-85 Roosevelt Ave Unit 5E,Flushing,NY,11354,549000,2,1,Roosevelt Plaza,,,2010,66,,466,Active,,,http://www.redfin.com/NY/Flushing/144-85-Roosevelt-Ave-11354/unit-5E/home/28685407,MLSLI,3179243,N,Y,40.762693,-73.8191615
MLS Listing,,Condo/Co-op,Unit at 61 Martense St,Brooklyn,NY,11226,540000,2,1,Flatbush,,,,67,,,Active,,,http://www.redfin.com/NY/Unknown/61-Martense-St-11226/home/146129526,REBNY,CHRS2814411,N,Y,40.6515638,-73.9570602
MLS Listing,,Single Family Residential,135-05 Foch Blvd,S. Ozone Park,NY,11420,500000,2,3,S. Ozone Park,,2075,1925,70,,,Active,,,http://www.redfin.com/NY/Jamaica/135-05-Foch-Blvd-11420/home/20721868,MLSLI,3177872,N,Y,40.6775949,-73.804367
MLS Listing,,Single Family Residential,103-62 101st St,Ozone Park,NY,11417,550000,2,1,Ozone Park,,1354,1925,70,,,Active,,,http://www.redfin.com/NY/Jamaica/103-62-101st-St-11417/home/20771709,MLSLI,3177868,N,Y,40.6819107,-73.8400626
MLS Listing,,Condo/Co-op,110-20 71 Rd #410,Forest Hills,NY,11375,530000,2,1,Ps 196/71st Express,,,1956,73,,,Active,,,http://www.redfin.com/NY/Forest-Hills/11020-71st-Rd-11375/unit-410/home/40001888,MLSLI,3177318,N,Y,40.7216499,-73.84119
MLS Listing,,Condo/Co-op,1549 W 3 St Unit 4B,Brooklyn,NY,11204,530000,2,1.75,Brooklyn,729,,2009,73,727,,Active,,,http://www.redfin.com/NY/Brooklyn/1549-W-3rd-St-11204/unit-4B/home/40929690,BNYMLS,434466,N,Y,40.6097285,-73.9768734
MLS Listing,,Condo/Co-op,141-16 84 Dr Unit 4C,Briarwood,NY,11435,539000,2,2,141-12 84 Dr Realty,847,,2010,74,636,,Active,,,http://www.redfin.com/NY/Jamaica/141-16-84th-Dr-11435/unit-4C/home/40223279,MLSLI,3177051,N,Y,40.7100602,-73.8157841
MLS Listing,,Condo/Co-op,Unit at 260 Ocean Pkwy,Brooklyn,NY,11218,515000,2,1,Kensington,,,,75,,,Active,,,http://www.redfin.com/NY/Brooklyn/260-Ocean-Pkwy-11218/home/40921052,REBNY,GRIF2202,N,Y,40.6428882,-73.9747001
MLS Listing,,Condo/Co-op,856 43 St #2,Brooklyn,NY,11232,548000,2,1,Brooklyn,830,,1922,81,660,,Active,,,http://www.redfin.com/NY/Brooklyn/856-43rd-St-11232/unit-2/home/40647649,BNYMLS,434272,N,Y,40.6441626,-73.9984563
MLS Listing,,Condo/Co-op,Unit at 102 -10 66th Rd,Queens,NY,11375,529000,2,1,Queens ( Other),,,,82,,,Active,,,http://www.redfin.com/NY/Forest-Hills/102-33-66th-Rd-11375/home/169525861,REBNY,KIAN528015,N,Y,40.7286368,-73.850485
MLS Listing,,Condo/Co-op,91-10 34th Ave,Jackson Heights,NY,11372,549000,2,1,Almara Condominium,,13000,1958,84,,255,Active,,,http://www.redfin.com/NY/Jackson-Heights/91-10-34th-Ave-11372/home/20666371,MLSLI,3174477,N,Y,40.7544029,-73.876343
MLS Listing,,Condo/Co-op,43-55 Kissena Blvd Unit 4C,Flushing,NY,11355,525000,2,1,Payson Apartment Corp.,1400,,1950,94,375,,Active,,,http://www.redfin.com/NY/Unknown/43-55-Kissena-Blvd-11355/unit-4C/home/146440313,MLSLI,3172237,N,Y,40.7545034,-73.8228376
MLS Listing,,Condo/Co-op,71-31 Park Ave #1,Fresh Meadows,NY,11365,540000,2,2,Hillcrest Estates,,,1985,94,,,Active,,,http://www.redfin.com/NY/Flushing/7131-Park-Ave-11365/unit-1/home/20821803,MLSLI,3172101,N,Y,40.729615,-73.8086212
MLS Listing,,Single Family Residential,2048 E 63 St,Brooklyn,NY,11234,549900,2,1,Brooklyn,1120,2075,1925,95,491,,Active,,,http://www.redfin.com/NY/Brooklyn/2048-E-63rd-St-11234/home/40898737,BNYMLS,433941,N,Y,40.616566,-73.9140833
MLS Listing,,Condo/Co-op,70 Park Terrace West Unit E42,New York,NY,10034,549000,2,1,New York,975,,1939,97,563,,Active,,,http://www.redfin.com/NY/New-York/70-Park-Ter-W-10034/unit-E42/home/45165704,HGMLS,5095444,N,Y,40.8713797,-73.9170171
MLS Listing,,Condo/Co-op,Unit at 35 Crown St,Brooklyn,NY,11225,525000,2,1,Crown Heights,,,,97,,,Active,,,http://www.redfin.com/NY/Brooklyn/35-Crown-St-11225/home/169301182,REBNY,DWRE104145,N,Y,40.6676664,-73.960619
MLS Listing,,Single Family Residential,130-26 127th St,Wakefield,NY,11420,525000,2,1.5,Wakefield,,2175,1930,98,,,Active,,,http://www.redfin.com/NY/Jamaica/130-26-127th-St-11420/home/20721341,MLSLI,3170721,N,Y,40.671968,-73.8120239
MLS Listing,,Single Family Residential,3155 Avenue W,Brooklyn,NY,11229,514900,2,1.5,Brooklyn,980,1440,1939,103,525,,Active,,,http://www.redfin.com/NY/Brooklyn/3155-Avenue-W-11229/home/40909830,BNYMLS,433768,N,Y,40.5971106,-73.9319178
MLS Listing,,Condo/Co-op,18-15 215 St Unit 9P,Bayside,NY,11360,526000,2,2,Towers At Water's Edge,1200,,1970,103,438,,Active,,,http://www.redfin.com/NY/Bayside/1815-215th-St-11360/unit-9-P/home/20633453,MLSLI,3169312,N,Y,40.7839299,-73.77643
MLS Listing,,Condo/Co-op,87-12 175th St Unit 6B,Jamaica,NY,11432,535000,2,2,Aftab Park,,,2014,106,,369,Active,,,http://www.redfin.com/NY/Jamaica/87-12-175th-St-11432/unit-6B/home/109707139,MLSLI,3168610,N,Y,40.7112649,-73.7878889
MLS Listing,,Single Family Residential,80-17 57th St,Glendale,NY,11385,549999,2,1,Glendale,,2500,1920,107,,,Active,,,http://www.redfin.com/NY/Flushing/80-17-57th-St-11385/home/20879724,MLSLI,3168408,N,Y,40.69329,-73.897035
MLS Listing,,Condo/Co-op,Unit at 1919 Madison Ave,New York,NY,10035,515000,2,1,Mt. Morris Park,,,,109,,,Active,,,http://www.redfin.com/NY/New-York/1919-Madison-Ave-10035/home/45318566,REBNY,BIZA189491,N,Y,40.8045686,-73.9410797
MLS Listing,,Single Family Residential,496 Arden Ave,Staten Island,NY,10312,519000,2,1,Annandale,1100,6000,1940,111,472,,Active,,,http://www.redfin.com/NY/Staten-Island/496-Arden-Ave-10312/home/56104069,SIBORMLS,1132504,N,Y,40.5488832,-74.1856243
MLS Listing,,Condo/Co-op,Unit at 68 -36 Burns St,Queens,NY,11375,530000,2,1,Forest Hills,,,,111,,,Active,,,http://www.redfin.com/NY/Forest-Hills/68-Burns-St-11375/home/169198755,REBNY,CORC5881308,N,Y,40.719224,-73.8449186
MLS Listing,,Condo/Co-op,119 Beach 119th St,Rockaway Park,NY,11694,549000,2,2,Seavon,,,2006,111,,300,Active,,,http://www.redfin.com/NY/Rockaway-Park/119-Beach-119th-St-11694/home/169198242,MLSLI,3167169,N,Y,40.5771388,-73.8389498
MLS Listing,,Condo/Co-op,Unit at 7618 69th Pl,Queens,NY,11385,540000,2,2,Ridgewood,,,,112,,,Active,,,http://www.redfin.com/NY/Glendale/76-18-69th-Pl-11385/home/20662612,REBNY,CORC5880376,N,Y,40.7001566,-73.882185
MLS Listing,,Single Family Residential,126-04 116th Ave,S. Ozone Park,NY,11420,549000,2,1.5,S. Ozone Park,,1600,1925,119,,,Active,,,http://www.redfin.com/NY/Jamaica/126-04-116th-Ave-11420/home/20720493,MLSLI,3164969,N,Y,40.676813,-73.812299
MLS Listing,,Condo/Co-op,Unit at 820 Ocean Pkwy,Brooklyn,NY,11230,549000,2,2,Midwood,,,,120,,,Active,,,http://www.redfin.com/NY/Brooklyn/820-Ocean-Pkwy-11230/home/39601993,REBNY,CORC5879929,N,Y,40.6286311,-73.9714806
MLS Listing,,Condo/Co-op,Unit at 1615 Ave I,Brooklyn,NY,11230,525000,2,2,Midwood,,,,126,,,Active,,,http://www.redfin.com/NY/Brooklyn/1615-Avenue-I-11230/home/168956592,REBNY,UCOM1847807,N,Y,40.6281935,-73.960305
MLS Listing,,Condo/Co-op,116-24 Grosvenor Ln Unit 9A,Kew Gardens,NY,11415,530000,2,1,Park Lane Condominium,1092,,2007,127,485,889,Active,,,http://www.redfin.com/NY/Richmond-Hill/116-24-Grosvenor-Ln-11418/unit-9A/home/21683305,MLSLI,3162561,N,Y,40.706878,-73.8356845
MLS Listing,,Condo/Co-op,Unit at 4407 Fourth Ave,Brooklyn,NY,11232,530000,2,1,Sunset Park,,,,129,,,Active,,,http://www.redfin.com/NY/Brooklyn/4407-4th-Ave-11220/home/168933679,REBNY,UCOM1847290,N,Y,40.6494513,-74.0090506
MLS Listing,,Condo/Co-op,19-37 79th St #1,E. Elmhurst,NY,11370,525000,2,1,Garden Bay Manor,900,,1962,132,583,,Active,,,http://www.redfin.com/NY/Flushing/1937-79th-St-11370/unit-1/home/20941586,MLSLI,3160995,N,Y,40.7717042,-73.8906991
MLS Listing,,Single Family Residential,123-33 145th St,Jamaica,NY,11436,509000,2,2,Jamaica,,2000,1925,136,,,Active,,,http://www.redfin.com/NY/Jamaica/123-33-145th-St-11436/home/20714913,MLSLI,3160188,N,Y,40.674214,-73.79353
MLS Listing,,Single Family Residential,223-14 133rd Ave,Springfield Gdns,NY,11413,540000,2,2,Springfield Gdns,,3760,1940,137,,,Active,,,http://www.redfin.com/NY/Jamaica/223-14-133rd-Ave-11413/home/20700387,MLSLI,3159854,N,Y,40.678953,-73.745377
MLS Listing,,Condo/Co-op,4711 8 Ave Unit 4B,Brooklyn,NY,11220,547000,2,1,Brooklyn,621,,2009,140,881,,Active,,,http://www.redfin.com/NY/Brooklyn/4711-8th-Ave-11220/unit-4B/home/40916391,BNYMLS,432797,N,Y,40.6423833,-74.0020331
MLS Listing,,Condo/Co-op,839 East 19th St Unit 2e,Brooklyn,NY,11230,539888,2,1,Midwood,925,925,1916,143,584,455,Active,,,http://www.redfin.com/NY/Brooklyn/839-E-19th-St-11230/unit-2E/home/52048161,SIBORMLS,1131704,N,Y,40.630203,-73.9583001
MLS Listing,,Condo/Co-op,7147 E Park Dr Unit B,Flushing,NY,11367,538000,2,1,Regents Park Gardens,755,,1960,146,713,,Active,,,http://www.redfin.com/NY/Flushing/7147-Park-Dr-E-11367/unit-B/home/163353218,MLSLI,3157713,N,Y,40.7252789,-73.8275758
MLS Listing,,Condo/Co-op,153 Bennett Ave Unit 6B,New York,NY,10040,525021,2,1,New York,850,,1945,147,618,,Active,,,http://www.redfin.com/NY/New-York/153-Bennett-Ave-10040/unit-6B/home/168686014,HGMLS,5030126,N,Y,40.8553685,-73.9340995
MLS Listing,,Condo/Co-op,224 22 St Unit 3B,Brooklyn,NY,11232,500000,2,1,Brooklyn,658,,1995,147,760,,Active,,,http://www.redfin.com/NY/Brooklyn/224-22nd-St-11232/unit-3B/home/40690022,BNYMLS,432460,N,Y,40.660901,-73.994646
MLS Listing,,Condo/Co-op,6345 Saunders St Unit 4B,Rego Park,NY,11374,548888,2,2,The Essex,1100,,1956,147,499,,Active,,,http://www.redfin.com/NY/Flushing/63-45-Saunders-St-11374/unit-4B/home/20644803,MLSLI,3157214,N,Y,40.7297629,-73.863454
MLS Listing,,Condo/Co-op,80 Bay St Unit Landing 3a,Staten Island,NY,10301,549080,2,2,St. George,900,1938,1986,166,610,937,Active,,,http://www.redfin.com/NY/Staten-Island/80-Bay-St-Lndg-10301/unit-3A/home/56107407,SIBORMLS,1131089,N,Y,40.6391529,-74.0739812
MLS Listing,,Condo/Co-op,5900 Arlington Ave Unit 8C,Bronx,NY,10471,518000,2,2,Riverdale,1050,,1963,166,493,,Active,,,http://www.redfin.com/NY/The-Bronx/5900-Arlington-Ave-10471/unit-8C/home/44602367,HGMLS,5009147,N,Y,40.9092281,-73.9056859
MLS Listing,,Condo/Co-op,9707 4th Ave Unit 3n,Brooklyn,NY,11209,515000,2,1,Bay Ridge,1100,,,171,468,,Active,,,http://www.redfin.com/NY/Brooklyn/9707-4th-Ave-11209/unit-3N/home/40651560,SIBORMLS,1130969,N,Y,40.614285,-74.0315729
MLS Listing,,Condo/Co-op,,Brooklyn,NY,11209,515000,2,1,,1100,,,171,468,,Active,,,http://www.redfin.com/NY/Brooklyn/Undisclosed-address-11209/home/167955456,BNYMLS,431952,N,Y,40.6212119,-74.0329499
MLS Listing,,Condo/Co-op,582 Throop Ave Unit 1A,Brooklyn,NY,11216,549000,2,1,Bed-Stuy,731,,1992,172,751,,Active,,,http://www.redfin.com/NY/Brooklyn/582-Throop-Ave-11216/unit-1A/home/40728859,MLSLI,3150439,N,Y,40.6833366,-73.9411945
MLS Listing,,Condo/Co-op,61-20 Grand Central Pkwy Unit B1503,Forest Hills,NY,11375,549000,2,2,Fairview Owners Corp.,,,1965,174,,,Active,,,http://www.redfin.com/NY/Unknown/61-20-Grand-Central-Pkwy-11375/unit-B1503/home/145380734,MLSLI,3149570,N,Y,40.7380691,-73.8473845
MLS Listing,,Condo/Co-op,763 Ocean Pkwy Unit 5F,Brooklyn,NY,11230,519000,2,1,Brooklyn,990,,1937,178,524,,Active,,,http://www.redfin.com/NY/Brooklyn/763-Ocean-Pkwy-11230/unit-5F/home/40920652,BNYMLS,431821,N,Y,40.629731,-73.97067
MLS Listing,,Condo/Co-op,9450 Magnolia Ct Unit 1A,Ozone Park,NY,11417,519500,2,2.5,Magnolia Court Condo,1300,,2005,186,400,491,Active,,,http://www.redfin.com/NY/Ozone-Park/94-50-Magnolia-Ct-11417/unit-1A/home/20665516,MLSLI,3146433,N,Y,40.669743,-73.8415364
MLS Listing,,Condo/Co-op,166-25 Powells Cove Blvd Unit 18G,Beechhurst,NY,11357,509000,2,2,Cryder House,1350,,1962,186,377,,Active,,,http://www.redfin.com/NY/Unknown/166-25-Powells-Cove-Blvd-11357/unit-18G/home/147023107,MLSLI,3146381,N,Y,40.7944231,-73.796598
MLS Listing,,Condo/Co-op,61-20 Grand Central Pkwy Unit B603,Forest Hills,NY,11375,518000,2,2,The Fairview,1300,,1965,187,398,1783,Active,,,http://www.redfin.com/NY/Unknown/61-20-Grand-Central-Pkwy-11375/unit-B603/home/109416548,MLSLI,3146035,N,Y,40.7380691,-73.8473845
MLS Listing,,Condo/Co-op,2940 W 5 St Unit 21F,Brooklyn,NY,11224,509000,2,1,Brooklyn,1200,,1964,202,424,,Active,,,http://www.redfin.com/NY/Brooklyn/2940-W-5th-St-11224/unit-21F/home/167132305,BNYMLS,431172,N,Y,40.5775512,-73.9735737
MLS Listing,,Condo/Co-op,224 22 St Unit 1B,Brooklyn,NY,11232,549000,2,1,Brooklyn,660,,1995,208,832,,Active,,,http://www.redfin.com/NY/Brooklyn/224-22nd-St-11232/unit-1B/home/40690011,BNYMLS,430989,N,Y,40.660901,-73.994646
MLS Listing,,Condo/Co-op,18 05 215 St Unit 17H,Bayside,NY,11360,520000,2,2,Bay Terrace,,,1970,211,,107,Active,,,http://www.redfin.com/NY/Bayside/18-05-215th-St-11360/unit-17H/home/167101332,MLSLI,3138851,N,Y,40.783918,-73.775928
MLS Listing,,Condo/Co-op,3950 52nd St Unit 4C,Woodside,NY,11377,529000,2,1,Sunnyhill,,,1950,226,,,Active,,,http://www.redfin.com/NY/Woodside/39-50-52nd-St-11377/unit-4C/home/25508667,MLSLI,3134239,N,Y,40.7474161,-73.9122745
MLS Listing,,Condo/Co-op,62 Park Terrace West N Unit A47,New York,NY,10034,549000,2,1,New York,975,,1939,229,563,,Active,,,http://www.redfin.com/NY/New-York/62-Park-Ter-W-10034/unit-A47/home/105887886,HGMLS,4943933,N,Y,40.8711251,-73.9174014
MLS Listing,,Condo/Co-op,110-11 Queens Blvd Unit 32A,Forest Hills,NY,11375,540000,2,1,Kennedy House,1180,,1964,230,458,,Active,,,http://www.redfin.com/NY/Forest-Hills/110-11-Queens-Blvd-11375/unit-32A/home/166861595,MLSLI,3132608,N,Y,40.7201292,-73.8398387
MLS Listing,,Condo/Co-op,Unit at 3311 Newkirk Ave,Brooklyn,NY,11203,540000,2,2,East Flatbush,,,,234,,,Active,,,http://www.redfin.com/NY/Brooklyn/3311-Newkirk-Ave-11203/home/166831485,REBNY,DEGI3792903,N,Y,40.6404037,-73.945052
MLS Listing,,Condo/Co-op,Unit at 3311 Newkirk Ave,Brooklyn,NY,11203,540000,2,2,East Flatbush,,,,234,,,Active,,,http://www.redfin.com/NY/Unknown/3311-Newkirk-Ave-11203/home/145246233,REBNY,DEGI3792901,N,Y,40.6404037,-73.945052
MLS Listing,,Single Family Residential,11542 Inwood St,Jamaica,NY,11436,500000,2,2,Jamaica,1071,4000,1930,245,467,,Active,,,http://www.redfin.com/NY/Jamaica/115-42-Inwood-St-11436/home/20717081,MLSLI,3128312,N,Y,40.682087,-73.796925
MLS Listing,,Condo/Co-op,166-25 Powells Cove Blvd Unit 9M,Beechhurst,NY,11357,539000,2,2,Cryder House,1062,,1962,249,508,,Active,,,http://www.redfin.com/NY/Whitestone/166-25-Powells-Cove-Blvd-11357/unit-9M/home/165738749,MLSLI,3127006,N,Y,40.7944231,-73.796598
MLS Listing,,Condo/Co-op,166-25 Powells Cove Blv Unit 8G,Beechhurst,NY,11357,508000,2,2,Cryder House,,,1962,250,,,Active,,,http://www.redfin.com/NY/Whitestone/166-25-Powells-Cove-Blvd-11357/unit-8G/home/92323269,MLSLI,3126923,N,Y,40.7944231,-73.796598
MLS Listing,,Single Family Residential,234 Stobe Ave,Staten Island,NY,10305,529900,2,3,Dongan Hills-Above Hylan,1484,2100,1997,250,357,,Active,,,http://www.redfin.com/NY/Staten-Island/234-Stobe-Ave-10306/home/56086319,SIBORMLS,1128724,N,Y,40.5820175,-74.0984157
MLS Listing,,Condo/Co-op,155 Bay St Unit 4J,Staten  Island,NY,10301,549000,2,2,Staten  Island,1248,,2009,277,440,,Active,,,http://www.redfin.com/NY/Staten-Island/155-Bay-St-10301/unit-4J/home/56137008,BNYMLS,428900,N,Y,40.638148,-74.0756332
MLS Listing,,Condo/Co-op,Unit at 3515 Henry Hudson Pkwy,Bronx,NY,10463,550000,2,2,Riverdale,,,,287,,,Active,,,http://www.redfin.com/NY/The-Bronx/3515-Henry-Hudson-Pkwy-W-10463/home/44801712,REBNY,BHSR19523598,N,Y,40.8868405,-73.9129775
MLS Listing,,Condo/Co-op,18-05 215th St Unit 4N,Bayside,NY,11360,539000,2,2,Bay Terrace,,,1970,318,,120,Active,,,http://www.redfin.com/NY/Flushing/1805-215th-St-11360/unit-4N/home/146975851,MLSLI,3105390,N,Y,40.7848316,-73.7752379
MLS Listing,,Condo/Co-op,22-60 79th St Unit 2C,E. Elmhurst,NY,11370,529000,2,1,Barclay Garden,804,,1948,340,658,450,Active,,,http://www.redfin.com/NY/East-Elmhurst/22-60-79th-St-11370/unit-2C/home/20940162,MLSLI,3099383,N,Y,40.7669422,-73.890505
MLS Listing,,Condo/Co-op,166-25 Powells Cove Blvd Unit 1J,Beechhurst,NY,11357,528000,2,2,Cryder House,,,1962,361,,,Active,,,http://www.redfin.com/NY/Unknown/166-25-Powells-Cove-Blvd-11357/unit-1J/home/144854945,MLSLI,3094232,N,Y,40.7945375,-73.7965346
MLS Listing,,Condo/Co-op,Unit at 1919 Madison Ave,New York,NY,10035,520000,2,1,Mt. Morris Park,,,,362,,,Active,,,http://www.redfin.com/NY/New-York/1919-Madison-Ave-10035/home/45208524,REBNY,UCOM328670,N,Y,40.8045686,-73.9410797
MLS Listing,,Condo/Co-op,Unit at 275 Webster Ave,Brooklyn,NY,11230,510000,2,1,Kensington,,,,430,,,Active,,,http://www.redfin.com/NY/Brooklyn/275-Webster-Ave-11230/home/108525978,REBNY,DEGI3541430,N,Y,40.6329634,-73.9709274
MLS Listing,,Condo/Co-op,Unit at 145 Kenilworth Pl,Brooklyn,NY,11210,529000,2,2,Flatbush,,,,479,,,Active,,,http://www.redfin.com/NY/Brooklyn/145-Kenilworth-Pl-11210/home/39643514,REBNY,DEGI3477562,N,Y,40.6327025,-73.948542
MLS Listing,,Single Family Residential,118 Cannon Ave,Staten Island,NY,10314,550000,2,1,Travis,804,4340,1935,552,684,,Active,,,http://www.redfin.com/NY/Staten-Island/118-Cannon-Ave-10314/home/56118354,SIBORMLS,1120950,N,Y,40.594453,-74.1889609
For-Sale-by-Owner Listing,,Condo/Co-op,22-10 80th St Apt 3f,East Elmhurst,NY,11370,519000,2,1,East Elmhurst,876,,1949,213,592,,Active,,,http://www.redfin.com/NY/East-Elmhurst/22-10-80th-St-11370/unit-3F/home/20944266,Fizber.com,5020332,N,Y,40.7686322,-73.889866
