SALE TYPE,SOLD DATE,PROPERTY TYPE,ADDRESS,CITY,STATE OR PROVINCE,ZIP OR POSTAL CODE,PRICE,BEDS,BATHS,LOCATION,SQUARE FEET,LOT SIZE,YEAR BUILT,DAYS ON MARKET,$/SQUARE FEET,HOA/MONTH,STATUS,NEXT OPEN HOUSE START TIME,NEXT OPEN HOUSE END TIME,URL (SEE http://www.redfin.com/buy-a-home/comparative-market-analysis FOR INFO ON PRICING),SOURCE,MLS#,FAVORITE,INTERESTED,LATITUDE,LONGITUDE
MLS Listing,,Condo/Co-op,Unit at 606 W 113th St,New York,NY,10025,529000,1,1,Morningside Heights,,,,1,,,Active,,,http://www.redfin.com/NY/New-York/606-W-113th-St-10025/home/45164557,REBNY,CORC5952586,N,Y,40.8062434,-73.9659464
MLS Listing,,Condo/Co-op,70-61 Park Dr,Flushing,NY,11367,544000,2,1,Regent,850,,1960,2,640,,Active,,,http://www.redfin.com/NY/Flushing/7061-Park-Dr-E-11367/home/170270413,MLSLI,3191137,N,Y,40.72601,-73.8295693
MLS Listing,,Condo/Co-op,Unit at 448 Neptune Ave,Brooklyn,NY,11224,535000,2,2,Brighton Beach,,,,2,,,Active,,,http://www.redfin.com/NY/Brooklyn/448-Neptune-Ave-11224/home/170270305,REBNY,DEGI4076220,N,Y,40.5788982,-73.9700091
MLS Listing,,Condo/Co-op,Unit at 435 E 77th St,New York,NY,10075,525000,1,1,Upper East Side,,,,3,,,Active,,,http://www.redfin.com/NY/New-York/435-E-77th-St-10075/home/170269339,REBNY,UCOM40209,N,Y,40.7706042,-73.9522846
MLS Listing,,Multi-Family (2-4 Unit),85-08 95th Ave,Ozone Park,NY,11416,550000,2,2,Ozone Park,,2000,1922,3,,,Active,January-15-2020 01:00 PM,January-15-2020 03:00 PM,http://www.redfin.com/NY/Jamaica/85-08-95th-Ave-11416/home/20784148,MLSLI,3191041,N,Y,40.684568,-73.855485
MLS Listing,,Condo/Co-op,63-60 102nd St Unit A2,Rego Park,NY,11374,549000,2,1,New Hampshire House,1106,36800,1949,3,496,579,Active,,,http://www.redfin.com/NY/Flushing/6360-102nd-St-11374/unit-A2/home/20915367,MLSLI,3191000,N,Y,40.7319691,-73.8541569
MLS Listing,,Condo/Co-op,18 Landing Way #46,Bronx,NY,10464,525000,2,2.5,Bronx,1571,230876,1981,3,334,850,Active,,,http://www.redfin.com/NY/The-Bronx/18-Landing-Way-10464/unit-46/home/44803422,HGMLS,6003396,N,Y,40.8466261,-73.7834167
MLS Listing,,Condo/Co-op,70-25 Yellowstone Blvd Unit 20D,Forest Hills,NY,11375,549000,2,1,Gerard Towers,,,1964,3,,,Active,,,http://www.redfin.com/NY/Forest-Hills/7025-Yellowstone-Blvd-11375/unit-20D/home/169051194,MLSLI,3190955,N,Y,40.7226213,-73.8493251
MLS Listing,,Condo/Co-op,Unit at 357 E 57th St,New York,NY,10022,530000,1,1,Middle East Side,,,,4,,,Active,,,http://www.redfin.com/NY/New-York/357-E-57th-St-10022/home/170247041,REBNY,UCOM1865252,N,Y,40.758601,-73.9630663
MLS Listing,,Condo/Co-op,Unit at 14 -23 31st Ave,Queens,NY,11106,549000,1,1,Astoria,,,,4,,,Active,,,http://www.redfin.com/NY/Queens/14-11-31st-Ave-11106/home/170247037,REBNY,MOSP1865210,N,Y,40.768308,-73.9313279
MLS Listing,,Condo/Co-op,Unit at 200 E 24th St,New York,NY,10010,525000,1,1,Middle East Side,,,,4,,,Active,,,http://www.redfin.com/NY/New-York/200-E-24th-St-10010/home/45147214,REBNY,UCOM108195,N,Y,40.7393736,-73.9827303
MLS Listing,,Condo/Co-op,Unit at 55 Montgomery Pl,Brooklyn,NY,11215,519000,1,1,Park Slope,,,,4,,,Active,,,http://www.redfin.com/NY/Brooklyn/55-Montgomery-Pl-11215/home/92327927,REBNY,CORC5959994,N,Y,40.671077,-73.9723164
MLS Listing,,Single Family Residential,135-07 Foch Blvd,S. Ozone Park,NY,11420,529999,2,2.5,S. Ozone Park,,2075,1945,4,,,Active,,,http://www.redfin.com/NY/Jamaica/135-07-Foch-Blvd-11420/home/20720848,MLSLI,3190511,N,Y,40.67762,-73.804298
MLS Listing,,Condo/Co-op,38-11 108th St Unit 2D,Corona,NY,11368,538000,2,2,Corona Tower Condo,880,,2006,4,611,521,Active,,,http://www.redfin.com/NY/Flushing/38-11-108th-St-11368/unit-2D/home/20664094,MLSLI,3190496,N,Y,40.751989,-73.8591355
MLS Listing,,Single Family Residential,241-02 85th Rd,Bellerose,NY,11426,549000,2,2,Bellerose,600,3610,1920,4,915,,Active,,,http://www.redfin.com/NY/Jamaica/241-02-85th-Rd-11426/home/20588563,MLSLI,3190481,N,Y,40.7324399,-73.72514
MLS Listing,,Condo/Co-op,Unit at 333 E 43rd St,New York,NY,10017,535000,1,1,Middle East Side,,,,5,,,Active,,,http://www.redfin.com/NY/New-York/333-E-43rd-St-10017/home/45326586,REBNY,DEGI4068226,N,Y,40.7500244,-73.9702218
MLS Listing,,Condo/Co-op,Unit at 45 -02 Ditmars Blvd,Queens,NY,11105,505000,1,1,Steinway- Ditmars,,,,5,,,Active,,,http://www.redfin.com/NY/Queens/45-9-Ditmars-Blvd-11105/home/167118474,REBNY,UCOM1832666,N,Y,40.7706845,-73.9027422
MLS Listing,,Single Family Residential,289 Pacific Ave,Staten Island,NY,10312,529999,2,1,Eltingville,912,4000,1950,5,581,,Active,,,http://www.redfin.com/NY/Staten-Island/289-Pacific-Ave-10312/home/56055043,SIBORMLS,1134692,N,Y,40.5424486,-74.1584289
MLS Listing,,Condo/Co-op,Unit at 442 Amsterdam Ave,New York,NY,10024,525000,1,1,Upper West Side,,,,6,,,Active,,,http://www.redfin.com/NY/New-York/442-Amsterdam-Ave-10024/home/45152383,REBNY,UCOM1864835,N,Y,40.7847497,-73.9775197
MLS Listing,,Condo/Co-op,13-22 Bell Blvd Unit Duplex,Bayside,NY,11360,519000,2,1,Bay Terrace Garden #1,,,1954,6,,,Active,,,http://www.redfin.com/NY/Bayside/13-22-Bell-Blvd-11360/unit-DUPLEX/home/50268490,MLSLI,3189996,N,Y,40.7881256,-73.781561
MLS Listing,,Condo/Co-op,155 Bay St Unit 5j,Staten Island,NY,10301,550000,2,2,St. George,1248,1248,2005,6,441,818,Active,,,http://www.redfin.com/NY/Staten-Island/155-Bay-St-10301/unit-5J/home/56135514,SIBORMLS,1134676,N,Y,40.638148,-74.0756332
MLS Listing,,Condo/Co-op,87-30 62nd Ave Unit 6C,Rego Park,NY,11374,509000,2,1.5,Austin Towers,858,33649,1989,6,593,536,Active,,,http://www.redfin.com/NY/Rego-Park/87-30-62nd-Ave-11374/unit-6C/home/20899097,MLSLI,3189842,N,Y,40.7284524,-73.8683238
MLS Listing,,Condo/Co-op,85-11 34 Ave Unit 6D,Jackson Heights,NY,11372,535000,2,1,Jackson Heights,850,,1951,7,629,367,Active,,,http://www.redfin.com/NY/Jackson-Heights/85-11-34th-Ave-11372/unit-6D/home/20929146,MLSLI,3189814,N,Y,40.7543537,-73.8818757
MLS Listing,,Condo/Co-op,Unit at 85 Livingston St,Brooklyn,NY,11201,535000,1,1,Brooklyn Heights,,,,7,,,Active,,,http://www.redfin.com/NY/Brooklyn/85-Livingston-St-11201/home/40647483,REBNY,ARGO1863760,N,Y,40.6915696,-73.9905785
MLS Listing,,Condo/Co-op,Unit at 130 Lenox Ave,New York,NY,10026,515000,2,1,West Harlem,,,,7,,,Active,,,http://www.redfin.com/NY/New-York/130-Lenox-Ave-10026/home/170221504,REBNY,UCOM1864564,N,Y,40.8021896,-73.9491979
MLS Listing,,Condo/Co-op,Unit at 130 Lenox Ave,New York,NY,10026,525000,2,1,West Harlem,,,,7,,,Active,,,http://www.redfin.com/NY/New-York/130-Malcolm-X-Blvd-10026/home/45163555,REBNY,UCOM116317,N,Y,40.8023312,-73.9494559
MLS Listing,,Condo/Co-op,Unit at 1155 Ocean Ave,Brooklyn,NY,11230,550000,2,1,Flatbush,,,,7,,,Active,,,http://www.redfin.com/NY/Brooklyn/1155-Ocean-Ave-11230/home/40659413,REBNY,MAIS357081,N,Y,40.6341788,-73.9577031
MLS Listing,,Condo/Co-op,Unit at 320 E 42nd St,New York,NY,10017,500000,2,2,Murray Hill Kips Bay,,,,7,,,Active,,,http://www.redfin.com/NY/New-York/320-E-42nd-St-10017/home/148705051,REBNY,CORC5957576,N,Y,40.7492776,-73.9714601
MLS Listing,,Condo/Co-op,2925 Brighton 8 St Unit 1A,Brooklyn,NY,11235,544900,2,2,Brooklyn,1060,,2004,9,514,,Active,,,http://www.redfin.com/NY/Brooklyn/2925-Brighton-8th-St-11235/unit-1A/home/40662012,BNYMLS,435675,N,Y,40.5811002,-73.9607448
MLS Listing,,Condo/Co-op,Unit at 308 E 73rd St,New York,NY,10021,550000,1,1,Upper East Side,,,,9,,,Active,,,http://www.redfin.com/NY/New-York/308-E-73rd-St-10021/home/114663826,REBNY,UCOM1607633,N,Y,40.7690706,-73.9573272
MLS Listing,,Condo/Co-op,Unit at 330 E 83rd St,New York,NY,10028,515000,1,1,Upper East Side,,,,9,,,Active,,,http://www.redfin.com/NY/New-York/330-E-83rd-St-10028/home/170212880,REBNY,DEGI4065440,N,Y,40.7751593,-73.9516081
MLS Listing,,Single Family Residential,1229 East 87 St,Brooklyn,NY,11236,525000,2,1.75,Brooklyn,1160,2833,1935,10,453,,Active,,,http://www.redfin.com/NY/Brooklyn/1229-E-87th-St-11236/home/40888551,BNYMLS,435667,N,Y,40.6333962,-73.9018918
MLS Listing,,Condo/Co-op,1208 Sheepshead Bay Rd Unit 2A,Brooklyn,NY,11235,536000,2,1,Brooklyn,831,,1988,10,645,,Active,,,http://www.redfin.com/NY/Brooklyn/1208-Sheepshead-Bay-Rd-11235/unit-2A/home/40865480,BNYMLS,435544,N,Y,40.5904462,-73.9571859
MLS Listing,,Single Family Residential,13 Admiralty Loop,Staten Island,NY,10309,539000,2,3,Princes Bay,2112,1660,1989,11,255,250,Active,,,http://www.redfin.com/NY/Staten-Island/13-Admiralty-Loop-10309/home/56108655,SIBORMLS,1134531,N,Y,40.514346,-74.201482
MLS Listing,,Single Family Residential,178-11 119th Rd,Jamaica,NY,11434,549000,2,2,Jamaica,,4000,1925,11,,,Active,,,http://www.redfin.com/NY/Jamaica/178-11-119th-Rd-11434/home/20705424,MLSLI,3188554,N,Y,40.687103,-73.766448
MLS Listing,,Condo/Co-op,One Bay Club Dr Unit 5K,Bayside,NY,11360,520000,1,1,Bay Club,862,,1982,11,603,716,Active,,,http://www.redfin.com/NY/Bayside/1-Bay-Club-Dr-11360/unit-5K/home/20841833,MLSLI,3188528,N,Y,40.7784405,-73.7804294
MLS Listing,,Condo/Co-op,26910 Grand Central Pkwy Unit 3G,Floral Park,NY,11005,539000,1,1.5,Building 3,1190,,1975,11,453,,Active,,,http://www.redfin.com/NY/Queens/26910-Grand-Central-Pkwy-11005/unit-3G/home/144210837,MLSLI,3188502,N,Y,40.757181,-73.714414
MLS Listing,,Condo/Co-op,49-07 108th St Unit 1 A,Corona,NY,11368,509000,2,1,108 Condominium,900,1072,2007,12,566,220,Active,,,http://www.redfin.com/NY/Corona/4907-108th-St-11368/unit-1A/home/20629295,MLSLI,3188398,N,Y,40.7450934,-73.8555522
MLS Listing,,Condo/Co-op,Unit at 87 -10 51st Ave,Queens,NY,11373,550000,2,1,Elmhurst,,,,12,,,Active,,,http://www.redfin.com/NY/Flushing/87-05-51st-Ave-11373/home/170192795,REBNY,HDAX1293,N,Y,40.739145,-73.8763029
MLS Listing,,Condo/Co-op,87-10 51st Ave Unit 3A,Elmhurst,NY,11373,550000,2,1,The Continental Park,925,,1962,13,595,,Active,,,http://www.redfin.com/NY/Flushing/87-10-51st-Ave-11373/unit-3A/home/20637440,MLSLI,3188337,N,Y,40.7385497,-73.8759989
MLS Listing,,Condo/Co-op,Unit at 682 Willoughby Ave,Brooklyn,NY,11206,539000,1,1.5,Bedford Stuyvesant,,,,14,,,Active,,,http://www.redfin.com/NY/Brooklyn/682-Willoughby-Ave-11206/home/170177820,REBNY,UCOM1863899,N,Y,40.6945483,-73.9420157
MLS Listing,,Condo/Co-op,Unit at 25 W 64th St,New York,NY,10023,529750,1,1,Upper West Side,,,,14,,,Active,,,http://www.redfin.com/NY/New-York/25-W-64th-St-10023/home/170175110,REBNY,KWNY239133,N,Y,40.7718049,-73.9806843
MLS Listing,,Condo/Co-op,Unit at 1249 Dekalb Ave,Brooklyn,NY,11221,535000,1,1,Bushwick,,,,14,,,Active,,,http://www.redfin.com/NY/Brooklyn/1249-Dekalb-Ave-11221/home/170175504,REBNY,DEGI4059456,N,Y,40.6965644,-73.92713
MLS Listing,,Single Family Residential,191 Rosedale Ave,Staten Island,NY,10312,519000,2,3,Huguenot,1594,2010,1990,16,326,,Active,,,http://www.redfin.com/NY/Staten-Island/191-Rosedale-Ave-10312/home/56057953,SIBORMLS,1134474,N,Y,40.547386,-74.195866
MLS Listing,,Condo/Co-op,118-17 Union Tpke Unit 4H,Forest Hills,NY,11375,529000,2,2,Park Lane North,1200,,1973,17,441,,Active,,,http://www.redfin.com/NY/Forest-Hills/118-17-Union-Tpke-11375/unit-4H/home/28684408,MLSLI,3187850,N,Y,40.7129779,-73.8345967
MLS Listing,,Single Family Residential,844 Hollywood Ave,Bronx,NY,10465,520000,2,1.5,Bronx,1292,2500,1920,18,402,,Active,January-18-2020 02:00 PM,January-18-2020 03:00 PM,http://www.redfin.com/NY/The-Bronx/844-Hollywood-Ave-10465/home/44759558,HGMLS,5129365,N,Y,40.8305442,-73.8215855
MLS Listing,,Condo/Co-op,Unit at 245 E 37th St,New York,NY,10016,539000,1,1,Murray Hill Kips Bay,,,,18,,,Active,,,http://www.redfin.com/NY/New-York/245-E-37th-St-10016/home/170143248,REBNY,UCOM201765,N,Y,40.7469154,-73.9746879
MLS Listing,,Condo/Co-op,Unit at 237 Eldridge St,New York,NY,10002,510000,1,1,Lower East Side,,,,18,,,Active,,,http://www.redfin.com/NY/New-York/237-Eldridge-St-10002/home/45339242,REBNY,DEGI4050035,N,Y,40.7226082,-73.9898655
MLS Listing,,Condo/Co-op,Unit at 321 E 54th St,New York,NY,10022,515000,1,1,Middle East Side,,,,21,,,Active,,,http://www.redfin.com/NY/New-York/321-E-54th-St-10022/home/170155722,REBNY,BHSR19997817,N,Y,40.7571764,-73.9656764
MLS Listing,,Condo/Co-op,84-10 101 St Unit 2-O,Richmond Hill,NY,11418,525000,2,1.5,Condominium,1081,,1890,24,486,,Active,,,http://www.redfin.com/NY/Richmond-Hill/84-10-101st-St-11418/unit-2O/home/20781371,MLSLI,3187227,N,Y,40.6979652,-73.8481381
MLS Listing,,Single Family Residential,332 Wilson Ave,Staten Island,NY,10312,525000,2,2,Eltingville,1168,8840,1920,24,449,,Active,,,http://www.redfin.com/NY/Staten-Island/332-Wilson-Ave-10312/home/56032910,SIBORMLS,1134407,N,Y,40.5464327,-74.1625189
MLS Listing,,Condo/Co-op,104-59 38 Ave Unit 2B,Corona,NY,11368,518000,2,1,N/A,,,2009,26,,180,Active,,,http://www.redfin.com/NY/Corona/104-59-38th-Ave-11368/unit-2B/home/37047455,MLSLI,3186835,N,Y,40.752504,-73.861096
MLS Listing,,Condo/Co-op,22-20 76th St Unit A3,E. Elmhurst,NY,11370,525000,1,1,Astoria Heights,756,,1939,26,694,551,Active,,,http://www.redfin.com/NY/FLUSHING/2220-76TH-ST-11370/unit-A3/home/20944355,MLSLI,3186796,N,Y,40.767681,-73.893655
MLS Listing,,Condo/Co-op,Unit at 364 Harman St,Brooklyn,NY,11237,549000,1,1,Bushwick,,,,27,,,Active,,,http://www.redfin.com/NY/Brooklyn/364-Harman-St-11237/home/170123538,REBNY,UCOM1863103,N,Y,40.7012577,-73.9172753
MLS Listing,,Condo/Co-op,5800 Arlington Ave Unit 7C,Bronx,NY,10471,525000,2,2,Bronx,1150,,1960,27,457,,Active,,,http://www.redfin.com/NY/The-Bronx/5800-Arlington-Ave-10471/unit-7C/home/170123515,HGMLS,5127407,N,Y,40.9080135,-73.9055787
MLS Listing,,Condo/Co-op,Unit at 440 E 62nd St,New York,NY,10065,525000,1,1,Upper East Side,,,,28,,,Active,,,http://www.redfin.com/NY/New-York/440-E-62nd-St-10065/home/45159238,REBNY,TRIP1861653,N,Y,40.7604369,-73.958741
MLS Listing,,Condo/Co-op,21-31 78th St #1,Jackson Heights,NY,11370,525000,1,1,1 Bed Condo,639,,1939,28,822,466,Active,,,http://www.redfin.com/NY/Flushing/2131-78th-St-11370/unit-1/home/20941321,MLSLI,3186434,N,Y,40.7696759,-73.8912909
MLS Listing,,Condo/Co-op,220 Bay 44th St Unit 220B,Brooklyn,NY,11214,525000,2,1.75,Brooklyn,987,,1993,28,532,,Active,,,http://www.redfin.com/NY/Brooklyn/220-Bay-44th-St-11214/unit-220B/home/40849490,BNYMLS,435391,N,Y,40.590005,-73.9897645
MLS Listing,,Condo/Co-op,Unit at 21 -41 34th Ave,Queens,NY,11106,517000,2,1,Long Island City,,,,29,,,Active,,,http://www.redfin.com/NY/Queens/21-15-34th-Ave-11106/home/170107318,REBNY,MOSP1862745,N,Y,40.7632487,-73.9329541
MLS Listing,,Condo/Co-op,27010 Grand Central Pkwy Unit 1N,Floral Park,NY,11005,545000,1,1.5,North Shore Towers,1200,,1975,31,454,,Active,,,http://www.redfin.com/NY/FLORAL-PARK/27010-GRAND-CENTRAL-PKWY-11005/unit-1N/home/145112596,MLSLI,3186141,N,Y,40.75678,-73.714212
MLS Listing,,Condo/Co-op,100-25 Queens Blvd Unit 7D,Forest Hills,NY,11375,525000,1,1,Park Manor Condo,727,,1959,31,722,442,Active,,,http://www.redfin.com/NY/Forest-Hills/100-25-Queens-Blvd-11375/unit-7D/home/20913182,MLSLI,3186083,N,Y,40.727158,-73.852415
MLS Listing,,Condo/Co-op,Unit at 900 W 190th St,New York,NY,10040,549000,1,1,Hudson Heights,,,,31,,,Active,,,http://www.redfin.com/NY/New-York/900-W-190th-St-10040/home/170068081,REBNY,ORSD19989583,N,Y,40.8570262,-73.9361002
MLS Listing,,Condo/Co-op,Unit at 239 W 148th St,New York,NY,10039,550000,2,1,Harlem,,,,31,,,Active,,,http://www.redfin.com/NY/New-York/239-W-148th-St-10039/home/45169707,REBNY,DEGI4047773,N,Y,40.8246846,-73.9398168
MLS Listing,,Condo/Co-op,Unit at 333 E 43rd St,New York,NY,10017,549000,1,1,Middle East Side,,,,32,,,Active,,,http://www.redfin.com/NY/New-York/333-43rd-St-10017/home/45180877,REBNY,DEGI4046928,N,Y,40.7500244,-73.9702218
MLS Listing,,Condo/Co-op,Unit at 77 Clarkson Ave,Brooklyn,NY,11226,550000,1,1,Brooklyn,,,,32,,,Active,,,http://www.redfin.com/NY/Brooklyn/77-Clarkson-Ave-11226/home/170068085,REBNY,RENY106668,N,Y,40.655254,-73.95723
MLS Listing,,Condo/Co-op,Unit at 2493 Ocean Ave,Brooklyn,NY,11229,539999,1,1,Brooklyn,,,,32,,,Active,,,http://www.redfin.com/NY/Brooklyn/2493-Ocean-Ave-11229/home/113909530,REBNY,DEGI4048759,N,Y,40.6007568,-73.9512973
MLS Listing,,Single Family Residential,111-42 147 St,Jamaica,NY,11435,539000,2,2.5,Jamaica,,2000,1925,32,,,Active,,,http://www.redfin.com/NY/Jamaica/11142-147th-St-11435/home/20714354,MLSLI,3185860,N,Y,40.6866949,-73.7970234
MLS Listing,,Condo/Co-op,Unit at 3810 Broadway,New York,NY,10032,545000,2,1,Washington Heights,,,,32,,,Active,,,http://www.redfin.com/NY/New-York/3810-Broadway-10032/home/45229800,REBNY,DEGI4047634,N,Y,40.8349812,-73.9439045
MLS Listing,,Condo/Co-op,60-11 Broadway Unit 6V,Woodside,NY,11377,535888,2,1,Henderson Apartments,,,1960,33,,,Active,,,http://www.redfin.com/NY/Woodside/6011-Broadway-11377/unit-6V/home/102812609,MLSLI,3185796,N,Y,40.75136,-73.901432
MLS Listing,,Condo/Co-op,1680 Ocean Ave Unit 3B,Brooklyn,NY,11230,509000,2,2,Brooklyn,1517,,1935,34,336,,Active,,,http://www.redfin.com/NY/Brooklyn/1680-Ocean-Ave-11230/unit-3B/home/103487874,BNYMLS,435274,N,Y,40.6211681,-73.9559582
MLS Listing,,Condo/Co-op,37-50 87th St Unit 5F,Jackson Heights,NY,11372,515000,2,1,Monticello,,,1950,35,,,Active,,,http://www.redfin.com/NY/Jackson-Heights/3750-87th-St-11372/unit-5F/home/28625606,MLSLI,3185257,N,Y,40.748944,-73.8797307
MLS Listing,,Condo/Co-op,61-55 98th St Unit 8D,Rego Park,NY,11374,550000,2,1.5,Park City Estates,1200,,1960,35,458,,Active,,,http://www.redfin.com/NY/Rego-Park/61-55-98th-St-11374/unit-8D/home/21454322,MLSLI,3185205,N,Y,40.7335541,-73.8596902
MLS Listing,,Condo/Co-op,63-47 Booth St Unit 6D,Rego Park,NY,11374,535000,1,1,Booth Mandor Condominium,693,,2001,37,772,209,Active,,,http://www.redfin.com/NY/Rego-Park/63-47-Booth-St-11374/unit-6D/home/20667762,MLSLI,3184949,N,Y,40.7290304,-73.8637297
MLS Listing,,Condo/Co-op,1 Bay Club Dr Unit 15-E,Bayside,NY,11360,529000,1,1,Bay Club,,,1982,37,,625,Active,,,http://www.redfin.com/NY/Bayside/1-Bay-Club-Dr-11360/unit-15E/home/20837965,MLSLI,3184927,N,Y,40.7784405,-73.7804294
MLS Listing,,Single Family Residential,1956 Obrien Ave,Bronx,NY,10473,549000,1,1,Bronx,680,2500,1920,37,807,,Active,,,http://www.redfin.com/NY/The-Bronx/1956-OBrien-Ave-10473/home/44720091,HGMLS,5125098,N,Y,40.8114861,-73.853875
MLS Listing,,Condo/Co-op,191 Willoughby St Unit 14 D,Brooklyn,NY,11201,530000,1,1,University Towers,800,,1958,37,663,,Active,,,http://www.redfin.com/NY/Brooklyn/191-Willoughby-St-11201/unit-14-D/home/170030876,MLSLI,3184898,N,Y,40.6925254,-73.9803939
MLS Listing,,Condo/Co-op,Unit at 102 -10 66th Rd,Queens,NY,11375,505000,2,1,Queens ( Other),,,,38,,,Active,,,http://www.redfin.com/NY/Forest-Hills/102-33-66th-Rd-11375/home/170020872,REBNY,KIAN533748,N,Y,40.7286368,-73.850485
MLS Listing,,Condo/Co-op,Unit at 1390 Putnam Ave,Brooklyn,NY,11221,535000,1,1,Bushwick,,,,39,,,Active,,,http://www.redfin.com/NY/Brooklyn/1390-Putnam-Ave-11221/home/170017970,REBNY,UCOM1861739,N,Y,40.694719,-73.911884
MLS Listing,,Single Family Residential,4A Garden St,Staten  Island,NY,10314,529000,2,1,Staten  Island,1680,1400,1988,39,315,,Active,,,http://www.redfin.com/NY/Staten-Island/4A-Garden-St-10314/home/168675600,BNYMLS,435174,N,Y,40.611766,-74.122327
MLS Listing,,Condo/Co-op,Unit at 125 E 93rd St,New York,NY,10128,549000,1,1,Upper East Side,,,,40,,,Active,,,http://www.redfin.com/NY/New-York/125-E-93rd-St-10128/home/59312307,REBNY,ELEG1285800,N,Y,40.784309,-73.9527667
MLS Listing,,Condo/Co-op,319 E 105th St Unit 2C,New York,NY,10029,524900,2,1,New York,721,,1950,41,728,700,Active,,,http://www.redfin.com/NY/New-York/319-E-105th-St-10029/unit-2C/home/45298606,HGMLS,5123972,N,Y,40.7897278,-73.9417915
MLS Listing,,Condo/Co-op,61-20 Grand Central Pkwy Unit B1103,Forest Hills,NY,11375,549888,2,2,The Fairview,,,1965,41,,,Active,,,http://www.redfin.com/NY/Forest-Hills/61-20-Grand-Central-Pkwy-11375/unit-B1103/home/50258101,MLSLI,3183861,N,Y,40.7380691,-73.8473845
MLS Listing,,Condo/Co-op,Unit at 1615 Ave I,Brooklyn,NY,11230,539000,2,1,Midwood,,,,42,,,Active,,,http://www.redfin.com/NY/Brooklyn/1615-Avenue-I-11230/home/169996534,REBNY,UCOM1861138,N,Y,40.6281935,-73.960305
MLS Listing,,Condo/Co-op,Unit at 420 E 72nd St,New York,NY,10021,529000,1,1,Upper East Side,,,,42,,,Active,,,http://www.redfin.com/NY/New-York/420-E-72nd-St-10021/home/168915065,REBNY,CITI5944046,N,Y,40.7672585,-73.9553234
MLS Listing,,Condo/Co-op,Unit at 920 E 17th St,Brooklyn,NY,11230,525000,2,1,Midwood,,,,42,,,Active,,,http://www.redfin.com/NY/Brooklyn/920-E-17th-St-11230/home/55627109,REBNY,UCOM1276759,N,Y,40.6279398,-73.9601586
MLS Listing,,Condo/Co-op,105-24 64th Rd Unit 4M,Forest Hills,NY,11375,529000,2,1,Boulevard Tenants Corp.,,,1950,42,,,Active,,,http://www.redfin.com/NY/Forest-Hills/105-24-64th-Rd-11375/unit-4M/home/92322774,MLSLI,3183584,N,Y,40.7315233,-73.8504063
MLS Listing,,Condo/Co-op,5 Leeward Ln Unit 2-4,Bronx,NY,10464,529000,2,2.5,Bronx,1537,,1983,44,344,850,Active,,,http://www.redfin.com/NY/The-Bronx/5-Leeward-Ln-10464/unit-24/home/44750245,HGMLS,5122722,N,Y,40.8462285,-73.7830789
MLS Listing,,Condo/Co-op,Unit at 30 -06 29th St,Queens,NY,11102,550000,1,1,Astoria,,,,45,,,Active,,,http://www.redfin.com/NY/Long-Island-City/30-70-29th-St-11102/home/169984755,REBNY,CORC5941608,N,Y,40.765975,-73.924656
MLS Listing,,Condo/Co-op,43-17 Union St Unit 3E,Flushing,NY,11355,519900,1,1,Flushing,900,,2005,48,578,216,Active,,,http://www.redfin.com/NY/Flushing/43-17-Union-St-11355/unit-3E/home/21693098,HGMLS,5122522,N,Y,40.7543388,-73.8210937
MLS Listing,,Condo/Co-op,1543 W 1 St Unit A8,Brooklyn,NY,11204,538000,2,1,Brooklyn,912,,1932,52,590,,Active,,,http://www.redfin.com/NY/Brooklyn/1543-W-1st-St-11204/unit-A8/home/40652127,BNYMLS,434940,N,Y,40.6088324,-73.9747843
MLS Listing,,Condo/Co-op,Unit at 300 Albany St,New York,NY,10280,550000,1,1,Battery Park City,,,,53,,,Active,,,http://www.redfin.com/NY/New-York/300-Albany-St-10280/home/45234936,REBNY,LLGI776153,N,Y,40.7100228,-74.0168448
MLS Listing,,Condo/Co-op,54-09 108th St Unit 2A,Corona,NY,11368,540000,2,2,0,,,1992,53,,,Active,,,http://www.redfin.com/NY/Corona/54-09-108th-St-11368/unit-2A/home/20918353,MLSLI,3182047,N,Y,40.7419498,-73.8538512
MLS Listing,,Condo/Co-op,41-20 46th St Unit 4A,Sunnyside,NY,11104,539000,1,1,Sunnyside Owners Corp.,,,1939,53,,,Active,,,http://www.redfin.com/NY/Sunnyside/41-20-46th-St-11104/unit-4A/home/20645908,MLSLI,3181939,N,Y,40.7460275,-73.9183989
MLS Listing,,Condo/Co-op,207-09 Estates Dr,Bayside,NY,11360,548000,1,1,Baybridge,750,,1985,54,731,137,Active,,,http://www.redfin.com/NY/Bayside/207-9-Estates-Dr-11360/unit-26142/home/20841146,MLSLI,3181922,N,Y,40.787781,-73.787919
MLS Listing,,Condo/Co-op,Unit at 25 W 64th St,New York,NY,10023,549000,1,1,Upper West Side,,,,56,,,Active,,,http://www.redfin.com/NY/New-York/25-W-64th-St-10023/home/75242620,REBNY,BOND1607647,N,Y,40.7718049,-73.9806843
MLS Listing,,Condo/Co-op,515 Avenue I Unit 5F,Brooklyn,NY,11230,530000,2,1,Brooklyn,1200,,1930,58,442,,Active,,,http://www.redfin.com/NY/Brooklyn/515-Avenue-I-11230/unit-5F/home/169857511,BNYMLS,434811,N,Y,40.6266848,-73.9719538
MLS Listing,,Condo/Co-op,9411 Shore Rd Unit 3E,Brooklyn,NY,11209,550000,1,1,Brooklyn,1050,,,59,524,,Active,,,http://www.redfin.com/NY/Brooklyn/9411-Shore-Rd-11209/unit-3E/home/169843734,BNYMLS,434788,N,Y,40.617623,-74.038637
MLS Listing,,Condo/Co-op,Unit at 417 E 90th St,New York,NY,10128,550000,1,1,Upper East Side,,,,59,,,Active,,,http://www.redfin.com/NY/New-York/417-E-90th-St-10128/home/52656304,REBNY,LIVL102448,N,Y,40.7790902,-73.9463148
MLS Listing,,Multi-Family (2-4 Unit),137-33 233rd St,Jamaica,NY,11422,525000,2,2,Jamaica,1360,3142,1925,60,386,,Active,,,http://www.redfin.com/NY/Jamaica/137-33-233rd-St-11422/home/20695222,MLSLI,3180500,N,Y,40.6705756,-73.7393407
MLS Listing,,Single Family Residential,3087 Hatting Pl,Bronx,NY,10465,549000,2,1,Bronx,1426,3998,1915,60,385,,Active,,,http://www.redfin.com/NY/The-Bronx/3087-Hatting-Pl-10465/home/44785849,HGMLS,5120103,N,Y,40.8144031,-73.8071103
MLS Listing,,Condo/Co-op,300 Albany St Unit 9M,New York,NY,10280,514900,1,1,New York,695,16226,1986,60,741,2650,Active,,,http://www.redfin.com/NY/New-York/300-Albany-St-10280/unit-9M/home/45235023,HGMLS,5119816,N,Y,40.7100228,-74.0168448
MLS Listing,,Condo/Co-op,Unit at 100 Overlook Ter,New York,NY,10040,515000,1,1,Hudson Heights,,,,61,,,Active,,,http://www.redfin.com/NY/New-York/100-Overlook-Ter-10040/home/108531704,REBNY,UCOM1521357,N,Y,40.8558902,-73.9351781
MLS Listing,,Townhouse,1621 Tenbroeck Ave,Bronx,NY,10461,539000,2,2,Bronx,1512,1999,1935,63,356,,Active,,,http://www.redfin.com/NY/The-Bronx/1621-Tenbroeck-Ave-10461/home/44733251,HGMLS,5117396,N,Y,40.8490189,-73.8472705
MLS Listing,,Condo/Co-op,144-70 41 Ave Unit 5H&6H,Flushing,NY,11355,529000,2,1.5,The Plaza,1200,,1962,64,441,,Active,,,http://www.redfin.com/NY/Flushing/144-70-41st-Ave-11355/unit-5H-6H/home/169770522,MLSLI,3179468,N,Y,40.7610336,-73.8188858
MLS Listing,,Condo/Co-op,Unit at 22 -30 76th St,Queens,NY,11370,539000,2,1,East Elmhurst,,,,66,,,Active,,,http://www.redfin.com/NY/East-Elmhurst/22-31-76th-St-11370/home/169750429,REBNY,BOUK187225,N,Y,40.7684038,-73.8928629
MLS Listing,,Condo/Co-op,144-85 Roosevelt Ave Unit 5E,Flushing,NY,11354,549000,2,1,Roosevelt Plaza,,,2010,66,,466,Active,,,http://www.redfin.com/NY/Flushing/144-85-Roosevelt-Ave-11354/unit-5E/home/28685407,MLSLI,3179243,N,Y,40.762693,-73.8191615
MLS Listing,,Condo/Co-op,144-89 38 Ave Ave,Flushing,NY,11354,515000,1,1,38 Avenue Develop,,,2019,67,,,Active,,,http://www.redfin.com/NY/Flushing/144-89-38th-Ave-11354/home/20856223,MLSLI,3179029,N,Y,40.763834,-73.819618
MLS Listing,,Condo/Co-op,Unit at 61 Martense St,Brooklyn,NY,11226,540000,2,1,Flatbush,,,,67,,,Active,,,http://www.redfin.com/NY/Unknown/61-Martense-St-11226/home/146129526,REBNY,CHRS2814411,N,Y,40.6515638,-73.9570602
MLS Listing,,Condo/Co-op,6405 Yellowstone Blvd #414,Forest Hills,NY,11375,549000,1,1,Novo 64,738,,2008,69,744,666,Active,,,http://www.redfin.com/NY/Forest-Hills/64-05-Yellowstone-Blvd-11375/unit-414/home/169651240,MLSLI,3178187,N,Y,40.7322513,-73.850912
MLS Listing,,Condo/Co-op,141-05 Cherry Ave Unit 3E,Flushing,NY,11355,547900,1,1,141-05 Cherry Avenue,,,2008,70,,131,Active,,,http://www.redfin.com/NY/Flushing/141-05-Cherry-Ave-11355/unit-3E/home/40223213,MLSLI,3177928,N,Y,40.754888,-73.8216199
MLS Listing,,Condo/Co-op,Unit at 141 -05 Cherry Ave,Queens,NY,11355,547900,1,1,Flushing,,,,70,,,Active,,,http://www.redfin.com/NY/Flushing/141-Cherry-Ave-11355/home/169646482,REBNY,HDAX1283,N,Y,40.7547443,-73.8216527
MLS Listing,,Single Family Residential,135-05 Foch Blvd,S. Ozone Park,NY,11420,500000,2,3,S. Ozone Park,,2075,1925,70,,,Active,,,http://www.redfin.com/NY/Jamaica/135-05-Foch-Blvd-11420/home/20721868,MLSLI,3177872,N,Y,40.6775949,-73.804367
MLS Listing,,Single Family Residential,103-62 101st St,Ozone Park,NY,11417,550000,2,1,Ozone Park,,1354,1925,70,,,Active,,,http://www.redfin.com/NY/Jamaica/103-62-101st-St-11417/home/20771709,MLSLI,3177868,N,Y,40.6819107,-73.8400626
MLS Listing,,Condo/Co-op,110-20 71 Rd #410,Forest Hills,NY,11375,530000,2,1,Ps 196/71st Express,,,1956,73,,,Active,,,http://www.redfin.com/NY/Forest-Hills/11020-71st-Rd-11375/unit-410/home/40001888,MLSLI,3177318,N,Y,40.7216499,-73.84119
MLS Listing,,Condo/Co-op,1549 W 3 St Unit 4B,Brooklyn,NY,11204,530000,2,1.75,Brooklyn,729,,2009,73,727,,Active,,,http://www.redfin.com/NY/Brooklyn/1549-W-3rd-St-11204/unit-4B/home/40929690,BNYMLS,434466,N,Y,40.6097285,-73.9768734
MLS Listing,,Condo/Co-op,Unit at 407 W 40th St,New York,NY,10018,529000,1,1,Middle West Side,,,,74,,,Active,,,http://www.redfin.com/NY/New-York/407-W-40th-St-10018/home/169625761,REBNY,UCOM1856919,N,Y,40.7575845,-73.9941366
MLS Listing,,Condo/Co-op,141-16 84 Dr Unit 4C,Briarwood,NY,11435,539000,2,2,141-12 84 Dr Realty,847,,2010,74,636,,Active,,,http://www.redfin.com/NY/Jamaica/141-16-84th-Dr-11435/unit-4C/home/40223279,MLSLI,3177051,N,Y,40.7100602,-73.8157841
MLS Listing,,Condo/Co-op,Unit at 260 Ocean Pkwy,Brooklyn,NY,11218,515000,2,1,Kensington,,,,75,,,Active,,,http://www.redfin.com/NY/Brooklyn/260-Ocean-Pkwy-11218/home/40921052,REBNY,GRIF2202,N,Y,40.6428882,-73.9747001
MLS Listing,,Condo/Co-op,Unit at 15 E 19th St,Brooklyn,NY,11226,515000,1,1,Prospect Park,,,,75,,,Active,,,http://www.redfin.com/NY/Brooklyn/15-E-19th-St-11226/home/169604217,REBNY,DEGI3541617,N,Y,40.6494093,-73.9618164
MLS Listing,,Condo/Co-op,Unit at 501 W 123rd St,New York,NY,10027,539000,1,1,Morningside Heights,,,,75,,,Active,,,http://www.redfin.com/NY/New-York/501-W-123rd-St-10027/home/169600894,REBNY,BOND1603825,N,Y,40.8117281,-73.957795
MLS Listing,,Condo/Co-op,31-85 Crescent St #208,Astoria,NY,11106,549000,1,1,Crescent House,700,,1960,80,784,,Active,,,http://www.redfin.com/NY/Astoria/3185-Crescent-St-11106/unit-208/home/169568634,MLSLI,3175611,N,Y,40.7642499,-73.92761
MLS Listing,,Condo/Co-op,Unit at 320 W 84th St,New York,NY,10024,500000,1,1,Upper West Side,,,,80,,,Active,,,http://www.redfin.com/NY/New-York/320-W-84th-St-10024/home/45179890,REBNY,DEGI4001916,N,Y,40.7877675,-73.9798119
MLS Listing,,Condo/Co-op,856 43 St #2,Brooklyn,NY,11232,548000,2,1,Brooklyn,830,,1922,81,660,,Active,,,http://www.redfin.com/NY/Brooklyn/856-43rd-St-11232/unit-2/home/40647649,BNYMLS,434272,N,Y,40.6441626,-73.9984563
MLS Listing,,Condo/Co-op,51 Canal St Unit 4E,New York,NY,10002,538000,1,1,New York,382,,1908,81,1408,,Active,,,http://www.redfin.com/NY/New-York/51-Canal-St-10002/unit-4E/home/45239942,BNYMLS,434223,N,Y,40.715033,-73.9916497
MLS Listing,,Condo/Co-op,Unit at 102 -10 66th Rd,Queens,NY,11375,529000,2,1,Queens ( Other),,,,82,,,Active,,,http://www.redfin.com/NY/Forest-Hills/102-33-66th-Rd-11375/home/169525861,REBNY,KIAN528015,N,Y,40.7286368,-73.850485
MLS Listing,,Condo/Co-op,91-10 34th Ave,Jackson Heights,NY,11372,549000,2,1,Almara Condominium,,13000,1958,84,,255,Active,,,http://www.redfin.com/NY/Jackson-Heights/91-10-34th-Ave-11372/home/20666371,MLSLI,3174477,N,Y,40.7544029,-73.876343
MLS Listing,,Condo/Co-op,65-50 Wetherole St Unit 2H,Rego Park,NY,11374,506000,1,1,Wetherole Plaza,788,,1963,86,642,334,Active,,,http://www.redfin.com/NY/Flushing/65-50-Wetherole-St-11374/unit-2H/home/59307945,MLSLI,3174059,N,Y,40.7262081,-73.8587156
MLS Listing,,Condo/Co-op,Unit at 175 Adams St,Brooklyn,NY,11201,549000,1,1,Brooklyn Heights,,,,86,,,Active,,,http://www.redfin.com/NY/Brooklyn/175-Adams-St-11201/home/40646305,REBNY,CORC5918581,N,Y,40.6985171,-73.9881802
MLS Listing,,Condo/Co-op,Unit at 140 E 2nd St,Brooklyn,NY,11218,550000,1,1,Windsor Terrace,,,,87,,,Active,,,http://www.redfin.com/NY/Brooklyn/140-E-2nd-St-11218/home/59292676,REBNY,UCOM1855210,N,Y,40.6488217,-73.9798185
MLS Listing,,Condo/Co-op,Unit at 90 La Salle St,New York,NY,10027,545000,1,1,Morningside Heights,,,,88,,,Active,,,http://www.redfin.com/NY/New-York/90-La-Salle-St-10027/home/169450803,REBNY,BOND1602702,N,Y,40.8130022,-73.9586215
MLS Listing,,Condo/Co-op,Unit at 200 E 36th St,New York,NY,10016,525000,1,1,Murray Hill Kips Bay,,,,90,,,Active,,,http://www.redfin.com/NY/New-York/200-E-36th-St-10016/home/169430010,REBNY,UCOM1854525,N,Y,40.746728,-73.9768862
MLS Listing,,Condo/Co-op,Unit at 136 E 36th St,New York,NY,10016,525000,1,1,Murray Hill Kips Bay,,,,91,,,Active,,,http://www.redfin.com/NY/New-York/136-E-36th-St-10016/home/169417582,REBNY,LETS1853391,N,Y,40.7474557,-73.9786382
MLS Listing,,Condo/Co-op,43-55 Kissena Blvd Unit 4C,Flushing,NY,11355,525000,2,1,Payson Apartment Corp.,1400,,1950,94,375,,Active,,,http://www.redfin.com/NY/Unknown/43-55-Kissena-Blvd-11355/unit-4C/home/146440313,MLSLI,3172237,N,Y,40.7545034,-73.8228376
MLS Listing,,Condo/Co-op,Unit at 230 E 79th St,New York,NY,10075,540000,1,1,Upper East Side,,,,94,,,Active,,,http://www.redfin.com/NY/New-York/230-E-79th-St-10075/home/45202816,REBNY,CORC5895367,N,Y,40.7735465,-73.9561566
MLS Listing,,Condo/Co-op,71-31 Park Ave #1,Fresh Meadows,NY,11365,540000,2,2,Hillcrest Estates,,,1985,94,,,Active,,,http://www.redfin.com/NY/Flushing/7131-Park-Ave-11365/unit-1/home/20821803,MLSLI,3172101,N,Y,40.729615,-73.8086212
MLS Listing,,Condo/Co-op,34-20 83rd St Unit 3E,Jackson Heights,NY,11372,515000,1,1,Corona-Arm,828,,1957,94,622,376,Active,,,http://www.redfin.com/NY/Jackson-Heights/3420-83rd-St-11372/unit-3E/home/20932947,MLSLI,3172055,N,Y,40.7531581,-73.884264
MLS Listing,,Condo/Co-op,Unit at 160 E 26th St,New York,NY,10010,539000,1,1.5,Middle East Side,,,,95,,,Active,,,http://www.redfin.com/NY/New-York/160-E-26th-St-10010/home/45146195,REBNY,SOTH2798900,N,Y,40.7407858,-73.9823415
MLS Listing,,Single Family Residential,2048 E 63 St,Brooklyn,NY,11234,549900,2,1,Brooklyn,1120,2075,1925,95,491,,Active,,,http://www.redfin.com/NY/Brooklyn/2048-E-63rd-St-11234/home/40898737,BNYMLS,433941,N,Y,40.616566,-73.9140833
MLS Listing,,Condo/Co-op,Unit at 25 W 64th St,New York,NY,10023,530000,1,1,Upper West Side,,,,96,,,Active,,,http://www.redfin.com/NY/New-York/25-W-64th-St-10023/home/45149424,REBNY,DEGI3986610,N,Y,40.7718049,-73.9806843
MLS Listing,,Condo/Co-op,Unit at 385 Argyle Rd,Brooklyn,NY,11218,509900,1,1,Ditmas Park,,,,96,,,Active,,,http://www.redfin.com/NY/Brooklyn/385-Argyle-Rd-11218/home/169368558,REBNY,DEGI3982234,N,Y,40.6397995,-73.9656929
MLS Listing,,Condo/Co-op,9921 4 Ave Unit 4B,Brooklyn,NY,11209,514900,1,1,Brooklyn,826,,1985,96,623,,Active,,,http://www.redfin.com/NY/Brooklyn/9921-4th-Ave-11209/unit-4B/home/40821441,BNYMLS,433905,N,Y,40.6130031,-74.0331795
MLS Listing,,Condo/Co-op,205 E 78 St Unit 15A,New York,NY,10075,525000,1,1,New York,700,,,97,750,,Active,,,http://www.redfin.com/NY/New-York/205-E-78th-St-10075/unit-15A/home/53326030,BNYMLS,433903,N,Y,40.7736038,-73.9573268
MLS Listing,,Condo/Co-op,70 Park Terrace West Unit E42,New York,NY,10034,549000,2,1,New York,975,,1939,97,563,,Active,,,http://www.redfin.com/NY/New-York/70-Park-Ter-W-10034/unit-E42/home/45165704,HGMLS,5095444,N,Y,40.8713797,-73.9170171
MLS Listing,,Condo/Co-op,Unit at 35 Crown St,Brooklyn,NY,11225,525000,2,1,Crown Heights,,,,97,,,Active,,,http://www.redfin.com/NY/Brooklyn/35-Crown-St-11225/home/169301182,REBNY,DWRE104145,N,Y,40.6676664,-73.960619
MLS Listing,,Single Family Residential,130-26 127th St,Wakefield,NY,11420,525000,2,1.5,Wakefield,,2175,1930,98,,,Active,,,http://www.redfin.com/NY/Jamaica/130-26-127th-St-11420/home/20721341,MLSLI,3170721,N,Y,40.671968,-73.8120239
MLS Listing,,Condo/Co-op,Unit at 280 Ocean Pkwy,Brooklyn,NY,11218,529999,1,1,Kensington,,,,99,,,Active,,,http://www.redfin.com/NY/Brooklyn/280-Ocean-Pkwy-11218/home/169290489,REBNY,CORC5897006,N,Y,40.6424242,-73.9746466
MLS Listing,,Condo/Co-op,143-36 37th Ave #5,Flushing,NY,11354,529000,1,1,37th Ave,,,2005,101,,194,Active,,,http://www.redfin.com/NY/Flushing/143-36-37th-Ave-11354/unit-5/home/169287390,MLSLI,3170319,N,Y,40.7632046,-73.8237606
MLS Listing,,Condo/Co-op,180 Thompson St Unit 2D,Manhattan,NY,10012,548000,1,1,180 Thompson Owners Cor,,,1920,101,,744,Active,,,http://www.redfin.com/NY/New-York/180-Thompson-St-10012/unit-2D/home/45204612,MLSLI,3170207,N,Y,40.7278952,-73.9998294
MLS Listing,,Single Family Residential,3155 Avenue W,Brooklyn,NY,11229,514900,2,1.5,Brooklyn,980,1440,1939,103,525,,Active,,,http://www.redfin.com/NY/Brooklyn/3155-Avenue-W-11229/home/40909830,BNYMLS,433768,N,Y,40.5971106,-73.9319178
MLS Listing,,Condo/Co-op,18-15 215 St Unit 9P,Bayside,NY,11360,526000,2,2,Towers At Water's Edge,1200,,1970,103,438,,Active,,,http://www.redfin.com/NY/Bayside/1815-215th-St-11360/unit-9-P/home/20633453,MLSLI,3169312,N,Y,40.7839299,-73.77643
MLS Listing,,Condo/Co-op,Unit at 2 S End Ave,New York,NY,10280,500000,1,1,Battery Park City,,,,104,,,Active,,,http://www.redfin.com/NY/New-York/2-S-End-Ave-10280/home/45236637,REBNY,RUTE1852182,N,Y,40.7078381,-74.0174577
MLS Listing,,Condo/Co-op,87-12 175th St Unit 6B,Jamaica,NY,11432,535000,2,2,Aftab Park,,,2014,106,,369,Active,,,http://www.redfin.com/NY/Jamaica/87-12-175th-St-11432/unit-6B/home/109707139,MLSLI,3168610,N,Y,40.7112649,-73.7878889
MLS Listing,,Single Family Residential,80-17 57th St,Glendale,NY,11385,549999,2,1,Glendale,,2500,1920,107,,,Active,,,http://www.redfin.com/NY/Flushing/80-17-57th-St-11385/home/20879724,MLSLI,3168408,N,Y,40.69329,-73.897035
MLS Listing,,Condo/Co-op,Unit at 320 E 42nd St,New York,NY,10017,550000,1,1,Middle East Side,,,,108,,,Active,,,http://www.redfin.com/NY/New-York/320-E-42nd-St-10017/home/45335071,REBNY,KWNY237019,N,Y,40.7494804,-73.9717381
MLS Listing,,Condo/Co-op,Unit at 444 E 75th St,New York,NY,10021,525000,1,1,Upper East Side,,,,109,,,Active,,,http://www.redfin.com/NY/New-York/444-E-75th-St-10021/home/45159446,REBNY,SOTH2771823,N,Y,40.7686692,-73.9527508
MLS Listing,,Condo/Co-op,Unit at 1919 Madison Ave,New York,NY,10035,515000,2,1,Mt. Morris Park,,,,109,,,Active,,,http://www.redfin.com/NY/New-York/1919-Madison-Ave-10035/home/45318566,REBNY,BIZA189491,N,Y,40.8045686,-73.9410797
MLS Listing,,Condo/Co-op,40-35 Ithaca Ave Unit 5J,Elmhurst,NY,11373,539999,1,1,Ithaka Arms,808,,1937,109,668,540,Active,,,http://www.redfin.com/NY/Queens/40-35-Ithaca-St-11373/unit-5J/home/20928131,MLSLI,3167979,N,Y,40.7461172,-73.8822891
MLS Listing,,Condo/Co-op,Unit at 116 Pinehurst Ave,New York,NY,10033,525000,1,1,Washington Heights,,,,109,,,Active,,,http://www.redfin.com/NY/New-York/116-Pinehurst-Ave-10033/home/169208101,REBNY,HGLR3355,N,Y,40.8525349,-73.9389952
MLS Listing,,Condo/Co-op,141-05 Cherry Ave Unit 5B,Flushing,NY,11355,520000,1,1,Flushing Manor,,,2010,110,,126,Active,,,http://www.redfin.com/NY/Flushing/141-05-Cherry-Ave-11355/unit-5B/home/35634089,MLSLI,3167630,N,Y,40.754888,-73.8216199
MLS Listing,,Condo/Co-op,Unit at 24 Monroe Pl,Brooklyn,NY,11201,549000,1,1,Brooklyn Heights,,,,111,,,Active,,,http://www.redfin.com/NY/Brooklyn/24-Monroe-Pl-11201/home/40646960,REBNY,CORC5890584,N,Y,40.6962857,-73.9922313
MLS Listing,,Single Family Residential,496 Arden Ave,Staten Island,NY,10312,519000,2,1,Annandale,1100,6000,1940,111,472,,Active,,,http://www.redfin.com/NY/Staten-Island/496-Arden-Ave-10312/home/56104069,SIBORMLS,1132504,N,Y,40.5488832,-74.1856243
MLS Listing,,Condo/Co-op,Unit at 431 E 82nd St,New York,NY,10028,550000,1,1,Upper East Side,,,,111,,,Active,,,http://www.redfin.com/NY/New-York/431-E-82nd-St-10028/home/45162549,REBNY,DEGI3962181,N,Y,40.7737792,-73.9495867
MLS Listing,,Condo/Co-op,Unit at 68 -36 Burns St,Queens,NY,11375,530000,2,1,Forest Hills,,,,111,,,Active,,,http://www.redfin.com/NY/Forest-Hills/68-Burns-St-11375/home/169198755,REBNY,CORC5881308,N,Y,40.719224,-73.8449186
MLS Listing,,Condo/Co-op,119 Beach 119th St,Rockaway Park,NY,11694,549000,2,2,Seavon,,,2006,111,,300,Active,,,http://www.redfin.com/NY/Rockaway-Park/119-Beach-119th-St-11694/home/169198242,MLSLI,3167169,N,Y,40.5771388,-73.8389498
MLS Listing,,Condo/Co-op,Unit at 631 E 18th St,Brooklyn,NY,11226,540000,1,1,Ditmas Park,,,,111,,,Active,,,http://www.redfin.com/NY/Brooklyn/631-E-18th-St-11226/home/169198130,REBNY,CORC5893404,N,Y,40.6357203,-73.9602516
MLS Listing,,Condo/Co-op,Unit at 150 E 93rd St,New York,NY,10128,500000,1,1,Upper East Side,,,,112,,,Active,,,http://www.redfin.com/NY/New-York/150-E-93rd-St-10128/home/45161188,REBNY,UCOM132146,N,Y,40.7836666,-73.9522501
MLS Listing,,Condo/Co-op,Unit at 7618 69th Pl,Queens,NY,11385,540000,2,2,Ridgewood,,,,112,,,Active,,,http://www.redfin.com/NY/Glendale/76-18-69th-Pl-11385/home/20662612,REBNY,CORC5880376,N,Y,40.7001566,-73.882185
MLS Listing,,Condo/Co-op,Unit at 385 E 18th St,Brooklyn,NY,11226,549000,1,1,Ditmas Park,,,,113,,,Active,,,http://www.redfin.com/NY/Brooklyn/385-E-18th-St-11226/home/169149836,REBNY,DEGI3958401,N,Y,40.6419847,-73.9614428
MLS Listing,,Condo/Co-op,Unit at 357 E 57th St,New York,NY,10022,530000,1,1,Middle East Side,,,,115,,,Active,,,http://www.redfin.com/NY/New-York/357-E-57th-St-10022/home/45180731,REBNY,HALS19879214,N,Y,40.758601,-73.9630663
MLS Listing,,Condo/Co-op,4300 Atlantic Ave #5,Brooklyn,NY,11224,509000,1,1.5,Brooklyn,800,,2013,116,636,,Active,,,http://www.redfin.com/NY/Brooklyn/4300-Atlantic-Ave-11224/unit-5/home/52053973,BNYMLS,433409,N,Y,40.5749519,-74.0093816
MLS Listing,,Condo/Co-op,Unit at 240 E 35th St,New York,NY,10016,525000,1,1,Middle East Side,,,,116,,,Active,,,http://www.redfin.com/NY/New-York/240-E-35th-St-10016/home/45337830,REBNY,DEGI3956485,N,Y,40.7456011,-73.9761675
MLS Listing,,Condo/Co-op,Unit at 205 E 63rd St,New York,NY,10021,500000,1,1,Upper East Side,,,,116,,,Active,,,http://www.redfin.com/NY/New-York/205-E-63rd-St-10065/home/45182307,REBNY,DEGI3956722,N,Y,40.7640501,-73.964336
MLS Listing,,Condo/Co-op,143-41 84 Dr Unit 8E,Briarwood,NY,11435,518000,1,1,Briarwood Terrace,,,2007,116,,360,Active,,,http://www.redfin.com/NY/Jamaica/143-41-84th-Dr-11435/unit-8E/home/21693015,MLSLI,3165780,N,Y,40.711857,-73.813012
MLS Listing,,Condo/Co-op,Unit at 235 Adams St,Brooklyn,NY,11201,549000,1,1,Brooklyn Heights,,,,117,,,Active,,,http://www.redfin.com/NY/Brooklyn/235-Adams-St-11201/home/40662273,REBNY,CORC5885778,N,Y,40.6965654,-73.9882876
MLS Listing,,Single Family Residential,126-04 116th Ave,S. Ozone Park,NY,11420,549000,2,1.5,S. Ozone Park,,1600,1925,119,,,Active,,,http://www.redfin.com/NY/Jamaica/126-04-116th-Ave-11420/home/20720493,MLSLI,3164969,N,Y,40.676813,-73.812299
MLS Listing,,Condo/Co-op,Unit at 175 Adams St,Brooklyn,NY,11201,549000,1,1,Brooklyn Heights,,,,119,,,Active,,,http://www.redfin.com/NY/Brooklyn/175-Adams-St-11201/home/169082906,REBNY,CORC5888268,N,Y,40.6985171,-73.9881802
MLS Listing,,Condo/Co-op,Unit at 820 Ocean Pkwy,Brooklyn,NY,11230,549000,2,2,Midwood,,,,120,,,Active,,,http://www.redfin.com/NY/Brooklyn/820-Ocean-Pkwy-11230/home/39601993,REBNY,CORC5879929,N,Y,40.6286311,-73.9714806
MLS Listing,,Condo/Co-op,668 Broadway #11,Brooklyn,NY,11206,549999,1,1,666-668 Broadway Corp.,872,,1931,121,631,406,Active,,,http://www.redfin.com/NY/Unknown/668-Broadway-11206/unit-11/home/146883548,MLSLI,3164516,N,Y,40.7021022,-73.9444999
MLS Listing,,Condo/Co-op,Unit at 345 E 52nd St,New York,NY,10022,545000,1,1,Middle East Side,,,,121,,,Active,,,http://www.redfin.com/NY/New-York/345-E-52nd-St-10022/home/45154701,REBNY,MAJA1843702,N,Y,40.7556299,-73.9657893
MLS Listing,,Condo/Co-op,Unit at 114 W 80th St,New York,NY,10024,545000,1,1,Upper West Side,,,,122,,,Active,,,http://www.redfin.com/NY/New-York/114-W-80th-St-10024/home/45328417,REBNY,BHSR19851307,N,Y,40.7828369,-73.9759896
MLS Listing,,Condo/Co-op,Unit at 525 E 82nd St,New York,NY,10028,515000,1,1,Upper East Side,,,,123,,,Active,,,http://www.redfin.com/NY/New-York/525-E-82nd-St-10028/home/45185297,REBNY,HALS19841888,N,Y,40.7729424,-73.947401
MLS Listing,,Condo/Co-op,Unit at 200 E 24th St,New York,NY,10010,525000,1,1,Middle East Side,,,,124,,,Active,,,http://www.redfin.com/NY/New-York/200-E-24th-St-10010/home/45147203,REBNY,CORC5883412,N,Y,40.7393736,-73.9827303
MLS Listing,,Condo/Co-op,Unit at 201 E 28th St,New York,NY,10016,520000,1,1,Murray Hill Kips Bay,,,,124,,,Active,,,http://www.redfin.com/NY/New-York/201-E-28th-St-10016/home/45147777,REBNY,BHSR19848514,N,Y,40.7419383,-73.9803309
MLS Listing,,Condo/Co-op,Unit at 185 Clinton Ave,Brooklyn,NY,11205,525000,1,1,Clinton Hill,,,,125,,,Active,,,http://www.redfin.com/NY/Brooklyn/185-Clinton-Ave-11205/home/83547196,REBNY,UCOM1848106,N,Y,40.6925557,-73.968402
MLS Listing,,Condo/Co-op,Unit at 1615 Ave I,Brooklyn,NY,11230,525000,2,2,Midwood,,,,126,,,Active,,,http://www.redfin.com/NY/Brooklyn/1615-Avenue-I-11230/home/168956592,REBNY,UCOM1847807,N,Y,40.6281935,-73.960305
MLS Listing,,Condo/Co-op,116-24 Grosvenor Ln Unit 9A,Kew Gardens,NY,11415,530000,2,1,Park Lane Condominium,1092,,2007,127,485,889,Active,,,http://www.redfin.com/NY/Richmond-Hill/116-24-Grosvenor-Ln-11418/unit-9A/home/21683305,MLSLI,3162561,N,Y,40.706878,-73.8356845
MLS Listing,,Condo/Co-op,Unit at 35 -21 79th St,Queens,NY,11372,518000,1,1,Jackson Heights,,,,129,,,Active,,,http://www.redfin.com/NY/Queens/35-21-79th-ST-11372/home/169119269,REBNY,DEGI3943602,N,Y,40.7527924,-73.8801301
MLS Listing,,Condo/Co-op,Unit at 357 E 57th St,New York,NY,10022,525000,1,1,Middle East Side,,,,129,,,Active,,,http://www.redfin.com/NY/New-York/357-E-57th-St-10022/home/160361026,REBNY,UCOM28206,N,Y,40.758601,-73.9630663
MLS Listing,,Condo/Co-op,Unit at 105 Bennett Ave,New York,NY,10033,525000,1,1,Hudson Heights,,,,129,,,Active,,,http://www.redfin.com/NY/New-York/105-Bennett-Ave-10033/home/144132923,REBNY,KWNY236339,N,Y,40.8539526,-73.9345678
MLS Listing,,Condo/Co-op,Unit at 4407 Fourth Ave,Brooklyn,NY,11232,530000,2,1,Sunset Park,,,,129,,,Active,,,http://www.redfin.com/NY/Brooklyn/4407-4th-Ave-11220/home/168933679,REBNY,UCOM1847290,N,Y,40.6494513,-74.0090506
MLS Listing,,Condo/Co-op,Unit at 304 W 89th St,New York,NY,10024,510000,1,1,Upper West Side,,,,130,,,Active,,,http://www.redfin.com/NY/New-York/304-W-89th-St-10024/home/45337280,REBNY,FWRE2417483,N,Y,40.7908475,-73.9770571
MLS Listing,,Condo/Co-op,3041 Brighton 2 St Unit 4A,Brooklyn,NY,11235,529000,1,2,Brooklyn,1004,,2012,132,527,,Active,,,http://www.redfin.com/NY/Brooklyn/3041-Brighton-2nd-St-11235/unit-4A/home/52053770,BNYMLS,432895,N,Y,40.5779222,-73.9652403
MLS Listing,,Condo/Co-op,19-37 79th St #1,E. Elmhurst,NY,11370,525000,2,1,Garden Bay Manor,900,,1962,132,583,,Active,,,http://www.redfin.com/NY/Flushing/1937-79th-St-11370/unit-1/home/20941586,MLSLI,3160995,N,Y,40.7717042,-73.8906991
MLS Listing,,Condo/Co-op,Unit at 317 W 54th St,New York,NY,10019,550000,1,1,Middle West Side,,,,133,,,Active,,,http://www.redfin.com/NY/New-York/317-W-54th-St-10019/home/168862317,REBNY,CORC5873997,N,Y,40.7654118,-73.9852527
MLS Listing,,Single Family Residential,123-33 145th St,Jamaica,NY,11436,509000,2,2,Jamaica,,2000,1925,136,,,Active,,,http://www.redfin.com/NY/Jamaica/123-33-145th-St-11436/home/20714913,MLSLI,3160188,N,Y,40.674214,-73.79353
MLS Listing,,Single Family Residential,223-14 133rd Ave,Springfield Gdns,NY,11413,540000,2,2,Springfield Gdns,,3760,1940,137,,,Active,,,http://www.redfin.com/NY/Jamaica/223-14-133rd-Ave-11413/home/20700387,MLSLI,3159854,N,Y,40.678953,-73.745377
MLS Listing,,Condo/Co-op,4711 8 Ave Unit 4B,Brooklyn,NY,11220,547000,2,1,Brooklyn,621,,2009,140,881,,Active,,,http://www.redfin.com/NY/Brooklyn/4711-8th-Ave-11220/unit-4B/home/40916391,BNYMLS,432797,N,Y,40.6423833,-74.0020331
MLS Listing,,Condo/Co-op,337 Herkimer St Unit 2F,Brooklyn,NY,11216,525000,1,1,Brooklyn,549,,2016,140,956,,Active,,,http://www.redfin.com/NY/Brooklyn/337-Herkimer-St-11216/unit-2F/home/108526890,BNYMLS,432769,N,Y,40.679442,-73.942138
MLS Listing,,Condo/Co-op,35-20 147 St Ph 2F,Flushing,NY,11354,539000,1,1,Tower East,690,,1989,142,781,530,Active,,,http://www.redfin.com/NY/Flushing/35-20-147th-St-11354/unit-2F/home/20857132,MLSLI,3158810,N,Y,40.7658054,-73.8198729
MLS Listing,,Condo/Co-op,839 East 19th St Unit 2e,Brooklyn,NY,11230,539888,2,1,Midwood,925,925,1916,143,584,455,Active,,,http://www.redfin.com/NY/Brooklyn/839-E-19th-St-11230/unit-2E/home/52048161,SIBORMLS,1131704,N,Y,40.630203,-73.9583001
MLS Listing,,Condo/Co-op,7147 E Park Dr Unit B,Flushing,NY,11367,538000,2,1,Regents Park Gardens,755,,1960,146,713,,Active,,,http://www.redfin.com/NY/Flushing/7147-Park-Dr-E-11367/unit-B/home/163353218,MLSLI,3157713,N,Y,40.7252789,-73.8275758
MLS Listing,,Condo/Co-op,Unit at 444 E 75th St,New York,NY,10021,500000,1,1,Upper East Side,,,,146,,,Active,,,http://www.redfin.com/NY/New-York/444-E-75th-St-10021/home/45183155,REBNY,DEGI3917276,N,Y,40.7686692,-73.9527508
MLS Listing,,Condo/Co-op,153 Bennett Ave Unit 6B,New York,NY,10040,525021,2,1,New York,850,,1945,147,618,,Active,,,http://www.redfin.com/NY/New-York/153-Bennett-Ave-10040/unit-6B/home/168686014,HGMLS,5030126,N,Y,40.8553685,-73.9340995
MLS Listing,,Condo/Co-op,268 Bay Ridge Ave Unit 2D,Brooklyn,NY,11220,545000,1,1,Brooklyn,670,,2017,147,813,,Active,,,http://www.redfin.com/NY/Unknown/268-Bay-Ridge-Ave-11220/unit-2D/home/145877427,BNYMLS,432644,N,Y,40.635788,-74.0267647
MLS Listing,,Condo/Co-op,224 22 St Unit 3B,Brooklyn,NY,11232,500000,2,1,Brooklyn,658,,1995,147,760,,Active,,,http://www.redfin.com/NY/Brooklyn/224-22nd-St-11232/unit-3B/home/40690022,BNYMLS,432460,N,Y,40.660901,-73.994646
MLS Listing,,Condo/Co-op,6345 Saunders St Unit 4B,Rego Park,NY,11374,548888,2,2,The Essex,1100,,1956,147,499,,Active,,,http://www.redfin.com/NY/Flushing/63-45-Saunders-St-11374/unit-4B/home/20644803,MLSLI,3157214,N,Y,40.7297629,-73.863454
MLS Listing,,Condo/Co-op,235 W 137 St,New York,NY,10030,525000,1,1.5,New York,490,,1902,151,1071,553,Active,,,http://www.redfin.com/NY/New-York/235-W-137th-St-10030/home/45307820,HGMLS,5024745,N,Y,40.817425,-73.944123
MLS Listing,,Condo/Co-op,Unit at 210 E 15th St,New York,NY,10003,525000,1,1,Gramercy Park,,,,152,,,Active,,,http://www.redfin.com/NY/New-York/210-E-15th-St-10003/home/168657154,REBNY,DEGI3914836,N,Y,40.7334931,-73.9860791
MLS Listing,,Condo/Co-op,Unit at 900 W 190th St,New York,NY,10040,535000,1,1,Hudson Heights,,,,161,,,Active,,,http://www.redfin.com/NY/New-York/900-W-190th-St-10040/home/168349765,REBNY,HALS19792228,N,Y,40.8570262,-73.9361002
MLS Listing,,Condo/Co-op,Unit at 435 E 65th St,New York,NY,10065,527000,1,1,Upper East Side,,,,161,,,Active,,,http://www.redfin.com/NY/New-York/435-E-65th-St-10065/home/45159178,REBNY,HALS19777183,N,Y,40.7628525,-73.9574339
MLS Listing,,Condo/Co-op,13835 Elder Ave Unit 10 F,Flushing,NY,11355,550000,1,1,Woodner House Condo,800,51795,1986,163,688,481,Active,,,http://www.redfin.com/NY/Flushing/138-35-Elder-Ave-11355/unit-10F/home/20853692,MLSLI,3153099,N,Y,40.7528527,-73.8236711
MLS Listing,,Condo/Co-op,80 Bay St Unit Landing 3a,Staten Island,NY,10301,549080,2,2,St. George,900,1938,1986,166,610,937,Active,,,http://www.redfin.com/NY/Staten-Island/80-Bay-St-Lndg-10301/unit-3A/home/56107407,SIBORMLS,1131089,N,Y,40.6391529,-74.0739812
MLS Listing,,Condo/Co-op,Unit at 221 E 78th St,New York,NY,10075,525000,1,1,Upper East Side,,,,166,,,Active,,,http://www.redfin.com/NY/New-York/221-E-78th-St-10075/home/102005041,REBNY,BHSR19775583,N,Y,40.7734238,-73.9568339
MLS Listing,,Condo/Co-op,5900 Arlington Ave Unit 8C,Bronx,NY,10471,518000,2,2,Riverdale,1050,,1963,166,493,,Active,,,http://www.redfin.com/NY/The-Bronx/5900-Arlington-Ave-10471/unit-8C/home/44602367,HGMLS,5009147,N,Y,40.9092281,-73.9056859
MLS Listing,,Condo/Co-op,Unit at 433 E 51st St,New York,NY,10022,550000,1,1,Middle East Side,,,,168,,,Active,,,http://www.redfin.com/NY/New-York/433-E-51st-St-10022/home/45181107,REBNY,HALS19756425,N,Y,40.7542168,-73.9643894
MLS Listing,,Condo/Co-op,9707 4th Ave Unit 3n,Brooklyn,NY,11209,515000,2,1,Bay Ridge,1100,,,171,468,,Active,,,http://www.redfin.com/NY/Brooklyn/9707-4th-Ave-11209/unit-3N/home/40651560,SIBORMLS,1130969,N,Y,40.614285,-74.0315729
MLS Listing,,Condo/Co-op,,Brooklyn,NY,11209,515000,2,1,,1100,,,171,468,,Active,,,http://www.redfin.com/NY/Brooklyn/Undisclosed-address-11209/home/167955456,BNYMLS,431952,N,Y,40.6212119,-74.0329499
MLS Listing,,Condo/Co-op,582 Throop Ave Unit 1A,Brooklyn,NY,11216,549000,2,1,Bed-Stuy,731,,1992,172,751,,Active,,,http://www.redfin.com/NY/Brooklyn/582-Throop-Ave-11216/unit-1A/home/40728859,MLSLI,3150439,N,Y,40.6833366,-73.9411945
MLS Listing,,Condo/Co-op,Unit at 1 Gracie Ter,New York,NY,10028,509000,1,1,Upper East Side,,,,172,,,Active,,,http://www.redfin.com/NY/New-York/1-Gracie-Ter-10028/home/113896865,REBNY,ANYL4431,N,Y,40.7722065,-73.9457867
MLS Listing,,Condo/Co-op,61-20 Grand Central Pkwy Unit B1503,Forest Hills,NY,11375,549000,2,2,Fairview Owners Corp.,,,1965,174,,,Active,,,http://www.redfin.com/NY/Unknown/61-20-Grand-Central-Pkwy-11375/unit-B1503/home/145380734,MLSLI,3149570,N,Y,40.7380691,-73.8473845
MLS Listing,,Condo/Co-op,Unit at 155 E 49th St,New York,NY,10017,500000,1,1,Middle East Side,,,,175,,,Active,,,http://www.redfin.com/NY/New-York/155-E-49th-St-10017/home/115139510,REBNY,CORE1424583,N,Y,40.7556785,-73.9718399
MLS Listing,,Condo/Co-op,Unit at 222 E 35th St,New York,NY,10016,529000,1,1,Murray Hill Kips Bay,,,,178,,,Active,,,http://www.redfin.com/NY/New-York/222-E-35th-St-10016/home/45187240,REBNY,CITI5833417,N,Y,40.7457566,-73.9767184
MLS Listing,,Condo/Co-op,763 Ocean Pkwy Unit 5F,Brooklyn,NY,11230,519000,2,1,Brooklyn,990,,1937,178,524,,Active,,,http://www.redfin.com/NY/Brooklyn/763-Ocean-Pkwy-11230/unit-5F/home/40920652,BNYMLS,431821,N,Y,40.629731,-73.97067
MLS Listing,,Condo/Co-op,433 101 St Unit 1A,Brooklyn,NY,11209,549000,1,1.5,Brooklyn,700,,1992,178,784,,Active,,,http://www.redfin.com/NY/Brooklyn/433-101st-St-11209/unit-1A/home/40821292,BNYMLS,431829,N,Y,40.6116907,-74.0331859
MLS Listing,,Condo/Co-op,Unit at 5 Tudor City Pl,New York,NY,10017,545000,1,1,Middle East Side,,,,180,,,Active,,,http://www.redfin.com/NY/New-York/5-Tudor-City-Pl-10017/home/45154185,REBNY,DEGI3876354,N,Y,40.7478333,-73.9711319
MLS Listing,,Condo/Co-op,Unit at 162 Ninth Ave,New York,NY,10011,519000,1,1,Chelsea,,,,181,,,Active,,,http://www.redfin.com/NY/New-York/162-9th-Ave-10011/home/145345878,REBNY,STRI1745862,N,Y,40.7444174,-74.002538
MLS Listing,,Condo/Co-op,Unit at 132 -40 Sanford Ave,Queens,NY,11355,543888,1,1,Flushing,,,,182,,,Active,,,http://www.redfin.com/NY/Flushing/132-31-Sanford-Ave-11355/home/167422843,REBNY,KWNY234240,N,Y,40.755144,-73.8320678
MLS Listing,,Condo/Co-op,Unit at 443 Bainbridge St,Brooklyn,NY,11233,549000,1,1,Bedford Stuyvesant,,,,186,,,Active,,,http://www.redfin.com/NY/Brooklyn/443-Bainbridge-St-11233/home/112928209,REBNY,UCOM1836661,N,Y,40.682569,-73.919037
MLS Listing,,Condo/Co-op,9450 Magnolia Ct Unit 1A,Ozone Park,NY,11417,519500,2,2.5,Magnolia Court Condo,1300,,2005,186,400,491,Active,,,http://www.redfin.com/NY/Ozone-Park/94-50-Magnolia-Ct-11417/unit-1A/home/20665516,MLSLI,3146433,N,Y,40.669743,-73.8415364
MLS Listing,,Condo/Co-op,166-25 Powells Cove Blvd Unit 18G,Beechhurst,NY,11357,509000,2,2,Cryder House,1350,,1962,186,377,,Active,,,http://www.redfin.com/NY/Unknown/166-25-Powells-Cove-Blvd-11357/unit-18G/home/147023107,MLSLI,3146381,N,Y,40.7944231,-73.796598
MLS Listing,,Condo/Co-op,Unit at 135 Ocean Pkwy,Brooklyn,NY,11218,505000,1,1,Kensington,,,,186,,,Active,,,http://www.redfin.com/NY/Brooklyn/135-Ocean-Pkwy-11218/home/40650724,REBNY,GRIF1197,N,Y,40.6466766,-73.9740956
MLS Listing,,Condo/Co-op,61-20 Grand Central Pkwy Unit B603,Forest Hills,NY,11375,518000,2,2,The Fairview,1300,,1965,187,398,1783,Active,,,http://www.redfin.com/NY/Unknown/61-20-Grand-Central-Pkwy-11375/unit-B603/home/109416548,MLSLI,3146035,N,Y,40.7380691,-73.8473845
MLS Listing,,Condo/Co-op,Unit at 333 E 43rd St,New York,NY,10017,529000,1,1,Middle East Side,,,,189,,,Active,,,http://www.redfin.com/NY/New-York/333-E-43rd-St-10017/home/45326471,REBNY,UCOM1835642,N,Y,40.7500244,-73.9702218
MLS Listing,,Condo/Co-op,Unit at 15 E 19th St,Brooklyn,NY,11226,540000,1,1,Prospect Park,,,,196,,,Active,,,http://www.redfin.com/NY/Brooklyn/15-E-19th-St-11226/home/167165978,REBNY,DEGI3541623,N,Y,40.6494283,-73.9618517
MLS Listing,,Condo/Co-op,2940 W 5 St Unit 21F,Brooklyn,NY,11224,509000,2,1,Brooklyn,1200,,1964,202,424,,Active,,,http://www.redfin.com/NY/Brooklyn/2940-W-5th-St-11224/unit-21F/home/167132305,BNYMLS,431172,N,Y,40.5775512,-73.9735737
MLS Listing,,Condo/Co-op,206-14 Emily Rd Unit 47L,Bayside,NY,11360,538000,1,1,Baybridge Condo,700,349725,1982,203,769,525,Active,,,http://www.redfin.com/NY/Bayside/206-14-Emily-Rd-11360/unit-47L/home/167128031,MLSLI,3141309,N,Y,40.788238,-73.7873093
MLS Listing,,Condo/Co-op,Unit at 330 Third Ave,New York,NY,10010,500000,1,1,Gramercy Park,,,,206,,,Active,,,http://www.redfin.com/NY/New-York/330-3rd-Ave-10010/home/45202010,REBNY,HALS19701216,N,Y,40.739748,-73.9827778
MLS Listing,,Condo/Co-op,6550 Wetherole St Unit 6Z,Rego Park,NY,11374,525000,1,1,Wetherole Plaza Condo,920,,1963,207,571,398,Active,,,http://www.redfin.com/NY/Flushing/65-50-Wetherole-St-11374/unit-6Z/home/59307907,MLSLI,3140524,N,Y,40.7262081,-73.8587156
MLS Listing,,Condo/Co-op,Unit at 96 Schermerhorn St,Brooklyn,NY,11201,549000,1,1,Brooklyn Heights,,,,207,,,Active,,,http://www.redfin.com/NY/Brooklyn/96-Schermerhorn-St-11201/home/40647425,REBNY,UCOM307466,N,Y,40.6902106,-73.9902159
MLS Listing,,Condo/Co-op,Unit at 135 E 39th St,New York,NY,10016,549000,1,1,Middle East Side,,,,208,,,Active,,,http://www.redfin.com/NY/New-York/135-E-39th-St-10016/home/63689189,REBNY,DEGI3838850,N,Y,40.7494703,-73.9768046
MLS Listing,,Condo/Co-op,224 22 St Unit 1B,Brooklyn,NY,11232,549000,2,1,Brooklyn,660,,1995,208,832,,Active,,,http://www.redfin.com/NY/Brooklyn/224-22nd-St-11232/unit-1B/home/40690011,BNYMLS,430989,N,Y,40.660901,-73.994646
MLS Listing,,Condo/Co-op,18 05 215 St Unit 17H,Bayside,NY,11360,520000,2,2,Bay Terrace,,,1970,211,,107,Active,,,http://www.redfin.com/NY/Bayside/18-05-215th-St-11360/unit-17H/home/167101332,MLSLI,3138851,N,Y,40.783918,-73.775928
MLS Listing,,Condo/Co-op,Unit at 318 W 15th St,New York,NY,10011,520000,1,1,Chelsea,,,,215,,,Active,,,http://www.redfin.com/NY/New-York/318-W-15th-St-10011/home/45144195,REBNY,SOTH1411880,N,Y,40.7406741,-74.0030502
MLS Listing,,Condo/Co-op,Unit at 410 W 25th St,New York,NY,10001,539000,1,1,Chelsea,,,,216,,,Active,,,http://www.redfin.com/NY/New-York/410-W-25th-St-10001/home/45171515,REBNY,SOTH1411484,N,Y,40.7479292,-74.0011694
MLS Listing,,Condo/Co-op,Unit at 171 Columbia Hts,Brooklyn,NY,11201,550000,1,1,Brooklyn Heights,,,,217,,,Active,,,http://www.redfin.com/NY/Brooklyn/171-Columbia-Hts-11201/home/167076032,REBNY,UCOM1830188,N,Y,40.6973748,-73.9966625
MLS Listing,,Condo/Co-op,45-16 83rd St Unit E-8C,Elmhurst,NY,11373,550000,1,1,Elmhurst Plaza,,,2019,220,,,Active,,,http://www.redfin.com/NY/Elmhurst/4516-83rd-St-11373/unit-E-8C/home/167055312,MLSLI,3136403,N,Y,40.7413528,-73.8816476
MLS Listing,,Condo/Co-op,3950 52nd St Unit 4C,Woodside,NY,11377,529000,2,1,Sunnyhill,,,1950,226,,,Active,,,http://www.redfin.com/NY/Woodside/39-50-52nd-St-11377/unit-4C/home/25508667,MLSLI,3134239,N,Y,40.7474161,-73.9122745
MLS Listing,,Condo/Co-op,62 Park Terrace West N Unit A47,New York,NY,10034,549000,2,1,New York,975,,1939,229,563,,Active,,,http://www.redfin.com/NY/New-York/62-Park-Ter-W-10034/unit-A47/home/105887886,HGMLS,4943933,N,Y,40.8711251,-73.9174014
MLS Listing,,Condo/Co-op,110-11 Queens Blvd Unit 32A,Forest Hills,NY,11375,540000,2,1,Kennedy House,1180,,1964,230,458,,Active,,,http://www.redfin.com/NY/Forest-Hills/110-11-Queens-Blvd-11375/unit-32A/home/166861595,MLSLI,3132608,N,Y,40.7201292,-73.8398387
MLS Listing,,Condo/Co-op,Unit at 330 E 70th St,New York,NY,10021,549000,1,1,Upper East Side,,,,230,,,Active,,,http://www.redfin.com/NY/New-York/330-E-70th-St-10021/home/45158794,REBNY,FSRN92597,N,Y,40.7666941,-73.9578868
MLS Listing,,Condo/Co-op,Unit at 1 Grace Ct,Brooklyn,NY,11201,545000,1,1,Brooklyn Heights,,,,234,,,Active,,,http://www.redfin.com/NY/Brooklyn/1-Grace-Ct-11201/home/40647066,REBNY,KWNY231839,N,Y,40.6946904,-73.9984985
MLS Listing,,Condo/Co-op,Unit at 3311 Newkirk Ave,Brooklyn,NY,11203,540000,2,2,East Flatbush,,,,234,,,Active,,,http://www.redfin.com/NY/Brooklyn/3311-Newkirk-Ave-11203/home/166831485,REBNY,DEGI3792903,N,Y,40.6404037,-73.945052
MLS Listing,,Condo/Co-op,Unit at 3311 Newkirk Ave,Brooklyn,NY,11203,540000,2,2,East Flatbush,,,,234,,,Active,,,http://www.redfin.com/NY/Unknown/3311-Newkirk-Ave-11203/home/145246233,REBNY,DEGI3792901,N,Y,40.6404037,-73.945052
MLS Listing,,Single Family Residential,11542 Inwood St,Jamaica,NY,11436,500000,2,2,Jamaica,1071,4000,1930,245,467,,Active,,,http://www.redfin.com/NY/Jamaica/115-42-Inwood-St-11436/home/20717081,MLSLI,3128312,N,Y,40.682087,-73.796925
MLS Listing,,Condo/Co-op,Unit at 200 E 24th St,New York,NY,10010,550000,1,1,Gramercy Park,,,,246,,,Active,,,http://www.redfin.com/NY/New-York/200-E-24th-St-10010/home/148160382,REBNY,DEGI3779084,N,Y,40.7391221,-73.9824903
MLS Listing,,Condo/Co-op,Unit at 257 W 86th St,New York,NY,10024,500000,1,1,Upper West Side,,,,246,,,Active,,,http://www.redfin.com/NY/New-York/257-W-86th-St-10024/home/45152335,REBNY,CORC5729319,N,Y,40.7887481,-73.9769917
MLS Listing,,Condo/Co-op,Unit at 813 Jefferson Ave,Brooklyn,NY,11221,529000,1,1,Brooklyn,,,,246,,,Active,,,http://www.redfin.com/NY/Brooklyn/813-Jefferson-Ave-11221/home/166457037,REBNY,CORC5699268,N,Y,40.6862734,-73.9257769
MLS Listing,,Condo/Co-op,139-30 34 Ave Unit 2C,Flushing,NY,11354,538000,1,1,Condo,,,2008,248,,245,Active,,,http://www.redfin.com/NY/FLUSHING/13930-34TH-AVE-11354/unit-2C/home/59307922,MLSLI,3127696,N,Y,40.766758,-73.828066
MLS Listing,,Condo/Co-op,166-25 Powells Cove Blvd Unit 9M,Beechhurst,NY,11357,539000,2,2,Cryder House,1062,,1962,249,508,,Active,,,http://www.redfin.com/NY/Whitestone/166-25-Powells-Cove-Blvd-11357/unit-9M/home/165738749,MLSLI,3127006,N,Y,40.7944231,-73.796598
MLS Listing,,Condo/Co-op,166-25 Powells Cove Blv Unit 8G,Beechhurst,NY,11357,508000,2,2,Cryder House,,,1962,250,,,Active,,,http://www.redfin.com/NY/Whitestone/166-25-Powells-Cove-Blvd-11357/unit-8G/home/92323269,MLSLI,3126923,N,Y,40.7944231,-73.796598
MLS Listing,,Single Family Residential,234 Stobe Ave,Staten Island,NY,10305,529900,2,3,Dongan Hills-Above Hylan,1484,2100,1997,250,357,,Active,,,http://www.redfin.com/NY/Staten-Island/234-Stobe-Ave-10306/home/56086319,SIBORMLS,1128724,N,Y,40.5820175,-74.0984157
MLS Listing,,Condo/Co-op,Unit at 39 W 67th St,New York,NY,10023,550000,1,1,Upper West Side,,,,262,,,Active,,,http://www.redfin.com/NY/New-York/39-W-67th-St-10023/home/45232700,REBNY,DEGI3772794,N,Y,40.7736215,-73.9792966
MLS Listing,,Condo/Co-op,Unit at 160 E 26th St,New York,NY,10010,549000,1,1,Middle East Side,,,,264,,,Active,,,http://www.redfin.com/NY/New-York/160-E-26th-St-10010/home/45146187,REBNY,TRIP1819838,N,Y,40.7407858,-73.9823415
MLS Listing,,Condo/Co-op,Unit at 140 E 40th St,New York,NY,10016,540000,1,1,Murray Hill Kips Bay,,,,270,,,Active,,,http://www.redfin.com/NY/New-York/140-E-40th-St-10016/home/162588187,REBNY,CORC5717651,N,Y,40.7497183,-73.9764769
MLS Listing,,Condo/Co-op,Unit at 400 E 77th St,New York,NY,10021,550000,1,1,Upper East Side,,,,276,,,Active,,,http://www.redfin.com/NY/New-York/400-E-77th-St-10075/home/161632008,REBNY,DEGI3754856,N,Y,40.7707233,-73.9533504
MLS Listing,,Condo/Co-op,155 Bay St Unit 4J,Staten  Island,NY,10301,549000,2,2,Staten  Island,1248,,2009,277,440,,Active,,,http://www.redfin.com/NY/Staten-Island/155-Bay-St-10301/unit-4J/home/56137008,BNYMLS,428900,N,Y,40.638148,-74.0756332
MLS Listing,,Condo/Co-op,Unit at 111 Eighth Ave,Brooklyn,NY,11215,549000,1,1,Park Slope,,,,277,,,Active,,,http://www.redfin.com/NY/Brooklyn/111-8th-Ave-11215/home/40648883,REBNY,UCOM196490,N,Y,40.6723582,-73.9733898
MLS Listing,,Condo/Co-op,129 W End Ave Unit 4A,Brooklyn,NY,11235,515000,1,1,Brooklyn,851,,2010,279,605,,Active,,,http://www.redfin.com/NY/Brooklyn/129-W-End-Ave-11235/unit-4A/home/40925114,BNYMLS,428856,N,Y,40.5785447,-73.9530643
MLS Listing,,Condo/Co-op,Unit at 545 W End Ave,New York,NY,10024,515000,1,1,Upper West Side,,,,281,,,Active,,,http://www.redfin.com/NY/New-York/545-W-End-Ave-10024/home/146524072,REBNY,DEGI3741144,N,Y,40.7892182,-73.9778266
MLS Listing,,Condo/Co-op,Unit at 7 Park Ave,New York,NY,10016,530000,1,1,Middle East Side,,,,284,,,Active,,,http://www.redfin.com/NY/New-York/7-Park-Ave-10016/home/161059074,REBNY,DEGI3742588,N,Y,40.7471166,-73.9808502
MLS Listing,,Condo/Co-op,Unit at 3515 Henry Hudson Pkwy,Bronx,NY,10463,550000,2,2,Riverdale,,,,287,,,Active,,,http://www.redfin.com/NY/The-Bronx/3515-Henry-Hudson-Pkwy-W-10463/home/44801712,REBNY,BHSR19523598,N,Y,40.8868405,-73.9129775
MLS Listing,,Condo/Co-op,Unit at 390 Riverside Dr,New York,NY,10025,549000,1,1,Morningside Heights,,,,287,,,Active,,,http://www.redfin.com/NY/New-York/390-Riverside-Dr-10025/home/160934408,REBNY,DEGI3737983,N,Y,40.805528,-73.967302
MLS Listing,,Condo/Co-op,Unit at 330 Third Ave,New York,NY,10010,525000,1,1,Gramercy Park,,,,292,,,Active,,,http://www.redfin.com/NY/New-York/330-3rd-Ave-10010/home/160774381,REBNY,HALS19516221,N,Y,40.739748,-73.9827778
MLS Listing,,Condo/Co-op,Unit at 305 W 150th St,New York,NY,10039,500000,1,1,Harlem,,,,303,,,Active,,,http://www.redfin.com/NY/New-York/305-W-150th-St-10039/home/108582059,REBNY,DEGI3719081,N,Y,40.8264858,-73.9401603
MLS Listing,,Condo/Co-op,Unit at 333 E 43rd St,New York,NY,10017,549000,1,1,Middle East Side,,,,311,,,Active,,,http://www.redfin.com/NY/New-York/333-E-43rd-St-10017/home/45154870,REBNY,BHSR19465568,N,Y,40.7500244,-73.9702218
MLS Listing,,Condo/Co-op,Unit at 370 Central Park W,New York,NY,10025,549000,1,1,Upper West Side,,,,311,,,Active,,,http://www.redfin.com/NY/New-York/370-Central-Park-W-10025/home/160621502,REBNY,BHSR19478231,N,Y,40.7923611,-73.9647745
MLS Listing,,Condo/Co-op,Unit at 520 E 76th St,New York,NY,10021,549000,1,1,Upper East Side,,,,314,,,Active,,,http://www.redfin.com/NY/New-York/520-E-76th-St-10021/home/45159607,REBNY,ASHW754533,N,Y,40.7687774,-73.9509347
MLS Listing,,Condo/Co-op,18-05 215th St Unit 4N,Bayside,NY,11360,539000,2,2,Bay Terrace,,,1970,318,,120,Active,,,http://www.redfin.com/NY/Flushing/1805-215th-St-11360/unit-4N/home/146975851,MLSLI,3105390,N,Y,40.7848316,-73.7752379
MLS Listing,,Condo/Co-op,Unit at 140 E 2nd St,Brooklyn,NY,11218,545000,1,1,Windsor Terrace,,,,333,,,Active,,,http://www.redfin.com/NY/Brooklyn/140-E-2nd-St-11218/home/160465344,REBNY,DEGI3676735,N,Y,40.6488473,-73.9795035
MLS Listing,,Condo/Co-op,22-60 79th St Unit 2C,E. Elmhurst,NY,11370,529000,2,1,Barclay Garden,804,,1948,340,658,450,Active,,,http://www.redfin.com/NY/East-Elmhurst/22-60-79th-St-11370/unit-2C/home/20940162,MLSLI,3099383,N,Y,40.7669422,-73.890505
MLS Listing,,Condo/Co-op,Unit at 200 E 24th St,New York,NY,10010,549000,1,1,Middle East Side,,,,342,,,Active,,,http://www.redfin.com/NY/New-York/200-E-24th-St-10010/home/45147218,REBNY,CORC5666274,N,Y,40.7393736,-73.9827303
MLS Listing,,Condo/Co-op,166-25 Powells Cove Blvd Unit 1J,Beechhurst,NY,11357,528000,2,2,Cryder House,,,1962,361,,,Active,,,http://www.redfin.com/NY/Unknown/166-25-Powells-Cove-Blvd-11357/unit-1J/home/144854945,MLSLI,3094232,N,Y,40.7945375,-73.7965346
MLS Listing,,Condo/Co-op,Unit at 1919 Madison Ave,New York,NY,10035,520000,2,1,Mt. Morris Park,,,,362,,,Active,,,http://www.redfin.com/NY/New-York/1919-Madison-Ave-10035/home/45208524,REBNY,UCOM328670,N,Y,40.8045686,-73.9410797
MLS Listing,,Condo/Co-op,Unit at 557 Hart St,Brooklyn,NY,11221,524000,1,1,Bushwick,,,,363,,,Active,,,http://www.redfin.com/NY/Brooklyn/557-Hart-St-11221/home/148720712,REBNY,SEEK1800150,N,Y,40.6969632,-73.9293808
MLS Listing,,Condo/Co-op,Unit at 142 E 49th St,New York,NY,10017,525000,1,1,Middle East Side,,,,430,,,Active,,,http://www.redfin.com/NY/New-York/142-E-49th-St-10017/home/45168279,REBNY,UCOM310428,N,Y,40.7553922,-73.9723049
MLS Listing,,Condo/Co-op,Unit at 275 Webster Ave,Brooklyn,NY,11230,510000,2,1,Kensington,,,,430,,,Active,,,http://www.redfin.com/NY/Brooklyn/275-Webster-Ave-11230/home/108525978,REBNY,DEGI3541430,N,Y,40.6329634,-73.9709274
MLS Listing,,Condo/Co-op,Unit at 15 E 19th St,Brooklyn,NY,11226,530000,1,1,Prospect Park,,,,430,,,Active,,,http://www.redfin.com/NY/Unknown/15-E-19th-St-11226/home/148049766,REBNY,DEGI3541626,N,Y,40.6494283,-73.9618517
MLS Listing,,Condo/Co-op,Unit at 145 Kenilworth Pl,Brooklyn,NY,11210,529000,2,2,Flatbush,,,,479,,,Active,,,http://www.redfin.com/NY/Brooklyn/145-Kenilworth-Pl-11210/home/39643514,REBNY,DEGI3477562,N,Y,40.6327025,-73.948542
MLS Listing,,Condo/Co-op,Unit at 557 Hart St,Brooklyn,NY,11221,525000,1,1,Bushwick,,,,479,,,Active,,,http://www.redfin.com/NY/Unknown/557-Hart-St-11221/home/147154526,REBNY,SEEK1778133,N,Y,40.6969632,-73.9293808
MLS Listing,,Condo/Co-op,Unit at 557 Hart St,Brooklyn,NY,11221,516000,1,1,Bushwick,,,,479,,,Active,,,http://www.redfin.com/NY/Unknown/557-Hart-St-11221/home/147154371,REBNY,SEEK1778160,N,Y,40.6969632,-73.9293808
MLS Listing,,Condo/Co-op,Unit at 411 E 57th St,New York,NY,10022,550000,1,1,Middle East Side,,,,479,,,Active,,,http://www.redfin.com/NY/New-York/411-E-57th-St-10022/home/45166080,REBNY,CORC5552695,N,Y,40.758033,-73.9624118
MLS Listing,,Condo/Co-op,Unit at 140 W 71st St,New York,NY,10024,500000,1,1,Upper West Side,,,,479,,,Active,,,http://www.redfin.com/NY/New-York/140-W-71st-St-10023/home/45199938,REBNY,KWNY221199,N,Y,40.7772096,-73.980845
MLS Listing,,Single Family Residential,118 Cannon Ave,Staten Island,NY,10314,550000,2,1,Travis,804,4340,1935,552,684,,Active,,,http://www.redfin.com/NY/Staten-Island/118-Cannon-Ave-10314/home/56118354,SIBORMLS,1120950,N,Y,40.594453,-74.1889609
MLS Listing,,Condo/Co-op,Unit at 280 Rector Pl,New York,NY,10280,539000,1,1,Battery Park City,,,,563,,,Active,,,http://www.redfin.com/NY/New-York/280-Rector-Pl-10280/home/45235338,REBNY,KNIG1755436,N,Y,40.7088832,-74.0167657
MLS Listing,,Condo/Co-op,Unit at 37 E 67th St,New York,NY,10065,545000,1,1,Upper East Side,,,,563,,,Active,,,http://www.redfin.com/NY/New-York/37-E-67th-St-10065/home/45232891,REBNY,UCOM1762954,N,Y,40.7685167,-73.9670085
MLS Listing,,Condo/Co-op,Unit at 278 W 86th St,New York,NY,10024,525000,1,1,Upper West Side,,,,563,,,Active,,,http://www.redfin.com/NY/New-York/278-W-86th-St-10024/home/105884037,REBNY,SOTH610181,N,Y,40.7884249,-73.977521
MLS Listing,,Condo/Co-op,Unit at 420 E 55th St,New York,NY,10022,549000,1,1.5,Middle East Side,,,,655,,,Active,,,http://www.redfin.com/NY/New-York/420-E-55th-St-10022/home/145245453,REBNY,UCOM1736536,N,Y,40.7562471,-73.9625705
MLS Listing,,Condo/Co-op,Unit at 124 E 91st St,New York,NY,10128,525000,1,1,Upper East Side,,,,697,,,Active,,,http://www.redfin.com/NY/New-York/124-E-91st-St-10128/home/45160888,REBNY,DEGI3115710,N,Y,40.7826951,-73.95388
MLS Listing,,Condo/Co-op,Unit at 111 E 56th St,New York,NY,10022,550000,1,1,Middle East Side,,,,717,,,Active,,,http://www.redfin.com/NY/New-York/111-E-56th-St-10022/home/144771474,REBNY,CITY1723990,N,Y,40.7607674,-73.9705315
MLS Listing,,Condo/Co-op,Unit at 261 W 22nd St,New York,NY,10011,550000,1,1,Chelsea,,,,950,,,Active,,,http://www.redfin.com/NY/New-York/261-W-22nd-St-10011/home/53323249,REBNY,UCOM1105283,N,Y,40.7442561,-73.9976951
MLS Listing,,Condo/Co-op,Unit at 142 Baltic St,Brooklyn,NY,11201,515000,1,1,Cobble Hill,,,,950,,,Active,,,http://www.redfin.com/NY/Brooklyn/142-Baltic-St-11201/home/40663002,REBNY,STRI14034490,N,Y,40.687423,-73.998871
MLS Listing,,Condo/Co-op,Unit at 2 S End Ave,New York,NY,10280,539000,1,1,Battery Park City,,,,950,,,Active,,,http://www.redfin.com/NY/New-York/2-S-End-Ave-10280/home/45236655,REBNY,KNIG61091,N,Y,40.7078381,-74.0174577
MLS Listing,,Condo/Co-op,Unit at 303 E 57th St,New York,NY,10022,510000,1,1,Middle East Side,,,,950,,,Active,,,http://www.redfin.com/NY/New-York/303-E-57th-St-10022/home/114950043,REBNY,HALS13249906,N,Y,40.7595704,-73.9647745
For-Sale-by-Owner Listing,,Multi-Family (2-4 Unit),167 Allen St Apt 2a,New York,NY,10002,539000,1,1,New York,460,,1900,38,1172,,Active,,,http://www.redfin.com/NY/New-York/167-Allen-St-10002/unit-2a/home/170020960,Fizber.com,5038147,N,Y,40.7213203,-73.9896832
For-Sale-by-Owner Listing,,Condo/Co-op,22-10 80th St Apt 3f,East Elmhurst,NY,11370,519000,2,1,East Elmhurst,876,,1949,213,592,,Active,,,http://www.redfin.com/NY/East-Elmhurst/22-10-80th-St-11370/unit-3F/home/20944266,Fizber.com,5020332,N,Y,40.7686322,-73.889866
