SALE TYPE,SOLD DATE,PROPERTY TYPE,ADDRESS,CITY,STATE OR PROVINCE,ZIP OR POSTAL CODE,PRICE,BEDS,BATHS,LOCATION,SQUARE FEET,LOT SIZE,YEAR BUILT,DAYS ON MARKET,$/SQUARE FEET,HOA/MONTH,STATUS,NEXT OPEN HOUSE START TIME,NEXT OPEN HOUSE END TIME,URL (SEE http://www.redfin.com/buy-a-home/comparative-market-analysis FOR INFO ON PRICING),SOURCE,MLS#,FAVORITE,INTERESTED,LATITUDE,LONGITUDE
MLS Listing,,Multi-Family (2-4 Unit),665 Hendrix St,E. New York,NY,11207,699000,6,3,E. New York,,2000,1901,2,,,Active,,,http://www.redfin.com/NY/Brooklyn/665-Hendrix-St-11207/home/40762113,MLSLI,3191173,N,Y,40.6652385,-73.887239
MLS Listing,,Single Family Residential,134-13 102nd Ave,Richmond Hill,NY,11419,699000,6,3,Richmond Hill,1392,2500,1915,2,502,,Active,,,http://www.redfin.com/NY/Jamaica/134-13-102nd-Ave-11419/home/20770296,MLSLI,3191072,N,Y,40.6930672,-73.812844
MLS Listing,,Townhouse,305 York Ave,Staten Island,NY,10301,680000,8,4,New Brighton,2325,2280,1899,3,292,,Active,,,http://www.redfin.com/NY/Staten-Island/305-York-Ave-10301/home/56134716,SIBORMLS,1134780,N,Y,40.6389048,-74.0880004
MLS Listing,,Single Family Residential,114-21 211th St,Jamaica,NY,11412,655000,5,2,Jamaica,,3000,1950,3,,,Active,January-13-2020 02:00 PM,January-13-2020 05:00 PM,http://www.redfin.com/NY/Jamaica/114-21-211th-St-11411/home/20738427,MLSLI,3190893,N,Y,40.7021609,-73.743578
MLS Listing,,Single Family Residential,9415 131,Richmond Hill S.,NY,11419,671000,4,1,Richmond Hill S.,,2680,1920,4,,,Active,,,http://www.redfin.com/NY/Jamaica/94-15-131st-St-11419/home/20774394,MLSLI,3190634,N,Y,40.695813,-73.817433
MLS Listing,,Multi-Family (2-4 Unit),710 E 218th St,Bronx,NY,10467,660000,6,4,Bronx,1672,2857,1915,4,395,,Active,,,http://www.redfin.com/NY/The-Bronx/710-E-218th-St-10467/home/44793683,HGMLS,6002958,N,Y,40.8825418,-73.862696
MLS Listing,,Multi-Family (2-4 Unit),3223 Grace Ave,Bronx,NY,10469,660000,5,2,Bronx,1760,1899,1965,5,375,,Active,,,http://www.redfin.com/NY/The-Bronx/3223-Grace-Ave-10469/home/44789627,HGMLS,6002543,N,Y,40.8757908,-73.8380813
MLS Listing,,Townhouse,966 Clove Rd Unit J,Staten Island,NY,10301,650000,4,2,Clove Lake,1440,1328,1996,5,451,195,Active,,,http://www.redfin.com/NY/Staten-Island/966-Clove-Rd-10301/unit-J/home/148264570,SIBORMLS,1134716,N,Y,40.620478,-74.110926
MLS Listing,,Single Family Residential,139-36 230th Pl,Laurelton,NY,11413,699000,5,3,Laurelton,,4000,1940,5,,,Active,,,http://www.redfin.com/NY/Jamaica/139-36-230th-Pl-11413/home/20691521,MLSLI,3190220,N,Y,40.6682307,-73.7445449
MLS Listing,,Multi-Family (2-4 Unit),13-53 Pinson St,Far Rockaway,NY,11691,667777,9,6,Far Rockaway,,3534,2006,5,,,Active,,,http://www.redfin.com/NY/Far-Rockaway/13-53-Pinson-St-11691/home/20639895,MLSLI,3190171,N,Y,40.6070395,-73.7557069
MLS Listing,,Single Family Residential,194-38 113th Rd,St. Albans,NY,11412,650000,5,4,Jamaica,1300,3000,1930,6,500,,Active,,,http://www.redfin.com/NY/Jamaica/194-38-113th-Rd-11412/home/20742181,MLSLI,3189987,N,Y,40.699324,-73.759317
MLS Listing,,Multi-Family (2-4 Unit),220-24 Hempstead Ave,Queens Village,NY,11429,695000,4,3,Queens Village,,1359,1925,6,,,Active,,,http://www.redfin.com/NY/Jamaica/220-24-Hempstead-Ave-11429/home/170225279,MLSLI,3189960,N,Y,40.7124769,-73.7332662
MLS Listing,,Multi-Family (2-4 Unit),220-22 Hempstead Ave,Queens Village,NY,11429,695000,4,3,Queens Village,,1359,1925,6,,,Active,,,http://www.redfin.com/NY/Unknown/220-22-Hempstead-Ave-11429/home/112981501,MLSLI,3189929,N,Y,40.712402,-73.733346
MLS Listing,,Multi-Family (2-4 Unit),686 E 223rd St Unit A,Bronx,NY,10466,675000,6,2,Bronx,1524,1855,1901,6,443,,Active,,,http://www.redfin.com/NY/The-Bronx/686-E-223rd-St-10466/unit-A/home/44747483,HGMLS,6000191,N,Y,40.8864929,-73.8619119
MLS Listing,,Multi-Family (2-4 Unit),235-09 Bentley Rd,Jamaica,NY,11422,699000,6,4,Jamaica,,3000,2003,7,,,Active,January-19-2020 01:00 PM,January-19-2020 03:00 PM,http://www.redfin.com/NY/Jamaica/235-09-Bentley-Rd-11422/home/20687663,MLSLI,3189596,N,Y,40.654412,-73.747263
MLS Listing,,Single Family Residential,362 Brehaut Ave,Staten Island,NY,10307,699000,5,2,Tottenville,880,6440,1920,7,794,,Active,,,http://www.redfin.com/NY/Staten-Island/362-Brehaut-Ave-10307/home/56071433,SIBORMLS,1134615,N,Y,40.5105045,-74.2383968
MLS Listing,,Single Family Residential,135 Cannon Ave,Staten Island,NY,10314,679000,5,4,Travis,1920,9105,1960,7,354,,Active,,,http://www.redfin.com/NY/Staten-Island/135-Cannon-Ave-10314/home/56098520,SIBORMLS,1134614,N,Y,40.5948964,-74.189431
MLS Listing,,Multi-Family (2-4 Unit),245-37 147th Ave,Jamaica,NY,11422,699999,4,3,Rosedale,,2701,1945,7,,,Active,,,http://www.redfin.com/NY/Jamaica/245-37-147th-Ave-11422/home/20684926,MLSLI,3189445,N,Y,40.657504,-73.73893
MLS Listing,,Single Family Residential,1595 E 45th St,Brooklyn,NY,11234,699000,4,2.5,Flatlands,1608,3219,1925,10,435,,Active,,,http://www.redfin.com/NY/Brooklyn/1595-E-45th-St-11234/home/40880255,MLSLI,3189003,N,Y,40.6217598,-73.9317685
MLS Listing,,Multi-Family (2-4 Unit),114-17 167th St,Jamaica,NY,11434,669000,6,3,Jamaica,,4000,2007,11,,,Active,,,http://www.redfin.com/NY/Jamaica/114-17-167th-St-11434/home/20710175,MLSLI,3188770,N,Y,40.6898615,-73.7818762
MLS Listing,,Townhouse,446 Lincoln Ave,Brooklyn,NY,11208,650000,4,3,City Line,,1500,1910,11,,,Active,January-18-2020 12:00 PM,January-18-2020 04:00 PM,http://www.redfin.com/NY/Brooklyn/446-Lincoln-Ave-11208/home/40764121,MLSLI,3188647,N,Y,40.679116,-73.868456
MLS Listing,,Single Family Residential,,Springfield Gdns,NY,11413,659000,4,2,Springfield Gdns,,3700,1950,11,,,Active,,,http://www.redfin.com/NY/Jamaica/Undisclosed-address-11413/home/20696856,MLSLI,3188605,N,Y,40.681965,-73.743643
MLS Listing,,Multi-Family (2-4 Unit),1062 Walton Ave,Bronx,NY,10452,699770,12,6,Bronx,3150,2000,1899,11,222,,Active,,,http://www.redfin.com/NY/The-Bronx/1062-Walton-Ave-10452/home/44715760,MLSLI,3188575,N,Y,40.831683,-73.92111
MLS Listing,,Single Family Residential,1633 St. Peters,Bronx,NY,10461,650000,5,3,Bronx,1804,2566,1910,12,360,,Active,,,http://www.redfin.com/NY/The-Bronx/1633-St-Peters-Ave-10461/home/44788930,MLSLI,3188370,N,Y,40.8412843,-73.8488671
MLS Listing,,Multi-Family (2-4 Unit),109-17 153rd St,Jamaica,NY,11433,650000,5,4,Jamaica,,1396,2004,14,,,Active,,,http://www.redfin.com/NY/Jamaica/109-17-153rd-St-11433/home/20641204,MLSLI,3188206,N,Y,40.69159,-73.796677
MLS Listing,,Single Family Residential,878 E 37 St,Brooklyn,NY,11210,680000,5,1.75,Brooklyn,1450,2300,1935,14,469,,Active,,,http://www.redfin.com/NY/Brooklyn/878-E-37th-St-11210/home/40784107,BNYMLS,435567,N,Y,40.6354744,-73.9414087
MLS Listing,,Single Family Residential,16 Longdale St,Staten Island,NY,10314,675000,5,3,Annandale,1432,2574,1975,14,471,,Active,,,http://www.redfin.com/NY/Staten-Island/16-Longdale-St-10314/home/56016314,SIBORMLS,1134484,N,Y,40.618245,-74.164255
MLS Listing,,Multi-Family (2-4 Unit),91-19 182nd St,Hollis,NY,11423,700000,4,2,Hollis,,1800,1920,14,,,Active,,,http://www.redfin.com/NY/Jamaica/91-19-182nd-St-11423/home/20764640,MLSLI,3188073,N,Y,40.70941,-73.7789899
MLS Listing,,Multi-Family (2-4 Unit),6255 Decosta Ave,Arverne,NY,11692,699000,6,3,Arverne,2200,2200,2020,16,318,,Active,,,http://www.redfin.com/NY/Queens/6255-De-Costa-Ave-11692/home/170173107,MLSLI,3187931,N,Y,40.5984082,-73.7957168
MLS Listing,,Single Family Residential,211-15 90th Ct,Queens Village,NY,11428,669000,4,3,Queens Village,,4444,1940,17,,,Active,,,http://www.redfin.com/NY/Queens-Village/21115-90th-Ct-11428/home/20743990,MLSLI,3187884,N,Y,40.720021,-73.751498
MLS Listing,,Multi-Family (2-4 Unit),301 Schenck Ave,Brooklyn,NY,11207,659000,5,2,East New York,2280,2613,1901,17,289,,Active,,,http://www.redfin.com/NY/Brooklyn/301-Schenck-Ave-11207/home/28561970,MLSLI,3187843,N,Y,40.6734269,-73.8884101
MLS Listing,,Single Family Residential,254-11 82nd Dr,Floral Park,NY,11004,699000,4,2,Floral Park,,4000,1945,17,,,Active,,,http://www.redfin.com/NY/Glen-Oaks/254-11-82nd-Dr-11004/home/20792619,MLSLI,3187783,N,Y,40.738856,-73.714625
MLS Listing,,Multi-Family (2-4 Unit),3342 Fenton Ave,Bronx,NY,10469,679000,7,2,Bronx,,2500,1935,17,,,Active,,,http://www.redfin.com/NY/The-Bronx/3342-Fenton-Ave-10469/home/44740487,MLSLI,3187775,N,Y,40.8754097,-73.847305
MLS Listing,,Multi-Family (2-4 Unit),446 Elton St,Brooklyn,NY,11208,657000,5,3,Brooklyn,1728,1566,1925,18,380,,Active,,,http://www.redfin.com/NY/Brooklyn/446-Elton-St-11208/home/39636569,MLSLI,3187742,N,Y,40.6720645,-73.8831962
MLS Listing,,Single Family Residential,2480 Wenner Pl,Bronx,NY,10465,699000,4,3.5,Bronx,1695,5000,1920,18,412,,Active,,,http://www.redfin.com/NY/The-Bronx/2480-Wenner-Pl-10465/home/44751123,HGMLS,5129345,N,Y,40.8222536,-73.8365076
MLS Listing,,Single Family Residential,1529 Robertson Pl,Bronx,NY,10465,675000,5,2,Bronx,2220,,1935,20,304,,Active,,,http://www.redfin.com/NY/The-Bronx/1529-Robertson-Pl-10465/home/44805759,HGMLS,5128802,N,Y,40.8449988,-73.8234005
MLS Listing,,Single Family Residential,81-03 258th St,Glen Oaks,NY,11004,699000,4,3,Glen Oaks,,4000,1950,21,,,Active,,,http://www.redfin.com/NY/Glen-Oaks/81-03-258th-St-11004/home/20793833,MLSLI,3187517,N,Y,40.742457,-73.711935
MLS Listing,,Multi-Family (2-4 Unit),445 Bolton Ave,Bronx,NY,10473,699999,5,2,Bronx,,2500,1930,21,,,Active,,,http://www.redfin.com/NY/The-Bronx/445-Bolton-Ave-10473/home/44724599,MLSLI,3187465,N,Y,40.8148085,-73.8578842
MLS Listing,,Multi-Family (2-4 Unit),1718 Taylor Ave,Bronx,NY,10460,679000,6,2,Bronx,2240,2374,1901,22,303,,Active,,,http://www.redfin.com/NY/The-Bronx/1718-Taylor-Ave-10460/home/44732845,HGMLS,5128286,N,Y,40.8426812,-73.8690473
MLS Listing,,Multi-Family (2-4 Unit),3456 Eastchester Rd,Bronx,NY,10469,689000,4,2.5,Bronx,2176,2988,1963,22,317,,Active,,,http://www.redfin.com/NY/The-Bronx/3456-Eastchester-Rd-10469/home/44736181,HGMLS,5128635,N,Y,40.878222,-73.8465813
MLS Listing,,Multi-Family (2-4 Unit),131-04 161st St,Rochdale,NY,11434,659888,4,2,Rochdale,,4900,1960,23,,,Active,,,http://www.redfin.com/NY/Jamaica/131-04-161st-St-11434/home/20710840,MLSLI,3187268,N,Y,40.6749268,-73.778509
MLS Listing,,Multi-Family (2-4 Unit),81 Milford St,Brooklyn,NY,11208,679000,5,2,Brooklyn,,1875,1910,24,,,Active,,,http://www.redfin.com/NY/Brooklyn/81-Milford-St-11208/home/40763664,MLSLI,3187257,N,Y,40.6777672,-73.8776839
MLS Listing,,Multi-Family (2-4 Unit),1628 Taylor Ave,Bronx,NY,10460,699999,6,3,Bronx,2838,2374,1899,24,247,,Active,,,http://www.redfin.com/NY/The-Bronx/1628-Taylor-Ave-10460/home/44775190,HGMLS,5128308,N,Y,40.8414955,-73.867761
MLS Listing,,Multi-Family (2-4 Unit),621 S 6th Ave,Mount Vernon,NY,10550,669000,7,2,Mount Vernon,2800,5248,1912,24,239,,Active,,,http://www.redfin.com/NY/Mt-Vernon/621-S-6th-Ave-10550/home/20213341,HGMLS,5128190,N,Y,40.8962099,-73.8329236
MLS Listing,,Single Family Residential,123-60 147th St,Jamaica,NY,11436,650000,4,2.5,Jamaica,1535,2433,1925,26,423,,Active,,,http://www.redfin.com/NY/Jamaica/123-60-147th-St-11436/home/20718215,MLSLI,3186947,N,Y,40.674024,-73.791077
MLS Listing,,Multi-Family (2-4 Unit),45 E 92nd St,Brooklyn,NY,11212,699000,4,2.5,Brooklyn,,1600,1945,26,,,Active,,,http://www.redfin.com/NY/Brooklyn/45-E-92nd-St-11212/home/40770693,MLSLI,3186885,N,Y,40.663236,-73.928713
MLS Listing,,Multi-Family (2-4 Unit),663 Barbey St,Brooklyn,NY,11207,650000,4,2,Brooklyn,2000,2000,1901,26,325,,Active,,,http://www.redfin.com/NY/Brooklyn/663-Barbey-St-11207/home/40761530,MLSLI,3186828,N,Y,40.6662618,-73.8856515
MLS Listing,,Multi-Family (2-4 Unit),2748 Creston Ave,Bronx,NY,10468,679000,5,4.5,Bronx,2323,1406,2005,26,292,,Active,,,http://www.redfin.com/NY/The-Bronx/2748-Creston-Ave-10468/home/44803728,HGMLS,5127721,N,Y,40.8693994,-73.8930151
MLS Listing,,Multi-Family (2-4 Unit),2015 Gildersleeve Ave,Bronx,NY,10473,699900,5,2.5,Bronx,1718,2644,2009,28,407,,Active,,,http://www.redfin.com/NY/The-Bronx/2015-Gildersleeve-Ave-10473/home/44805890,HGMLS,5127318,N,Y,40.8101893,-73.8504802
MLS Listing,,Multi-Family (2-4 Unit),2971 Perry Ave,Bronx,NY,10458,695000,6,3,Bronx,,2683,1920,28,,,Active,,,http://www.redfin.com/NY/The-Bronx/2971-Perry-Ave-10458/home/44756762,MLSLI,3186516,N,Y,40.8702575,-73.8841646
MLS Listing,,Multi-Family (2-4 Unit),2952 Kingsland Ave,Bronx,NY,10469,699000,5,2,Bronx,1840,,1960,28,380,,Active,,,http://www.redfin.com/NY/The-Bronx/2952-Kingsland-Ave-10469/home/44781418,HGMLS,5127229,N,Y,40.8696733,-73.8403212
MLS Listing,,Multi-Family (2-4 Unit),712 E 211 St,Olinville,NY,10467,679000,5,3,Olinville,,975,1930,28,,,Active,,,http://www.redfin.com/NY/The-Bronx/712-E-211th-St-10467/home/44603789,MLSLI,3186457,N,Y,40.877466,-73.8650059
MLS Listing,,Multi-Family (2-4 Unit),443 Quincy Ave,Bronx,NY,10465,669000,4,3,Bronx,1564,2561,2007,29,428,,Active,,,http://www.redfin.com/NY/The-Bronx/443-Quincy-Ave-10465/home/44802426,HGMLS,5127058,N,Y,40.8206595,-73.8216253
MLS Listing,,Townhouse,509 Delafield Ave,Staten Island,NY,10310,680000,5,3,West Brighton,2409,5110,1940,31,282,,Active,,,http://www.redfin.com/NY/Staten-Island/509-Delafield-Ave-10310/home/56101507,SIBORMLS,1134324,N,Y,40.6310771,-74.1156688
MLS Listing,,Single Family Residential,89-48 212th St,Queens Village,NY,11427,669000,4,2.5,Queens Village,,3600,1935,31,,,Active,,,http://www.redfin.com/NY/Queens-Village/89-48-212th-St-11427/home/20744975,MLSLI,3186056,N,Y,40.7224689,-73.7517979
MLS Listing,,Multi-Family (2-4 Unit),330 S 5th Ave,Mount Vernon,NY,10550,667000,5,4,Mount Vernon,2800,5166,1900,32,238,,Active,,,http://www.redfin.com/NY/Mt-Vernon/330-S-5th-Ave-10550/home/20213708,HGMLS,5126119,N,Y,40.902962,-73.835106
MLS Listing,,Multi-Family (2-4 Unit),44 Hemlock St,Brooklyn,NY,11208,675000,7,3,Brooklyn,,2136,1935,32,,,Active,,,http://www.redfin.com/NY/Brooklyn/44-Hemlock-St-11208/home/40761907,MLSLI,3185829,N,Y,40.6888779,-73.8725847
MLS Listing,,Multi-Family (2-4 Unit),4376 Edson Ave,Bronx,NY,10466,699000,4,2.5,Bronx,2125,1738,1965,33,329,,Active,,,http://www.redfin.com/NY/The-Bronx/4376-Edson-Ave-10466/home/44785270,HGMLS,5126112,N,Y,40.8988647,-73.8466732
MLS Listing,,Single Family Residential,113-01 201st St,St. Albans,NY,11412,650000,4,2.5,St. Albans,3242,3242,1927,33,200,,Active,,,http://www.redfin.com/NY/Jamaica/113-01-201st-St-11412/home/20741820,MLSLI,3185750,N,Y,40.701504,-73.754045
MLS Listing,,Single Family Residential,122-20 Grayson St,Springfield Gdns,NY,11413,650000,4,2,Springfield Gdns,,3500,1935,33,,,Active,,,http://www.redfin.com/NY/Jamaica/122-20-Grayson-St-11413/home/20696627,MLSLI,3185598,N,Y,40.683377,-73.75806
MLS Listing,,Single Family Residential,114-69 208th St,Cambria Heights,NY,11411,670000,4,3.5,Cambria Heights,1236,3700,1920,33,542,,Active,,,http://www.redfin.com/NY/Jamaica/114-69-208th-St-11411/home/20740349,MLSLI,3185552,N,Y,40.700227,-73.745667
MLS Listing,,Single Family Residential,113-06 201 St,St. Albans,NY,11412,699000,4,2.5,St. Albans,,3100,1925,34,,,Active,,,http://www.redfin.com/NY/Jamaica/113-06-201st-St-11412/home/20738993,MLSLI,3185499,N,Y,40.701268,-73.754591
MLS Listing,,Multi-Family (2-4 Unit),216-26 117th Rd,Jamaica,NY,11412,699000,4,3,Jamaica,,5000,1940,34,,,Active,,,http://www.redfin.com/NY/Jamaica/216-26-117th-Rd-11411/home/20696600,MLSLI,3185439,N,Y,40.694854,-73.742969
MLS Listing,,Single Family Residential,68 Geldner Ave,Staten Island,NY,10306,690000,4,3,New Dorp,2250,4000,1967,34,307,,Active,,,http://www.redfin.com/NY/Staten-Island/68-Geldner-Ave-10306/home/56063718,SIBORMLS,1134269,N,Y,40.5774246,-74.1222755
MLS Listing,,Multi-Family (2-4 Unit),104-13 126 St,Richmond Hill S.,NY,11419,699000,4,2,Richmond Hill S.,,1500,1920,35,,,Active,January-18-2020 01:00 PM,January-18-2020 03:00 PM,http://www.redfin.com/NY/Jamaica/104-13-126th-St-11419/home/20769487,MLSLI,3185141,N,Y,40.6879943,-73.8181482
MLS Listing,,Single Family Residential,929 39 St,Brooklyn,NY,11219,695000,4,2,Brooklyn,2150,1903,1930,35,323,,Active,,,http://www.redfin.com/NY/Brooklyn/929-39th-St-11219/home/40802796,BNYMLS,435225,N,Y,40.64561,-73.99408
MLS Listing,,Multi-Family (2-4 Unit),860 E 225th St,Bronx,NY,10466,650000,6,2,Bronx,1742,,1925,35,373,,Active,,,http://www.redfin.com/NY/The-Bronx/860-E-225th-St-10466/home/44744142,HGMLS,5125474,N,Y,40.8861342,-73.8559962
MLS Listing,,Single Family Residential,133-42 244 St,Rosedale,NY,11422,699900,5,3.5,Rosedale,2000,4000,1950,36,350,,Active,,,http://www.redfin.com/NY/Jamaica/133-42-244th-St-11422/home/20691780,MLSLI,3184992,N,Y,40.673515,-73.730184
MLS Listing,,Single Family Residential,144-15 Lakewood Ave,Jamaica,NY,11435,650000,7,3,Jamaica,,5500,1910,38,,,Active,,,http://www.redfin.com/NY/Jamaica/144-15-Lakewood-Ave-11435/home/20758130,MLSLI,3184777,N,Y,40.689689,-73.803856
MLS Listing,,Multi-Family (2-4 Unit),13-47 Mcbride St,Far Rockaway,NY,11691,650000,8,4,Far Rockaway,3515,8586,1920,40,185,,Active,,,http://www.redfin.com/NY/Far-Rockaway/1347-McBride-St-11691/home/20677595,MLSLI,3184345,N,Y,40.607195,-73.757328
MLS Listing,,Single Family Residential,,Howard Beach,NY,11414,650000,4,3,Howard Beach,,3400,1930,40,,,Active,,,http://www.redfin.com/NY/Jamaica/Undisclosed-address-11414/home/20681515,MLSLI,3184278,N,Y,40.650591,-73.831653
MLS Listing,,Multi-Family (2-4 Unit),189-24 113th Rd,St. Albans,NY,11412,685000,6,5,St. Albans,,1625,2007,41,,,Active,,,http://www.redfin.com/NY/St-Albans/189-24-113th-Rd-11412/home/20624398,MLSLI,3183880,N,Y,40.6980826,-73.7630695
MLS Listing,,Multi-Family (2-4 Unit),113-36 208th St,Queens Village,NY,11429,690000,5,3,Queens Village,1774,3000,1935,42,389,,Active,,,http://www.redfin.com/NY/Jamaica/113-36-208th-St-11429/home/20738131,MLSLI,3183763,N,Y,40.70232,-73.747228
MLS Listing,,Multi-Family (2-4 Unit),84-25 107 St,Richmond Hill,NY,11418,699000,4,1.5,Richmond Hill North,1672,2500,1925,42,418,,Active,,,http://www.redfin.com/NY/Jamaica/84-25-107th-St-11418/home/20781122,MLSLI,3183681,N,Y,40.699891,-73.84231
MLS Listing,,Single Family Residential,112 Just Ct,Brooklyn,NY,11229,669000,4,2,Brooklyn,1248,3600,1920,45,536,,Active,,,http://www.redfin.com/NY/Brooklyn/112-Just-Ct-11229/home/40910726,BNYMLS,435056,N,Y,40.5886659,-73.9262115
MLS Listing,,Multi-Family (2-4 Unit),111-60 145th St,Jamaica,NY,11435,674999,4,2.5,Jamaica,1400,1400,1925,47,482,,Active,,,http://www.redfin.com/NY/Jamaica/111-60-145th-St-11435/home/20715850,MLSLI,3183215,N,Y,40.6852478,-73.7994183
MLS Listing,,Townhouse,1227 Schenectady Ave,Brooklyn,NY,11203,685000,4,2.5,Brooklyn,,2400,1925,47,,,Active,,,http://www.redfin.com/NY/Brooklyn/1227-Schenectady-Ave-11203/home/40776241,MLSLI,3183157,N,Y,40.6428256,-73.9321131
MLS Listing,,Single Family Residential,109-11 212th St,Queens Village,NY,11429,650000,5,2,Queens Village,1321,4000,1950,47,492,,Active,,,http://www.redfin.com/NY/Jamaica/109-11-212th-St-11429/home/20734247,MLSLI,3183113,N,Y,40.709159,-73.745354
MLS Listing,,Single Family Residential,25 Millbank Rd,Staten Island,NY,10306,689000,4,2,New Dorp,1550,2700,2019,47,445,,Active,,,http://www.redfin.com/NY/Staten-Island/25-Milbank-Rd-10306/home/56127178,SIBORMLS,1134069,N,Y,40.5612571,-74.1025348
MLS Listing,,Single Family Residential,4 Shoreview Cir,Pelham,NY,10803,699000,4,2.5,Pelham Manor,3172,19798,1971,49,220,,Active,,,http://www.redfin.com/NY/Pelham/4-Shoreview-Cir-10803/home/20071981,HGMLS,5122049,N,Y,40.8861977,-73.7934958
MLS Listing,,Multi-Family (2-4 Unit),141-16 256 St,Rosedale,NY,11422,699999,4,2,Rosedale,1862,1860,1955,49,376,,Active,,,http://www.redfin.com/NY/Jamaica/141-16-256th-St-11422/home/20689233,HGMLS,5122237,N,Y,40.660078,-73.728849
MLS Listing,,Multi-Family (2-4 Unit),,Brooklyn,NY,11208,685000,4,2,Brooklyn,,1542,1901,49,,,Active,,,http://www.redfin.com/NY/Brooklyn/Undisclosed-address-11208/home/22201523,MLSLI,3182718,N,Y,40.6859564,-73.8764665
MLS Listing,,Townhouse,88 Taft Ave,Staten Island,NY,10301,650000,9,6,New Brighton,1748,2500,1920,51,372,,Active,,,http://www.redfin.com/NY/Staten-Island/88-Taft-Ave-10301/home/56122743,SIBORMLS,1134003,N,Y,40.6405802,-74.0858896
MLS Listing,,Townhouse,378 Drew St,Ozone Park,NY,11416,699000,4,2.5,Ozone Park,,2232,1910,52,,,Active,,,http://www.redfin.com/NY/BROOKLYN/378-DREW-ST-11208/home/40764135,MLSLI,3182401,N,Y,40.681921,-73.864257
MLS Listing,,Townhouse,47 Slayton Ave,call Listing Agent,NY,10314,688888,4,2.5,Staten Island,1944,,1988,52,354,,Active,,,http://www.redfin.com/NY/Staten-Island/47-Slayton-Ave-10314/home/56104896,HGMLS,5121577,N,Y,40.594364,-74.155105
MLS Listing,,Multi-Family (2-4 Unit),95-19 88th St,Ozone Park,NY,11416,699000,4,2,Ozone Park,,2500,1915,53,,,Active,,,http://www.redfin.com/NY/Jamaica/95-19-88th-St-11416/home/20786332,MLSLI,3182049,N,Y,40.684931,-73.85285
MLS Listing,,Multi-Family (2-4 Unit),172-11 107th Ave,Jamaica,NY,11433,650000,5,2,Jamaica,,3000,1930,54,,,Active,,,http://www.redfin.com/NY/Jamaica/172-11-107th-Ave-11433/home/20755792,MLSLI,3181648,N,Y,40.7007882,-73.7837526
MLS Listing,,Multi-Family (2-4 Unit),1054 E 227th St,Bronx,NY,10466,665000,4,2.5,Bronx,1683,2299,1950,55,395,,Active,,,http://www.redfin.com/NY/The-Bronx/1054-E-227th-St-10466/home/44742771,HGMLS,5120958,N,Y,40.8857304,-73.8493653
MLS Listing,,Multi-Family (2-4 Unit),1463 Longfellow Ave,Bronx,NY,10460,679000,5,2,Bronx,2600,2500,1996,55,261,,Active,,,http://www.redfin.com/NY/The-Bronx/1463-Longfellow-Ave-10460/home/44763130,HGMLS,5120715,N,Y,40.8315561,-73.8872273
MLS Listing,,Multi-Family (2-4 Unit),241-20 Caney Rd,Rosedale,NY,11422,699000,4,2.5,Rosedale,,3000,1930,56,,,Active,,,http://www.redfin.com/NY/Jamaica/241-20-Caney-Rd-11422/home/20684946,MLSLI,3181353,N,Y,40.661098,-73.739785
MLS Listing,,Single Family Residential,104-13 191st St,St. Albans,NY,11412,689000,5,4,St. Albans,1600,4000,1925,56,431,,Active,,,http://www.redfin.com/NY/Jamaica/104-13-191st-St-11412/home/20737920,MLSLI,3181341,N,Y,40.706461,-73.766201
MLS Listing,,Multi-Family (2-4 Unit),597 E 86 St,Brooklyn,NY,11236,699000,4,3,Brooklyn,1800,2000,1965,56,388,,Active,,,http://www.redfin.com/NY/Brooklyn/597-E-86th-St-11236/home/40884090,BNYMLS,434828,N,Y,40.6417647,-73.9123181
MLS Listing,,Single Family Residential,209-20 99 Ave,Queens Village,NY,11429,669999,5,2,Queens Village,1900,4040,1940,56,353,,Active,,,http://www.redfin.com/NY/Jamaica/209-20-99th-Ave-11429/home/20742778,MLSLI,3181204,N,Y,40.713731,-73.749955
MLS Listing,,Single Family Residential,223 Floral Blvd,Floral Park,NY,11001,689999,5,2,Floral Park,,4000,1978,56,,,Active,,,http://www.redfin.com/NY/Floral-Park/223-Floral-Blvd-11001/home/20476107,MLSLI,3181201,N,Y,40.7210443,-73.7175593
MLS Listing,,Multi-Family (2-4 Unit),25 Layton Ave,Staten Island,NY,10301,700000,5,2,St. George,2096,8176,1910,57,334,,Active,,,http://www.redfin.com/NY/Staten-Island/25-Layton-Ave-10301/home/56086187,MLSLI,3181119,N,Y,40.6419011,-74.0842835
MLS Listing,,Multi-Family (2-4 Unit),4722 Richardson Ave,Bronx,NY,10470,675000,4,2,Bronx,1691,3497,1920,58,399,,Active,,,http://www.redfin.com/NY/The-Bronx/4722-Richardson-Ave-10470/home/44784047,HGMLS,5120590,N,Y,40.904383,-73.850595
MLS Listing,,Townhouse,132 Mallow St,Staten Island,NY,10309,685000,4,4,Rossville,2253,3248,1997,58,304,,Active,,,http://www.redfin.com/NY/Staten-Island/132-Mallow-St-10309/home/56109660,SIBORMLS,1133854,N,Y,40.5478049,-74.20965
MLS Listing,,Multi-Family (2-4 Unit),1320 Troy Ave,East Flatbush,NY,11203,675000,4,2,East Flatbush,,2000,1930,59,,,Active,,,http://www.redfin.com/NY/Brooklyn/1320-Troy-Ave-11203/home/40783005,MLSLI,3180829,N,Y,40.6403214,-73.9352572
MLS Listing,,Townhouse,22 Robin Ct,Staten Island,NY,10309,679800,4,4,Charleston,2440,4440,1994,60,279,95,Active,,,http://www.redfin.com/NY/Staten-Island/22-Robin-Ct-10309/home/56056221,SIBORMLS,1133823,N,Y,40.5370477,-74.2215448
MLS Listing,,Multi-Family (2-4 Unit),329 Shepherd Ave,Brooklyn,NY,11208,699000,8,3,East New York,2820,2000,1930,60,248,,Active,,,http://www.redfin.com/NY/Brooklyn/329-Shepherd-Ave-11208/home/40759116,MLSLI,3180564,N,Y,40.677029,-73.881223
MLS Listing,,Townhouse,1603 Bayshore Ave,Bronx,NY,10465,700000,4,2.5,Bronx,1728,1655,1955,61,405,,Active,,,http://www.redfin.com/NY/The-Bronx/1603-Bay-Shore-Ave-10465/home/44750926,HGMLS,5119789,N,Y,40.8462549,-73.8166572
MLS Listing,,Multi-Family (2-4 Unit),81 E 237 St,Woodlawn,NY,10470,679000,5,3,Woodlawn,,2300,1935,61,,,Active,,,http://www.redfin.com/NY/The-Bronx/81-E-237th-St-10470/home/44718765,MLSLI,3180280,N,Y,40.8984712,-73.8736183
MLS Listing,,Single Family Residential,724 Clawson St,Staten Island,NY,10306,699000,4,2,Oakwood,1554,6000,1955,61,450,,Active,,,http://www.redfin.com/NY/Staten-Island/724-Clawson-St-10306/home/56018006,SIBORMLS,1133788,N,Y,40.562332,-74.120165
MLS Listing,,Multi-Family (2-4 Unit),120-33 146 St,Jamaica,NY,11436,679000,4,3,Queens,,2500,1960,61,,,Active,,,http://www.redfin.com/NY/Jamaica/120-33-146th-St-11436/home/20715417,MLSLI,3180241,N,Y,40.67617,-73.792436
MLS Listing,,Multi-Family (2-4 Unit),3837 Cypress Ave #5,Brooklyn,NY,11224,699000,7,3,Brooklyn,2112,3033,1927,61,331,,Active,,,http://www.redfin.com/NY/Brooklyn/3837-Cypress-Ave-11224/unit-5/home/40850724,BNYMLS,434721,N,Y,40.5787223,-74.0074042
MLS Listing,,Multi-Family (2-4 Unit),650 Georgia Ave,Brooklyn,NY,11207,679000,6,2.5,Brooklyn,,1230,1930,62,,,Active,,,http://www.redfin.com/NY/Brooklyn/650-Georgia-Ave-11207/home/28645200,MLSLI,3180021,N,Y,40.660576,-73.8945518
MLS Listing,,Single Family Residential,223-10 131st Ave,Springfield Gdns,NY,11413,665000,4,3,Springfield Gdns,1641,3861,1950,62,405,,Active,,,http://www.redfin.com/NY/Jamaica/223-10-131st-Ave-11413/home/20698638,MLSLI,3179759,N,Y,40.6812911,-73.7443058
MLS Listing,,Multi-Family (2-4 Unit),3229 Grace Ave,Bronx,NY,10469,675000,5,2,Bronx,1760,1899,1965,63,384,,Active,,,http://www.redfin.com/NY/The-Bronx/3229-Grace-Ave-10469/home/44742882,HGMLS,5119502,N,Y,40.8759355,-73.8381502
MLS Listing,,Single Family Residential,211 Seagirt Ave,Far Rockaway,NY,11691,699000,4,2.5,Far Rockaway,,3673,1930,63,,,Active,,,http://www.redfin.com/NY/Far-Rockaway/211-Seagirt-Ave-11691/home/20678322,MLSLI,3179662,N,Y,40.5958665,-73.7387366
MLS Listing,,Multi-Family (2-4 Unit),108-36 164th St,Jamaica,NY,11433,699000,8,3.5,Jamaica,,2600,1925,65,,,Active,,,http://www.redfin.com/NY/Jamaica/108-36-164th-St-11433/home/20759315,MLSLI,3179369,N,Y,40.695862,-73.789965
MLS Listing,,Multi-Family (2-4 Unit),95 Taft Ave,Staten  Island,NY,10301,650000,7,3,Staten  Island,1600,2500,1901,66,406,,Active,,,http://www.redfin.com/NY/Staten-Island/95-Taft-Ave-10301/home/56124742,BNYMLS,434645,N,Y,40.6408575,-74.0862108
MLS Listing,,Multi-Family (2-4 Unit),107-12 127th St,Richmond Hill S.,NY,11419,689000,4,2.5,Richmond Hill S.,,1800,1925,67,,,Active,,,http://www.redfin.com/NY/Jamaica/107-12-127th-St-11419/home/20768945,MLSLI,3178840,N,Y,40.685786,-73.8167129
MLS Listing,,Multi-Family (2-4 Unit),1021 Schenectady Ave,Brooklyn,NY,11203,680000,4,2,Brooklyn,,1027,2008,68,,,Active,,,http://www.redfin.com/NY/Brooklyn/1021-Schenectady-Ave-11203/home/39543209,MLSLI,3178646,N,Y,40.648281,-73.9327461
MLS Listing,,Single Family Residential,2140 Forest Ave,Staten Island,NY,10303,697000,4,3,Graniteville,1598,3710,1920,68,436,,Active,,,http://www.redfin.com/NY/Staten-Island/2140-Forest-Ave-10303/home/56131237,SIBORMLS,1133604,N,Y,40.6263308,-74.1608906
MLS Listing,,Single Family Residential,145-07 Arlington Ter,Jamaica,NY,11435,699000,4,2.5,Jamaica,,3200,1930,69,,,Active,,,http://www.redfin.com/NY/Jamaica/145-07-Arlington-Ter-11435/home/20719713,MLSLI,3178307,N,Y,40.6899052,-73.8025952
MLS Listing,,Single Family Residential,2339 Hoffman Ave,Elmont,NY,11003,679000,4,4.5,Elmont,,10695,1952,70,,,Active,,,http://www.redfin.com/NY/Queens/2339-Hoffman-Ave-11003/home/20465119,MLSLI,3177813,N,Y,40.7010421,-73.7262944
MLS Listing,,Townhouse,157A Hull St,Brooklyn,NY,11233,699000,4,3,Brooklyn,,1500,1899,71,,,Active,,,http://www.redfin.com/NY/Brooklyn/157A-Hull-St-11233/home/169643435,MLSLI,3177745,N,Y,40.679795,-73.910647
MLS Listing,,Single Family Residential,70 Leighton Ave,Yonkers,NY,10705,675000,4,2,Yonkers,2870,6673,1939,71,235,,Active,,,http://www.redfin.com/NY/Yonkers/70-Leighton-Ave-10705/home/20182173,HGMLS,5117785,N,Y,40.9129161,-73.8974707
MLS Listing,,Single Family Residential,53 Green St,Valley Stream,NY,11580,699000,5,2.5,Valley Stream,,4000,1937,73,,,Active,,,http://www.redfin.com/NY/Valley-Stream/53-Green-St-11580/home/20415285,MLSLI,3177380,N,Y,40.6706866,-73.7224786
MLS Listing,,Single Family Residential,92-13 107th Ave,Ozone Park,NY,11417,658000,4,2,Ozone Park,,1980,1920,73,,,Active,,,http://www.redfin.com/NY/Ozone-Park/92-13-107th-Ave-11417/home/20777254,MLSLI,3177370,N,Y,40.6787777,-73.8455762
MLS Listing,,Single Family Residential,869 Fanwood Ave,N. Woodmere,NY,11581,689000,4,2.5,N. Woodmere,,6732,1959,73,,,Active,,,http://www.redfin.com/NY/Valley-Stream/869-Fanwood-Ave-11581/home/20392607,MLSLI,3177333,N,Y,40.6507377,-73.7255588
MLS Listing,,Multi-Family (2-4 Unit),830 E 227th St,Bronx,NY,10466,665000,4,3,Bronx,1400,,1920,73,475,,Active,,,http://www.redfin.com/NY/The-Bronx/830-E-227th-St-10466/home/44738753,HGMLS,5117429,N,Y,40.8877971,-73.8556232
MLS Listing,,Single Family Residential,90-60 184 Pl,Hollis,NY,11423,669000,4,2.5,Hollis,1440,2500,1920,73,465,,Active,,,http://www.redfin.com/NY/Jamaica/90-60-184th-Pl-11423/home/20762574,MLSLI,3177307,N,Y,40.709787,-73.775438
MLS Listing,,Single Family Residential,119-28 Farmers Blvd,Jamaica,NY,11412,669900,5,3,Jamaica,,6201,1945,73,,,Active,,,http://www.redfin.com/NY/Jamaica/119-28-Farmers-Blvd-11412/home/20704912,MLSLI,3177287,N,Y,40.6873859,-73.76191
MLS Listing,,Multi-Family (2-4 Unit),3011 Olinville Ave,Bronx,NY,10467,665000,5,4,Bronx,2000,2134,1925,73,333,,Active,,,http://www.redfin.com/NY/The-Bronx/3011-Olinville-Ave-10467/home/44615808,HGMLS,5115744,N,Y,40.8700885,-73.8684846
MLS Listing,,Multi-Family (2-4 Unit),239-52 148 Ave,Rosedale,NY,11422,689000,7,2,Rosedale,1564,4000,1950,74,441,,Active,,,http://www.redfin.com/NY/Jamaica/239-52-148th-Ave-11422/home/20687974,MLSLI,3177225,N,Y,40.6544809,-73.7435
MLS Listing,,Multi-Family (2-4 Unit),1215 Shakespeare Ave,Bronx,NY,10452,650000,4,2.5,Bronx,875,1428,1942,74,743,,Active,,,http://www.redfin.com/NY/The-Bronx/1215-Shakespeare-Ave-10452/home/44715358,HGMLS,5116905,N,Y,40.8373107,-73.9236281
MLS Listing,,Single Family Residential,3 Williams Ct,Far Rockaway,NY,11691,689000,4,2.5,Far Rockaway,1968,1864,1925,75,350,,Active,,,http://www.redfin.com/NY/Far-Rockaway/3-Williams-Ct-11691/home/20676022,MLSLI,3176848,N,Y,40.5994497,-73.7489464
MLS Listing,,Multi-Family (2-4 Unit),107-16 117th St,Richmond Hill,NY,11419,679000,5,3,Richmond Hill,,2429,1920,75,,,Active,,,http://www.redfin.com/NY/Jamaica/107-16-117th-St-11419/home/20769496,MLSLI,3176803,N,Y,40.683359,-73.824963
MLS Listing,,Multi-Family (2-4 Unit),117-30 143rd St,Jamaica,NY,11436,699000,4,3,Jamaica,1866,1866,1940,77,375,,Active,,,http://www.redfin.com/NY/Jamaica/117-30-143rd-St-11436/home/20718054,MLSLI,3176276,N,Y,40.678147,-73.798051
MLS Listing,,Single Family Residential,398 Grantwood Ave,Staten Island,NY,10312,679000,5,4,Annandale,1400,3000,1981,77,485,,Active,,,http://www.redfin.com/NY/Staten-Island/398-Grantwood-Ave-10312/home/56036556,SIBORMLS,1133382,N,Y,40.5546788,-74.1832852
MLS Listing,,Single Family Residential,159-17 100th St,Howard Beach,NY,11414,699499,4,2,Howard Beach,,3900,1950,77,,,Active,,,http://www.redfin.com/NY/Jamaica/159-17-100th-St-11414/home/20683122,MLSLI,3176107,N,Y,40.659627,-73.8329229
MLS Listing,,Single Family Residential,35 Coral Ct,Staten Island,NY,10308,669000,4,4,Great Kills,1850,2325,2001,77,362,,Active,,,http://www.redfin.com/NY/Staten-Island/35-Coral-Ct-10308/home/56087166,SIBORMLS,1133145,N,Y,40.5456982,-74.139721
MLS Listing,,Single Family Residential,191 Seidman Ave,Staten Island,NY,10312,689900,4,2,S.E. Annadale,1545,6528,1950,78,447,,Active,,,http://www.redfin.com/NY/Staten-Island/191-Seidman-Ave-10312/home/56031421,SIBORMLS,1133363,N,Y,40.5355357,-74.1644799
MLS Listing,,Single Family Residential,111-31 141 St,Jamaica,NY,11435,659000,4,3,Jamaica,,100,1925,81,,,Active,,,http://www.redfin.com/NY/Jamaica/111-31-141st-St-11435/home/20715900,MLSLI,3175325,N,Y,40.68474,-73.802695
MLS Listing,,Single Family Residential,92-35 173 St,Jamaica,NY,11433,674999,5,3.5,Briarwood,,2500,1920,84,,,Active,,,http://www.redfin.com/NY/Jamaica/92-35-173rd-St-11433/home/20756212,MLSLI,3174228,N,Y,40.707035,-73.786109
MLS Listing,,Single Family Residential,391 St George Rd,Staten Island,NY,10306,689900,4,3,Lighthouse Hill,1692,5100,1899,88,408,,Active,,,http://www.redfin.com/NY/Staten-Island/391-St-George-Rd-10306/home/56025536,SIBORMLS,1133115,N,Y,40.57501,-74.140332
MLS Listing,,Multi-Family (2-4 Unit),1621 Taylor Ave,Bronx,NY,10460,699999,6,3,Bronx,2400,2374,1899,89,292,,Active,,,http://www.redfin.com/NY/The-Bronx/1621-Taylor-Ave-10460/home/44605055,HGMLS,5104609,N,Y,40.8411171,-73.8679475
MLS Listing,,Single Family Residential,573 Wainwright Ave,Staten Island,NY,10312,699999,4,2,Eltingville,2000,5000,1990,89,350,,Active,,,http://www.redfin.com/NY/Staten-Island/573-Wainwright-Ave-10312/home/56036406,SIBORMLS,1133107,N,Y,40.5463719,-74.1685163
MLS Listing,,Multi-Family (2-4 Unit),205-25 113 Ave,St. Albans,NY,11412,659000,5,2.5,St. Albans,1400,2200,1940,89,471,,Active,,,http://www.redfin.com/NY/Jamaica/205-25-113th-Ave-11412/home/20739033,MLSLI,3173109,N,Y,40.7029629,-73.749972
MLS Listing,,Multi-Family (2-4 Unit),2132 Hughes Ave,Bronx,NY,10457,650000,6,2,Bronx,2784,1415,1901,90,233,,Active,,,http://www.redfin.com/NY/The-Bronx/2132-Hughes-Ave-10457/home/44763019,HGMLS,5103083,N,Y,40.8501413,-73.8894844
MLS Listing,,Single Family Residential,321 Little Clove Rd,Staten Island,NY,10301,679000,4,2,Sunnyside,1543,7040,1940,90,440,,Active,,,http://www.redfin.com/NY/Staten-Island/321-Little-Clove-Rd-10301/home/56049465,SIBORMLS,1133043,N,Y,40.6117211,-74.1092912
MLS Listing,,Single Family Residential,130-70 227th St,Laurelton,NY,11413,679000,4,2.5,Laurelton,,3600,1930,92,,,Active,,,http://www.redfin.com/NY/Jamaica/130-70-227th-St-11413/home/20698724,MLSLI,3172402,N,Y,40.680748,-73.741272
MLS Listing,,Townhouse,34 Sharrotts Ln,Staten Island,NY,10309,669000,4,3,Charleston,1550,2690,1997,92,432,120,Active,,,http://www.redfin.com/NY/Staten-Island/34-Sharrotts-Ln-10309/home/56088968,SIBORMLS,1133009,N,Y,40.5385111,-74.2186205
MLS Listing,,Townhouse,235-20 147 Dr,Rosedale,NY,11422,659000,4,2.5,Rosedale,,2700,1965,92,,,Active,,,http://www.redfin.com/NY/Jamaica/235-20-147th-Dr-11422/home/20688392,MLSLI,3172365,N,Y,40.655889,-73.746214
MLS Listing,,Single Family Residential,235-28 148th Rd,Rosedale,NY,11422,659990,4,4.5,Rosedale,,4000,1940,97,,,Active,,,http://www.redfin.com/NY/Jamaica/235-28-148th-Rd-11422/home/20688153,MLSLI,3171299,N,Y,40.65453,-73.746712
MLS Listing,,Multi-Family (2-4 Unit),116-31 Francis Lewis Blvd,Cambria Heights,NY,11411,699999,4,2,Cambria Heights,2500,2500,1970,97,280,,Active,,,http://www.redfin.com/NY/Jamaica/116-31-Francis-Lewis-Blvd-11411/home/20737280,MLSLI,3171149,N,Y,40.696739,-73.746099
MLS Listing,,Single Family Residential,149 Fillmore St,Staten Island,NY,10301,663900,6,3,New Brighton,2487,3663,1930,97,267,,Active,,,http://www.redfin.com/NY/Staten-Island/149-Fillmore-St-10301/home/56090889,SIBORMLS,1132865,N,Y,40.6439871,-74.0935987
MLS Listing,,Single Family Residential,537 Amherst Ave,Staten Island,NY,10306,699000,4,3,Oakwood,1900,2500,1989,97,368,,Active,,,http://www.redfin.com/NY/Staten-Island/537-Amherst-Ave-10306/home/56054808,SIBORMLS,1132847,N,Y,40.5568092,-74.1183241
MLS Listing,,Single Family Residential,176-15 133 Rd,Jamaica,NY,11434,650000,4,3,Jamaica,,4000,1955,102,,,Active,,,http://www.redfin.com/NY/Jamaica/176-15-133rd-Rd-11434/home/20703435,MLSLI,3169927,N,Y,40.676625,-73.764719
MLS Listing,,Multi-Family (2-4 Unit),4110 Edson Ave,Bronx,NY,10466,698500,4,2,Bronx,1930,5000,1925,103,362,,Active,,,http://www.redfin.com/NY/The-Bronx/4110-Edson-Ave-10466/home/44791369,HGMLS,5080971,N,Y,40.8931417,-73.8444678
MLS Listing,,Multi-Family (2-4 Unit),116-03 Nashville Blvd,Cambria Heights,NY,11411,665000,4,3,Cambria Heights,,1980,1950,104,,,Active,,,http://www.redfin.com/NY/Jamaica/116-03-Nashville-Blvd-11411/home/20734332,MLSLI,3169195,N,Y,40.697759,-73.7438279
MLS Listing,,Multi-Family (2-4 Unit),,Brooklyn,NY,11212,675000,10,4,Brooklyn,,2600,1915,104,,,Active,,,http://www.redfin.com/NY/Brooklyn/Undisclosed-address-11212/home/40773411,MLSLI,3168964,N,Y,40.6556935,-73.9166126
MLS Listing,,Multi-Family (2-4 Unit),2-4 Beach 32 St,Far Rockaway,NY,11691,699000,6,5,Far Rockaway,3000,4560,1931,105,233,,Active,,,http://www.redfin.com/NY/Far-Rockaway/2-B-32nd-St-11691/home/20676607,BNYMLS,433616,N,Y,40.5934588,-73.7639429
MLS Listing,,Multi-Family (2-4 Unit),343 Beach 47 St,Far Rockaway,NY,11691,699000,6,2,Rockaway,,2850,1970,105,,,Active,,,http://www.redfin.com/NY/Far-Rockaway/343-Beach-47th-St-11691/home/20674131,MLSLI,3168799,N,Y,40.594711,-73.7783637
MLS Listing,,Single Family Residential,568 Foster Rd,Staten Island,NY,10309,699000,4,3,Woodrow,1980,6600,1930,105,353,,Active,,,http://www.redfin.com/NY/Staten-Island/568-Foster-Rd-10309/home/56132033,SIBORMLS,1132637,N,Y,40.540108,-74.206858
MLS Listing,,Single Family Residential,191-20 113th Rd,St. Albans,NY,11412,685000,4,3,St. Albans,,2700,1920,107,,,Active,,,http://www.redfin.com/NY/Jamaica/191-20-113th-Rd-11412/home/20740680,MLSLI,3168509,N,Y,40.698677,-73.761775
MLS Listing,,Multi-Family (2-4 Unit),4232 Carpenter Ave,Bronx,NY,10466,675000,8,3,Bronx,1760,2500,1901,109,384,,Active,,,http://www.redfin.com/NY/The-Bronx/4232-Carpenter-Ave-10466/home/44738086,HGMLS,5080448,N,Y,40.8953429,-73.859385
MLS Listing,,Multi-Family (2-4 Unit),1928 Prospect Ave,Bronx,NY,10457,698000,8,2.5,Bronx,2375,2375,1901,109,294,,Active,,,http://www.redfin.com/NY/The-Bronx/1928-Prospect-Ave-10457/home/44744092,MLSLI,3167902,N,Y,40.843519,-73.889422
MLS Listing,,Condo/Co-op,616 W 137th St Unit 5B,New York,NY,10031,675000,4,1.5,New York,1375,,1905,110,491,,Active,,,http://www.redfin.com/NY/New-York/616-W-137th-St-10031/unit-5B/home/169201694,HGMLS,5069162,N,Y,40.8217036,-73.9554301
MLS Listing,,Multi-Family (2-4 Unit),62-11 Burchell Rd,Arverne,NY,11692,660000,6,3,Arverne,,4000,2004,111,,,Active,,,http://www.redfin.com/NY/Arverne/6211-Burchell-Rd-11692/home/20664590,MLSLI,3167243,N,Y,40.596412,-73.791575
MLS Listing,,Multi-Family (2-4 Unit),1015 Havemeyer Ave,Bronx,NY,10472,700000,6,2.5,Bronx,1920,2308,1930,112,365,,Active,,,http://www.redfin.com/NY/The-Bronx/1015-Havemeyer-Ave-10472/home/44723535,HGMLS,5076593,N,Y,40.8283796,-73.847259
MLS Listing,,Multi-Family (2-4 Unit),5819 Tilden Ave,Brooklyn,NY,11203,679000,4,2,Brooklyn,,2000,1965,112,,,Active,,,http://www.redfin.com/NY/Brooklyn/5819-Tilden-Ave-11203/home/40774636,MLSLI,3166765,N,Y,40.6489,-73.9216302
MLS Listing,,Single Family Residential,221-07 130 Ave,Laurelton,NY,11413,675000,4,3,Laurelton,,4000,1945,115,,,Active,,,http://www.redfin.com/NY/Jamaica/221-07-130th-Ave-11413/home/20701055,MLSLI,3166440,N,Y,40.684314,-73.744855
MLS Listing,,Single Family Residential,137-31 170th St,Jamaica,NY,11434,650000,4,3,Jamaica,,4000,1975,115,,,Active,,,http://www.redfin.com/NY/Jamaica/137-31-170th-St-11434/home/20704122,MLSLI,3166410,N,Y,40.671797,-73.769901
MLS Listing,,Multi-Family (2-4 Unit),110-40 175 St,St. Albans,NY,11412,689000,6,5,St. Albans,,4000,1995,115,,,Active,,,http://www.redfin.com/NY/St-Albans/11040-175-St-11412/home/147937077,MLSLI,3166216,N,Y,40.69642,-73.77856
MLS Listing,,Multi-Family (2-4 Unit),692 Remsen Ave,Brooklyn,NY,11236,699000,4,2.75,Brooklyn,1812,2550,1935,116,386,,Active,,,http://www.redfin.com/NY/Brooklyn/692-Remsen-Ave-11236/home/40775253,BNYMLS,433397,N,Y,40.6501261,-73.9174163
MLS Listing,,Single Family Residential,1398 Victory Blvd,Staten  Island,NY,10301,699000,6,2.5,Staten  Island,2548,4200,1970,118,274,,Active,,,http://www.redfin.com/NY/Staten-Island/1398-Victory-Blvd-10301/home/148604854,BNYMLS,433339,N,Y,40.6141208,-74.1101171
MLS Listing,,Single Family Residential,130-60 227th St,Laurelton,NY,11413,679999,4,2.5,Laurelton,,3200,1930,121,,,Active,,,http://www.redfin.com/NY/Jamaica/130-60-227th-St-11413/home/20696989,MLSLI,3164501,N,Y,40.681,-73.741133
MLS Listing,,Multi-Family (2-4 Unit),6938 67th St,Glendale,NY,11385,698000,4,2,Glendale,,2000,1925,122,,,Active,,,http://www.redfin.com/NY/Flushing/69-38-67th-St-11385/home/20881029,MLSLI,3164306,N,Y,40.704645,-73.888077
MLS Listing,,Multi-Family (2-4 Unit),131-04 Sutter Ave,S. Ozone Park,NY,11420,699000,4,2.5,S. Ozone Park,1500,2798,1925,125,466,,Active,,,http://www.redfin.com/NY/Jamaica/131-04-Sutter-Ave-11420/home/20723289,MLSLI,3163244,N,Y,40.672009,-73.807295
MLS Listing,,Single Family Residential,81 Weldon St,Brooklyn,NY,11208,695000,8,4,Brooklyn,,3750,1910,125,,,Active,,,http://www.redfin.com/NY/Brooklyn/81-Weldon-St-11208/home/21457167,MLSLI,3163017,N,Y,40.6802305,-73.8720794
MLS Listing,,Townhouse,511 Academy Ave,Staten Island,NY,10307,699999,4,3,Tottenville,2160,3336,2012,129,324,,Active,,,http://www.redfin.com/NY/Staten-Island/511-Academy-Ave-10307/home/56129421,SIBORMLS,1132031,N,Y,40.5086586,-74.2428186
MLS Listing,,Multi-Family (2-4 Unit),9818 Foster Ave,Brooklyn,NY,11236,679000,5,2,Brooklyn,1940,2300,,131,350,,Active,,,http://www.redfin.com/NY/Brooklyn/9818-Foster-Ave-11236/home/40890430,BNYMLS,432968,N,Y,40.64894,-73.90423
MLS Listing,,Multi-Family (2-4 Unit),205-23 113 Ave,St. Albans,NY,11412,659000,4,2.5,St. Albans,1400,,1940,132,471,,Active,,,http://www.redfin.com/NY/Jamaica/205-23-113th-Ave-11412/home/20739638,MLSLI,3160796,N,Y,40.70295,-73.750049
MLS Listing,,Townhouse,80 Corson Ave,Staten Island,NY,10301,679000,5,3,St. George,1084,2500,1928,136,626,,Active,,,http://www.redfin.com/NY/Staten-Island/80-Corson-Ave-10301/home/56077761,SIBORMLS,1131845,N,Y,40.6377287,-74.081576
MLS Listing,,Multi-Family (2-4 Unit),320 Broadway Cv,Staten  Island,NY,10310,659999,6,3,Staten  Island,2980,3267,,137,221,,Active,,,http://www.redfin.com/NY/Unknown/320-Broadway-10310/home/112253555,BNYMLS,432864,N,Y,40.6334245,-74.1172287
MLS Listing,,Multi-Family (2-4 Unit),3770 Laconia Ave,Bronx,NY,10469,699000,5,2,Bronx,2061,1886,1950,138,339,,Active,,,http://www.redfin.com/NY/The-Bronx/3770-Laconia-Ave-10469/home/44602798,HGMLS,5041642,N,Y,40.879714,-73.851912
MLS Listing,,Townhouse,296 Miles Ave,Staten Island,NY,10308,669000,4,5,Great Kills,1680,3000,1993,139,398,,Active,,,http://www.redfin.com/NY/Staten-Island/296-Miles-Ave-10308/home/56098562,SIBORMLS,1131771,N,Y,40.559541,-74.15187
MLS Listing,,Single Family Residential,15 Eagle Rd,Staten Island,NY,10314,669000,4,3,Westerleigh,2244,4200,1970,140,298,,Active,,,http://www.redfin.com/NY/Staten-Island/15-Eagle-Rd-10314/home/56065442,SIBORMLS,1131746,N,Y,40.618922,-74.1489755
MLS Listing,,Multi-Family (2-4 Unit),615 Beach 66th St,Arverne,NY,11692,670000,6,2,Arverne,,3500,2001,143,,,Active,,,http://www.redfin.com/NY/Far-Rockaway/6-15-Beach-66th-St-11692/home/20667601,MLSLI,3158528,N,Y,40.597458,-73.795933
MLS Listing,,Single Family Residential,123-11 20th Ave,College Point,NY,11356,698888,4,2,College Point,1704,1950,1920,145,410,,Active,,,http://www.redfin.com/NY/Flushing/123-11-20th-Ave-11356/home/20869132,MLSLI,3158047,N,Y,40.7818212,-73.8445214
MLS Listing,,Multi-Family (2-4 Unit),540 Commonwealth Ave,Bronx,NY,10473,664900,5,2,Bronx,2240,2500,1935,145,297,,Active,,,http://www.redfin.com/NY/The-Bronx/540-Commonwealth-Ave-10473/home/44724847,HGMLS,5033014,N,Y,40.8161154,-73.8643384
MLS Listing,,Single Family Residential,107-14 107th Ave,Ozone Park,NY,11417,682000,4,3,Ozone Park,,1900,1935,146,,,Active,,,http://www.redfin.com/NY/Jamaica/107-14-107th-Ave-11417/home/20770932,MLSLI,3157636,N,Y,40.681337,-73.833009
MLS Listing,,Multi-Family (2-4 Unit),3218 Bruner Ave,Bronx,NY,10469,675000,5,2.5,Bronx,2106,1852,1960,149,321,,Active,,,http://www.redfin.com/NY/The-Bronx/3218-Bruner-Ave-10469/home/44780720,MLSLI,3156992,N,Y,40.8753396,-73.8392299
MLS Listing,,Single Family Residential,171 Mountainview Ave,Staten Island,NY,10314,699000,4,2,Manor Heights,1584,4680,1920,151,441,,Active,,,http://www.redfin.com/NY/Staten-Island/171-Mountainview-Ave-10314/home/56050001,SIBORMLS,1131491,N,Y,40.6077536,-74.1259458
MLS Listing,,Single Family Residential,246 Loretto St,Staten Island,NY,10307,699900,4,3,Tottenville,1716,3500,1996,151,408,,Active,,,http://www.redfin.com/NY/Staten-Island/246-Loretto-St-10307/home/56071120,SIBORMLS,1131490,N,Y,40.5048653,-74.239965
MLS Listing,,Multi-Family (2-4 Unit),3014 Gunther Ave,Bronx,NY,10469,699000,5,2,Bronx,1800,,1950,153,388,,Active,,,http://www.redfin.com/NY/The-Bronx/3014-Gunther-Ave-10469/home/44782474,HGMLS,5022279,N,Y,40.871105,-73.839009
MLS Listing,,Multi-Family (2-4 Unit),764 Wortman Ave,Brooklyn,NY,11208,658000,6,4,Brooklyn,2080,1900,2004,154,316,,Active,,,http://www.redfin.com/NY/Brooklyn/764-Wortman-Ave-11208/home/40770557,BNYMLS,432372,N,Y,40.66386,-73.8659045
MLS Listing,,Single Family Residential,97-46 76th St,Ozone Park,NY,11416,695400,5,2,Ozone Park,1800,2000,1925,163,386,,Active,,,http://www.redfin.com/NY/Jamaica/97-46-76th-St-11416/unit-1/home/20785844,MLSLI,3153013,N,Y,40.68021,-73.861912
MLS Listing,,Townhouse,84-16 91 Ave,Woodhaven,NY,11421,697000,5,3,Woodhaven,,1803,1920,164,,,Active,,,http://www.redfin.com/NY/Jamaica/84-16-91st-Ave-11421/home/20783395,MLSLI,3152989,N,Y,40.687436,-73.857598
MLS Listing,,Condo/Co-op,Unit at 66 Adelphi St,Brooklyn,NY,11205,650000,10,4,Fort Greene,,,,168,,,Active,,,http://www.redfin.com/NY/Brooklyn/66-Adelphi-St-11205/home/167983570,REBNY,BOLD112708,N,Y,40.695787,-73.972696
MLS Listing,,Single Family Residential,112 Berry Ave,Staten Island,NY,10312,665000,4,2,Annandale,1771,4725,1977,170,375,,Active,,,http://www.redfin.com/NY/Staten-Island/112-Berry-Ave-10312/home/56036684,SIBORMLS,1130975,N,Y,40.560193,-74.1767265
MLS Listing,,Multi-Family (2-4 Unit),2410 Pacific St,Brooklyn,NY,11233,698999,4,2,Brooklyn,,1369,1910,171,,,Active,,,http://www.redfin.com/NY/Brooklyn/2410-Pacific-St-11233/home/40715679,MLSLI,3150870,N,Y,40.675015,-73.905518
MLS Listing,,Multi-Family (2-4 Unit),690 E 230 St,Bronx,NY,10466,669000,6,2.5,Bronx,2148,,1901,173,311,,Active,January-14-2020 04:00 PM,January-14-2020 06:00 PM,http://www.redfin.com/NY/The-Bronx/690-E-230th-St-10466/home/44742066,HGMLS,5001385,N,Y,40.891321,-73.8591579
MLS Listing,,Multi-Family (2-4 Unit),404 Bradford St,Brooklyn,NY,11207,688000,7,3,E. New York,,2000,1910,175,,,Active,,,http://www.redfin.com/NY/Brooklyn/404-Bradford-St-11207/home/40504754,MLSLI,3149494,N,Y,40.6690154,-73.8914982
MLS Listing,,Single Family Residential,14415 97th Ave,Jamaica,NY,11435,650000,4,2,Jamaica,1700,3300,1925,177,382,,Active,,,http://www.redfin.com/NY/Jamaica/144-15-97th-Ave-11435/home/20758122,MLSLI,3149047,N,Y,40.697057,-73.806958
MLS Listing,,Condo/Co-op,1764 E 19 St Unit 1A,Brooklyn,NY,11229,688000,4,2,Brooklyn,1541,,2006,179,446,,Active,,,http://www.redfin.com/NY/Brooklyn/1764-E-19th-St-11229/unit-1A/home/40671679,BNYMLS,431797,N,Y,40.6070868,-73.954383
MLS Listing,,Single Family Residential,11830 194th St,Jamaica,NY,11412,669999,4,2,St. Albans,,3900,1920,180,,,Active,January-15-2020 11:00 AM,January-15-2020 12:30 PM,http://www.redfin.com/NY/Jamaica/118-30-194th-St-11412/home/20704832,MLSLI,3148235,N,Y,40.690702,-73.757094
MLS Listing,,Multi-Family (2-4 Unit),129-15 144 St,Jamaica,NY,11436,659000,4,2,Jamaica,,2639,1960,181,,,Active,,,http://www.redfin.com/NY/Jamaica/129-15-144th-St-11436/home/20714854,MLSLI,3147625,N,Y,40.671114,-73.794754
MLS Listing,,Multi-Family (2-4 Unit),816 Barbey St,Brooklyn,NY,11207,699000,5,2,Brooklyn,,2000,1915,181,,,Active,,,http://www.redfin.com/NY/Brooklyn/816-Barbey-St-11207/home/40767529,MLSLI,3147623,N,Y,40.6623227,-73.8839773
MLS Listing,,Townhouse,156 Finley Ave,Staten Island,NY,10306,695000,4,3,Oakwood - New Dorp Beach,1386,4000,1925,181,501,,Active,,,http://www.redfin.com/NY/Staten-Island/156-Finley-Ave-10306/home/56064852,SIBORMLS,1130650,N,Y,40.5625015,-74.1048405
MLS Listing,,Single Family Residential,11910 223rd St,Jamaica,NY,11434,679999,5,3,Jamaica,,3900,1935,188,,,Active,,,http://www.redfin.com/NY/Jamaica/119-10-223rd-St-11411/home/20701737,MLSLI,3145584,N,Y,40.690766,-73.739697
MLS Listing,,Single Family Residential,687 Davis Ave,Staten Island,NY,10310,699000,4,2,Sunset Hill,1260,3640,1960,188,555,,Active,,,http://www.redfin.com/NY/Staten-Island/687-Davis-Ave-10310/home/56095731,SIBORMLS,1130479,N,Y,40.6262187,-74.1072974
MLS Listing,,Multi-Family (2-4 Unit),606 Grassmere Ter,Far Rockaway,NY,11691,699000,6,3,Far Rockaway,,3036,1955,189,,,Active,,,http://www.redfin.com/NY/Far-Rockaway/606-Grassmere-Ter-11691/home/20676648,MLSLI,3145223,N,Y,40.600306,-73.758022
MLS Listing,,Multi-Family (2-4 Unit),3350 Perry Ave,Bronx,NY,10467,690000,6,,Bronx,4092,2500,1925,201,169,,Active,,,http://www.redfin.com/NY/The-Bronx/3350-Perry-Ave-10467/home/44804389,HGMLS,4968597,N,Y,40.878298,-73.874275
MLS Listing,,Multi-Family (2-4 Unit),220 Beach 30th St,Far Rockaway,NY,11691,650000,4,2,Far Rockaway,,3800,1920,212,,,Active,,,http://www.redfin.com/NY/Far-Rockaway/220-Beach-30th-St-11691/home/20675171,MLSLI,3138680,N,Y,40.5954006,-73.7626558
MLS Listing,,Multi-Family (2-4 Unit),941 E 49th St,East Flatbush,NY,11203,685000,4,2.5,East Flatbush,,2000,1940,216,,,Active,,,http://www.redfin.com/NY/Brooklyn/941-E-49th-St-11203/home/40776938,MLSLI,3137514,N,Y,40.6383873,-73.9297081
MLS Listing,,Multi-Family (2-4 Unit),6246 Hillmeyer Rd,Arverne,NY,11692,669000,6,3,Arverne,2200,3100,2019,220,304,,Active,,,http://www.redfin.com/NY/Unknown/6246-Hillmeyer-Ave-11692/home/144116971,MLSLI,3136244,N,Y,40.5973778,-73.8016364
MLS Listing,,Multi-Family (2-4 Unit),6252 Hillmeyer Rd,Arverne,NY,11692,679000,6,3,Arverne,2200,3100,2019,220,309,,Active,,,http://www.redfin.com/NY/Queens/6252-Hillmeyer-Ave-11692/home/167053583,MLSLI,3136242,N,Y,40.5974208,-73.801138
MLS Listing,,Multi-Family (2-4 Unit),167-25 142nd Ave,Springfield Gdns,NY,11413,699000,4,2.5,Springfield Gdns,,3017,1930,221,,,Active,,,http://www.redfin.com/NY/Springfield-Gdns/16725-142nd-AVE-11413/home/148007974,MLSLI,3135843,N,Y,40.6679692,-73.7580558
MLS Listing,,Single Family Residential,211 Westervelt Ave,Staten Island,NY,10301,675000,4,4,St. George,3372,6480,1986,250,200,,Active,,,http://www.redfin.com/NY/Staten-Island/211-Westervelt-Ave-10301/home/56108043,SIBORMLS,1128729,N,Y,40.6428613,-74.0834116
MLS Listing,,Single Family Residential,2144 Baylis Ave,Elmont,NY,11003,669100,5,3,Elmont,1800,4000,1956,258,372,,Active,,,http://www.redfin.com/NY/Elmont/2144-Baylis-Ave-11003/home/20471372,MLSLI,3123892,N,Y,40.6995161,-73.7198006
MLS Listing,,Single Family Residential,12512 Nepton St,Springfield Gdns,NY,11413,699999,9,2.5,Springfield Gdns,,4080,1925,258,,,Active,,,http://www.redfin.com/NY/Jamaica/125-12-Nepton-St-11413/home/20699514,MLSLI,3123740,N,Y,40.681984,-73.753641
MLS Listing,,Townhouse,115-58 Marsden St,Jamaica,NY,11434,675000,4,2.5,Jamaica,2522,2522,2003,262,268,,Active,,,http://www.redfin.com/NY/Jamaica/115-58-Marsden-St-11434/home/20588112,MLSLI,3122937,N,Y,40.6863699,-73.782726
MLS Listing,,Multi-Family (2-4 Unit),766 Van Nest Ave,Bronx,NY,10462,699000,5,3,Bronx,2375,,1920,272,294,,Active,,,http://www.redfin.com/NY/The-Bronx/766-Van-Nest-Ave-10462/home/44745223,HGMLS,4922189,N,Y,40.8440878,-73.8630635
MLS Listing,,Single Family Residential,188-03 Ridgedale St,Springfield Gdns,NY,11413,689000,6,3,Springfield Gdns,,4200,1955,291,,,Active,,,http://www.redfin.com/NY/St-Albans/18803-Ridgedale-St-11413/home/20702785,MLSLI,3113496,N,Y,40.68158,-73.753759
MLS Listing,,Multi-Family (2-4 Unit),137-53 234th St,Rosedale,NY,11422,689000,4,2.5,Rosedale,,3142,1910,297,,,Active,,,http://www.redfin.com/NY/Jamaica/137-53-234th-St-11422/home/20691486,MLSLI,3111804,N,Y,40.669777,-73.7387339
MLS Listing,,Single Family Residential,289 St. Mary's Ave,Staten Island,NY,10305,650000,4,3,Rosebank,2236,2500,2017,298,291,,Active,,,http://www.redfin.com/NY/Staten-Island/289-St-Marys-Ave-10305/home/56124214,SIBORMLS,1127230,N,Y,40.6120094,-74.0764363
MLS Listing,,Multi-Family (2-4 Unit),188-68 Se 120th Rd,Jamaica,NY,11412,699900,4,2.5,Jamaica,,2500,1925,353,,,Active,,,http://www.redfin.com/NY/Jamaica/188-68-120th-Rd-11412/home/20704521,MLSLI,3096101,N,Y,40.686417,-73.75855
MLS Listing,,Multi-Family (2-4 Unit),180-03 145th Ave,Springfield Gdns,NY,11413,689000,5,2,Springfield Gdns,1500,1500,2005,354,459,,Active,,,http://www.redfin.com/NY/Springfield-Gdns/18003-145th-Ave-11413/home/154945959,MLSLI,3095951,N,Y,40.66576,-73.7645
MLS Listing,,Multi-Family (2-4 Unit),401 Linwood Ave St,Brooklyn,NY,11208,700000,6,2,Brooklyn,,2500,1901,355,,,Active,,,http://www.redfin.com/NY/Brooklyn/401-Linwood-St-11208/home/40759516,MLSLI,3095628,N,Y,40.6757546,-73.8828633
MLS Listing,,Single Family Residential,131-31 135th Pl,S. Ozone Park,NY,11420,675000,4,3,S. Ozone Park,,2500,1960,356,,,Active,,,http://www.redfin.com/NY/Jamaica/131-31-135th-Pl-11420/home/20716385,MLSLI,3095226,N,Y,40.66953,-73.80234
MLS Listing,,Multi-Family (2-4 Unit),112-29 Dillon St,Jamaica,NY,11433,699000,4,2,Jamaica,,5400,1920,363,,,Active,,,http://www.redfin.com/NY/Jamaica/112-29-Dillon-St-11433/home/20709989,MLSLI,3093299,N,Y,40.689993,-73.788041
MLS Listing,,Single Family Residential,13 Eaton Ct,Brooklyn,NY,11229,679000,4,2,Brooklyn,1120,3600,1920,466,606,,Active,,,http://www.redfin.com/NY/Brooklyn/13-Eaton-Ct-11229/home/40910527,BNYMLS,424134,N,Y,40.586521,-73.9210676
MLS Listing,,Multi-Family (2-4 Unit),57-21 Arverne Blvd,Far Rockaway,NY,11691,699999,6,3,Far Rockaway,,2090,2003,525,,,Active,,,http://www.redfin.com/NY/Far-Rockaway/57-21-Arverne-Blvd-11692/home/20666401,MLSLI,3054912,N,Y,40.5925749,-73.787915
MLS Listing,,Multi-Family (2-4 Unit),643 Baker Ave,Bronx,NY,10460,659000,6,,Bronx,3128,,2003,605,211,,Active,,,http://www.redfin.com/NY/The-Bronx/643-Baker-Ave-10460/home/44789562,HGMLS,4822720,N,Y,40.842383,-73.86572
MLS Listing,,Single Family Residential,291 St. Mary's Ave,Staten Island,NY,10305,650000,4,3,Rosebank,2236,2500,2018,627,291,,Active,,,http://www.redfin.com/NY/Unknown/291-Saint-Marys-Ave-10305/home/145511689,SIBORMLS,1118777,N,Y,40.6119611,-74.0765066
MLS Listing,,Multi-Family (2-4 Unit),182-16 144th Ave,Springfield Gdns,NY,11413,699000,6,3,Springfield Gdns,,4000,1955,832,,,Active,,,http://www.redfin.com/NY/Jamaica/182-16-144th-Ave-11413/home/20691173,MLSLI,2975919,N,Y,40.6675125,-73.7612769
For-Sale-by-Owner Listing,,Multi-Family (2-4 Unit),1754 Lacombe Ave,The Bronx,NY,10473,699000,6,2,Bronx,2745,,1975,38,255,,Active,,,http://www.redfin.com/NY/The-Bronx/1754-Lacombe-Ave-10473/home/44724664,Fizber.com,5039000,N,Y,40.814392,-73.864468
