SALE TYPE,SOLD DATE,PROPERTY TYPE,ADDRESS,CITY,STATE OR PROVINCE,ZIP OR POSTAL CODE,PRICE,BEDS,BATHS,LOCATION,SQUARE FEET,LOT SIZE,YEAR BUILT,DAYS ON MARKET,$/SQUARE FEET,HOA/MONTH,STATUS,NEXT OPEN HOUSE START TIME,NEXT OPEN HOUSE END TIME,URL (SEE http://www.redfin.com/buy-a-home/comparative-market-analysis FOR INFO ON PRICING),SOURCE,MLS#,FAVORITE,INTERESTED,LATITUDE,LONGITUDE
MLS Listing,,Townhouse,136-76 71st Rd,Flushing,NY,11367,710000,2,2,Flushing,,1600,1940,1,,,Active,January-19-2020 01:00 PM,January-19-2020 02:30 PM,http://www.redfin.com/NY/Flushing/136-76-71st-Rd-11367/home/20830034,MLSLI,3191390,N,Y,40.7264047,-73.8246585
MLS Listing,,Condo/Co-op,Unit at 433 W 34th St,New York,NY,10001,740000,1,1,Middle West Side,,,,3,,,Active,,,http://www.redfin.com/NY/New-York/433-W-34th-St-10001/home/45144219,REBNY,UCOM163825,N,Y,40.754253,-73.9978162
MLS Listing,,Condo/Co-op,Unit at 42 -14 Crescent St,Queens,NY,11101,725000,1,1,Long Island City,,,,3,,,Active,,,http://www.redfin.com/NY/Long-Island-City/42-Crescent-St-11101/home/170267402,REBNY,MNSM1865333,N,Y,40.7504388,-73.9407134
MLS Listing,,Condo/Co-op,Unit at 61 Lexington Ave,New York,NY,10010,747500,0,1,Middle East Side,,,,4,,,Active,,,http://www.redfin.com/NY/New-York/61-Lexington-Ave-10010/home/170240643,REBNY,UCOM1865124,N,Y,40.7408555,-73.9835123
MLS Listing,,Condo/Co-op,Unit at 205 Clinton Ave,Brooklyn,NY,11205,700000,2,1,Clinton Hill,,,,4,,,Active,,,http://www.redfin.com/NY/Brooklyn/205-Clinton-Ave-11205/home/40666328,REBNY,CORC5960784,N,Y,40.6917102,-73.968283
MLS Listing,,Condo/Co-op,Unit at 575 Fourth Ave,Brooklyn,NY,11215,715000,1,1,Park Slope,,,,6,,,Active,,,http://www.redfin.com/NY/Brooklyn/575-4th-Ave-11215/home/170226616,REBNY,DEGI3778666,N,Y,40.6655513,-73.9922171
MLS Listing,,Condo/Co-op,2126-2142 Gerritsen Ave #101,Brooklyn,NY,11229,738000,2,2,Brooklyn,1230,,2018,6,600,,Active,January-18-2020 01:00 PM,January-18-2020 03:00 PM,http://www.redfin.com/NY/Unknown/2126-Gerritsen-Ave-11229/unit-101/home/145744971,BNYMLS,435772,N,Y,40.602666,-73.936339
MLS Listing,,Condo/Co-op,Unit at 61 W 62nd St,New York,NY,10023,720000,1,1,Upper West Side,,,,6,,,Active,,,http://www.redfin.com/NY/New-York/61-W-62nd-St-10023/home/45319096,REBNY,CORC5945823,N,Y,40.771079,-73.9827734
MLS Listing,,Single Family Residential,24-16 92nd St,E. Elmhurst,NY,11369,715000,2,2,E. Elmhurst,1536,2142,1939,6,465,,Active,,,http://www.redfin.com/NY/Flushing/24-16-92nd-St-11369/home/20940938,MLSLI,3189980,N,Y,40.765296,-73.87793
MLS Listing,,Condo/Co-op,244 Madison Ave,New York,NY,10016,750000,1,1,Murray Hill Kips Bay,,,,6,,,Active,,,http://www.redfin.com/NY/New-York/244-Madison-Ave-10016/home/45174664,REBNY,SOTH2865946,N,Y,40.7501409,-73.9814937
MLS Listing,,Condo/Co-op,Unit at 100 Beekman St,New York,NY,10038,700000,1,1,Financial District,,,,6,,,Active,,,http://www.redfin.com/NY/New-York/100-Beekman-St-10038/home/170224266,REBNY,ASHW2865522,N,Y,40.7085603,-74.0033972
MLS Listing,,Condo/Co-op,Unit at 333 E 66th St,New York,NY,10065,750000,2,1,Upper East Side,,,,7,,,Active,,,http://www.redfin.com/NY/New-York/333-E-66th-St-10065/home/45229786,REBNY,LLGI2865741,N,Y,40.7644155,-73.95918
MLS Listing,,Condo/Co-op,Unit at 14 Horatio St,New York,NY,10014,715000,0,1,West Village,,,,7,,,Active,,,http://www.redfin.com/NY/New-York/14-Horatio-St-10014/home/45143073,REBNY,SOTH2865712,N,Y,40.7385669,-74.0033414
MLS Listing,,Condo/Co-op,Unit at 245 E 35th St,New York,NY,10016,745000,1,1,Middle East Side,,,,7,,,Active,,,http://www.redfin.com/NY/New-York/245-E-35th-St-10016/home/45147967,REBNY,DEGI4067382,N,Y,40.7458606,-73.9759593
MLS Listing,,Condo/Co-op,Unit at 1270 Fifth Ave,New York,NY,10029,725000,2,1,Upper East Side,,,,7,,,Active,,,http://www.redfin.com/NY/New-York/1270-5th-Ave-10029/home/142102506,REBNY,CORC5949527,N,Y,40.7956049,-73.9496212
MLS Listing,,Condo/Co-op,Unit at 35 -55 76th St,Queens,NY,11372,749000,2,2,Jackson Heights,,,,9,,,Active,,,http://www.redfin.com/NY/Flushing/35-62-76th-St-11372/home/170214237,REBNY,UCOM1365285,N,Y,40.7494545,-73.8901964
MLS Listing,,Condo/Co-op,Unit at 245 E 25th St,New York,NY,10010,745000,1,1,Middle East Side,,,,10,,,Active,,,http://www.redfin.com/NY/New-York/245-E-25th-St-10010/home/45338803,REBNY,CORE2863789,N,Y,40.7395312,-73.980372
MLS Listing,,Condo/Co-op,Unit at 132 Prospect Pl,Brooklyn,NY,11217,725000,2,1,Prospect Heights,,,,11,,,Active,,,http://www.redfin.com/NY/Brooklyn/132-Prospect-Pl-11217/home/170195289,REBNY,UCOM1864095,N,Y,40.6783683,-73.9728075
MLS Listing,,Condo/Co-op,372 Dekalb Ave Unit 2R,Brooklyn,NY,11205,715000,1,1,Clinton Mews,832,,1930,11,859,,Active,,,http://www.redfin.com/NY/Brooklyn/372-Dekalb-Ave-11205/unit-2R/home/40666711,MLSLI,3188608,N,Y,40.6898733,-73.962846
MLS Listing,,Condo/Co-op,Unit at 79 -10 34th Ave,Queens,NY,11372,749000,2,2,Jackson Heights,,,,11,,,Active,,,http://www.redfin.com/NY/Jackson-Heights/79-10-34th-Ave-11372/home/170193275,REBNY,QRES1863956,N,Y,40.7530713,-73.8871598
MLS Listing,,Condo/Co-op,39-16 Prince St Unit 7F,Flushing,NY,11354,738000,1,1,One Fulton Square,543,,2012,14,1359,526,Active,,,http://www.redfin.com/NY/Flushing/39-16-Prince-St-11354/unit-7F/home/92323797,MLSLI,3188192,N,Y,40.7590973,-73.832247
MLS Listing,,Condo/Co-op,Unit at 516 W 47th St,New York,NY,10036,740000,1,1,Middle West Side,,,,18,,,Active,,,http://www.redfin.com/NY/New-York/516-W-47th-St-10036/home/45137315,REBNY,UCOM1790512,N,Y,40.7628785,-73.9940134
MLS Listing,,Condo/Co-op,Unit at 411 E 57th St,New York,NY,10022,700000,1,1,Middle East Side,,,,18,,,Active,,,http://www.redfin.com/NY/New-York/411-E-57th-St-10022/home/170164309,REBNY,CORC5954812,N,Y,40.758033,-73.9624118
MLS Listing,,Condo/Co-op,Unit at 112 W 72nd St,New York,NY,10023,749000,1,1,Upper West Side,,,,18,,,Active,,,http://www.redfin.com/NY/New-York/112-W-72nd-St-10023/home/45269733,REBNY,DEGI4052877,N,Y,40.7773257,-73.9793528
MLS Listing,,Condo/Co-op,Unit at 604 Riverside Dr,New York,NY,10031,749000,2,2,Hamilton Heights,,,,18,,,Active,,,http://www.redfin.com/NY/New-York/604-Riverside-Dr-10031/home/45165090,REBNY,CORC5950041,N,Y,40.8225938,-73.9555908
MLS Listing,,Condo/Co-op,Unit at 246 Spring St,New York,NY,10013,750000,0,1,Soho,,,,21,,,Active,,,http://www.redfin.com/NY/New-York/246-Spring-St-10013/home/45331690,REBNY,BHSR19995299,N,Y,40.7253082,-74.005407
MLS Listing,,Condo/Co-op,84-32 Grand Ave Unit 4B,Elmhurst,NY,11373,729000,2,2,Grandview Condo,927,,2006,24,786,340,Active,,,http://www.redfin.com/NY/Flushing/84-32-Grand-Ave-11373/unit-4B/home/21692890,MLSLI,3187172,N,Y,40.7341169,-73.8827593
MLS Listing,,Single Family Residential,24 Chart Loop,Staten Island,NY,10309,724999,2,3,Charleston,2365,1860,2007,25,307,375,Active,,,http://www.redfin.com/NY/Staten-Island/24-Chart-Loop-10309/home/56114714,SIBORMLS,1134400,N,Y,40.528398,-74.23978
MLS Listing,,Condo/Co-op,4455 Douglas Ave Unit 7F,Bronx,NY,10471,750000,2,2.5,Bronx,1682,,1967,26,446,954,Active,,,http://www.redfin.com/NY/The-Bronx/4455-Douglas-Ave-10471/unit-7F/home/44600238,HGMLS,5127734,N,Y,40.888523,-73.917565
MLS Listing,,Condo/Co-op,Unit at 20 W 72nd St,New York,NY,10023,749000,1,1,Upper West Side,,,,28,,,Active,,,http://www.redfin.com/NY/New-York/20-W-72nd-St-10023/home/108530965,REBNY,UCOM1517669,N,Y,40.7765087,-73.9775392
MLS Listing,,Condo/Co-op,Unit at 23 -15 44th Dr,Queens,NY,11101,741720,0,1,Queens ( Other),,,,29,,,Active,,,http://www.redfin.com/NY/Long-Island-City/23-19-44th-Dr-11101/home/170107325,REBNY,MOSP1862829,N,Y,40.747748,-73.9441779
MLS Listing,,Condo/Co-op,Unit at 2519 35th St,Queens,NY,11103,725000,1,1.5,Astoria,,,,30,,,Active,,,http://www.redfin.com/NY/Long-Island-City/25-19-35th-St-11103/home/45109536,REBNY,DEGI4046698,N,Y,40.768841,-73.915027
MLS Listing,,Condo/Co-op,1251 E 19 St Unit 1B,Brooklyn,NY,11230,735000,2,1.75,Brooklyn,1110,,2019,30,662,,Active,,,http://www.redfin.com/NY/Brooklyn/1251-E-19th-St-11230/unit-1B/home/143796038,BNYMLS,435361,N,Y,40.6200679,-73.9562703
MLS Listing,,Condo/Co-op,65-38 Austin St Unit 6C,Rego Park,NY,11374,725000,2,2,Austin Tower,980,,2018,32,740,337,Active,,,http://www.redfin.com/NY/Rego-Park/65-38-Austin-St-11374/unit-6C/home/146241774,MLSLI,3186007,N,Y,40.7256645,-73.8595984
MLS Listing,,Condo/Co-op,Unit at 9 Barrow St,New York,NY,10014,700000,0,1,Greenwich Village,,,,32,,,Active,,,http://www.redfin.com/NY/New-York/9-Barrow-St-10014/home/63689971,REBNY,UCOM902621,N,Y,40.7326193,-74.0022396
MLS Listing,,Condo/Co-op,Unit at 77 Clarkson Ave,Brooklyn,NY,11226,713000,2,1,Brooklyn,,,,32,,,Active,,,http://www.redfin.com/NY/Brooklyn/77-Clarkson-Ave-11226/home/170068086,REBNY,RENY106669,N,Y,40.655254,-73.95723
MLS Listing,,Townhouse,247-46 87th Dr,Bellerose,NY,11426,710000,2,1.5,Bellerose,896,3325,1940,33,792,,Active,,,http://www.redfin.com/NY/Jamaica/24746-87th-Dr-11426/home/20791562,MLSLI,3185671,N,Y,40.7289312,-73.7180714
MLS Listing,,Condo/Co-op,Unit at 11 Hoyt St,Brooklyn,NY,11201,725000,0,1,Downtown Brooklyn,,,,33,,,Active,,,http://www.redfin.com/NY/Brooklyn/11-Hoyt-St-11201/home/170058039,REBNY,CORC5949225,N,Y,40.6899456,-73.9850466
MLS Listing,,Condo/Co-op,Unit at 11 Hoyt St,Brooklyn,NY,11201,705000,0,1,Downtown Brooklyn,,,,33,,,Active,,,http://www.redfin.com/NY/Brooklyn/11-Hoyt-St-11201/home/170057810,REBNY,CORC5948759,N,Y,40.6899456,-73.9850466
MLS Listing,,Condo/Co-op,Unit at 1330 Fifth Ave,New York,NY,10026,740000,1,1,West Harlem,,,,33,,,Active,,,http://www.redfin.com/NY/New-York/1330-5th-Ave-10026/home/170057586,REBNY,MNSM1862374,N,Y,40.797814,-73.9488864
MLS Listing,,Condo/Co-op,Unit at 213 Halsey St,Brooklyn,NY,11216,739000,2,1,Brooklyn,,,,34,,,Active,,,http://www.redfin.com/NY/Brooklyn/213-Halsey-St-11216/home/170055365,REBNY,CORC5948731,N,Y,40.682607,-73.94472
MLS Listing,,Condo/Co-op,Unit at 1089 Dekalb Ave,Brooklyn,NY,11221,725000,2,2,Bedford Stuyvesant,,,,35,,,Active,,,http://www.redfin.com/NY/Brooklyn/1089-Dekalb-Ave-11221/home/170040243,REBNY,UCOM1862184,N,Y,40.693795,-73.931957
MLS Listing,,Condo/Co-op,Unit at 150 W 51st St,New York,NY,10019,749000,1,1,Middle West Side,,,,35,,,Active,,,http://www.redfin.com/NY/New-York/150-W-51st-St-10019/home/45259392,REBNY,EMPI106619,N,Y,40.7612602,-73.9825875
MLS Listing,,Condo/Co-op,110 Ocean Pkwy Unit 6B,Brooklyn,NY,11218,710000,2,1,Brooklyn,880,,,35,807,,Active,,,http://www.redfin.com/NY/Unknown/110-Ocean-Pkwy-11218/unit-6B/home/113828861,BNYMLS,435251,N,Y,40.6475359,-73.9755189
MLS Listing,,Condo/Co-op,Unit at 245 E 24th St,New York,NY,10010,729000,1,1,Gramercy Park,,,,35,,,Active,,,http://www.redfin.com/NY/New-York/245-E-24th-St-10010/home/45209206,REBNY,CORC5927953,N,Y,40.7388152,-73.9806852
MLS Listing,,Condo/Co-op,Unit at 400 E 90th St,New York,NY,10128,725000,1,1,Upper East Side,,,,38,,,Active,,,http://www.redfin.com/NY/New-York/400-E-90th-St-10128/home/45196284,REBNY,SOTH2823206,N,Y,40.7791831,-73.9472423
MLS Listing,,Condo/Co-op,Unit at 455 Fdr Dr,New York,NY,10002,750000,1,1,Lower East Side,,,,38,,,Active,,,http://www.redfin.com/NY/New-York/455-FDR-Dr-10002/home/55351228,REBNY,LOHO106550,N,Y,40.7128644,-73.9779703
MLS Listing,,Townhouse,141-24A 70th Rd,Kew Garden Hills,NY,11367,705000,2,2,Kew Garden Hills,,1700,1945,38,,,Active,,,http://www.redfin.com/NY/Flushing/141-24-70th-Rd-11367/home/20826685,MLSLI,3184693,N,Y,40.728141,-73.82372
MLS Listing,,Condo/Co-op,113-14 72 Rd Unit BB,Forest Hills,NY,11375,710000,2,2,Nathan Hale,,,1941,39,,,Active,,,http://www.redfin.com/NY/Flushing/113-14-72nd-Rd-11375/unit-BB/home/20629900,MLSLI,3184562,N,Y,40.7211788,-73.8363453
MLS Listing,,Condo/Co-op,Unit at 221 W 21st St,New York,NY,10011,738000,1,1,Chelsea,,,,41,,,Active,,,http://www.redfin.com/NY/New-York/221-W-21st-St-10011/home/169954267,REBNY,MANR395634,N,Y,40.7434377,-73.9975339
MLS Listing,,Condo/Co-op,Unit at 721 Flushing Ave,Brooklyn,NY,11206,739000,2,2,Williamsburg,,,,41,,,Active,,,http://www.redfin.com/NY/Brooklyn/721-Flushing-Ave-11206/home/40676851,REBNY,LGFG106312,N,Y,40.7006722,-73.9436564
MLS Listing,,Condo/Co-op,Unit at 420 E 55th St,New York,NY,10022,750000,1,1,Middle East Side,,,,41,,,Active,,,http://www.redfin.com/NY/New-York/420-E-55th-St-10022/home/45209224,REBNY,HALS19976598,N,Y,40.7562471,-73.9625705
MLS Listing,,Condo/Co-op,Unit at 420 64th St,Brooklyn,NY,11220,700000,2,2,Sunset Park,,,,42,,,Active,,,http://www.redfin.com/NY/Brooklyn/420-64th-St-11220/home/40810385,REBNY,KWNY238643,N,Y,40.6379289,-74.0201431
MLS Listing,,Condo/Co-op,Unit at 111 E 85th St,New York,NY,10028,700000,1,1.5,Upper East Side,,,,42,,,Active,,,http://www.redfin.com/NY/New-York/111-E-85th-St-10028/home/166898316,REBNY,BHSR19968862,N,Y,40.7794706,-73.9567159
MLS Listing,,Condo/Co-op,Unit at 245 E 24th St,New York,NY,10010,700000,1,1,Middle East Side,,,,47,,,Active,,,http://www.redfin.com/NY/New-York/245-E-24th-St-10010/home/45147083,REBNY,UCOM1051262,N,Y,40.7388152,-73.9806852
MLS Listing,,Condo/Co-op,Unit at 1160 Third Ave,New York,NY,10021,725000,2,1,Upper East Side,,,,47,,,Active,,,http://www.redfin.com/NY/New-York/1160-3rd-Ave-10065/home/45230282,REBNY,DEGI4034661,N,Y,40.7671346,-73.9629075
MLS Listing,,Condo/Co-op,Unit at 24 -51 38th St,Queens,NY,11103,749000,2,1,Astoria,,,,48,,,Active,,,http://www.redfin.com/NY/Long-Island-City/24-56-38th-St-11103/home/169951453,REBNY,CORC5941932,N,Y,40.7682962,-73.9127791
MLS Listing,,Condo/Co-op,42-47 Union St Unit 6A,Flushing,NY,11355,709000,2,2,Garden Condominiums,870,3500,2007,52,815,400,Active,,,http://www.redfin.com/NY/Flushing/42-47-Union-St-11355/unit-6A/home/20623967,MLSLI,3182321,N,Y,40.7568989,-73.8239405
MLS Listing,,Condo/Co-op,62-54 97th Pl,Rego Park,NY,11374,750000,0,1,The Summit,1500,,1988,52,500,2001,Active,,,http://www.redfin.com/NY/Rego-Park/62-54-97th-Pl-11374/home/20665460,MLSLI,3182307,N,Y,40.7330184,-73.8613454
MLS Listing,,Condo/Co-op,Unit at 320 Riverside Dr,New York,NY,10025,749000,1,1,Upper West Side,,,,53,,,Active,,,http://www.redfin.com/NY/New-York/320-Riverside-Dr-10025/home/45204955,REBNY,CORC5936825,N,Y,40.8009374,-73.9706919
MLS Listing,,Condo/Co-op,Unit at 77 Bleecker St,New York,NY,10012,749000,1,1,Central Village,,,,53,,,Active,,,http://www.redfin.com/NY/New-York/77-Bleecker-St-10012/home/102005297,REBNY,DEGI4028998,N,Y,40.726966,-73.9960934
MLS Listing,,Condo/Co-op,Unit at 1325 Herkimer St,Brooklyn,NY,11233,750000,2,2,Brooklyn,,,,54,,,Active,,,http://www.redfin.com/NY/Brooklyn/1325-Herkimer-St-11233/home/169906651,REBNY,KWNY238371,N,Y,40.6776279,-73.9093901
MLS Listing,,Condo/Co-op,Unit at 1325 Herkimer St,Brooklyn,NY,11233,749000,1,1.5,Brooklyn,,,,54,,,Active,,,http://www.redfin.com/NY/Brooklyn/1325-Herkimer-St-11233/home/168628898,REBNY,KWNY238367,N,Y,40.6776279,-73.9093901
MLS Listing,,Condo/Co-op,Unit at 439 E 88th St,New York,NY,10128,725000,2,1,Upper East Side,,,,54,,,Active,,,http://www.redfin.com/NY/New-York/439-E-88th-St-10128/home/45163045,REBNY,BHSR19922668,N,Y,40.7777159,-73.9469577
MLS Listing,,Condo/Co-op,Unit at 310 E 46th St,New York,NY,10017,750000,0,1,Middle East Side,,,,54,,,Active,,,http://www.redfin.com/NY/New-York/310-E-46th-St-10017/home/169899270,REBNY,DEGI4025904,N,Y,40.7520278,-73.9698349
MLS Listing,,Condo/Co-op,Unit at 26 Oliver St,Brooklyn,NY,11209,745000,2,2,Bay Ridge,,,,55,,,Active,,,http://www.redfin.com/NY/Brooklyn/26-Oliver-St-11209/home/40651717,REBNY,CORC5937778,N,Y,40.6193296,-74.0389255
MLS Listing,,Condo/Co-op,Unit at 88 Bleecker St,New York,NY,10011,749000,1,1,Greenwich Village,,,,55,,,Active,,,http://www.redfin.com/NY/New-York/88-Bleecker-St-10012/home/45334755,REBNY,STRI1859798,N,Y,40.7266914,-73.9965334
MLS Listing,,Condo/Co-op,144-42 35th Ave Unit 2D,Flushing,NY,11354,725700,2,2,N/A,778,,2019,58,933,362,Active,,,http://www.redfin.com/NY/Flushing/144-42-35th-Ave-11354/unit-2D/home/169861108,MLSLI,3181061,N,Y,40.765692,-73.822057
MLS Listing,,Condo/Co-op,Unit at 150 W 56th St,New York,NY,10019,728000,0,1,Middle West Side,,,,59,,,Active,,,http://www.redfin.com/NY/New-York/150-156-W-56th-St-10019/home/45259841,REBNY,UCOM381225,N,Y,40.7642467,-73.9797507
MLS Listing,,Condo/Co-op,Unit at 522 W End Ave,New York,NY,10024,725000,1,1,Upper West Side,,,,60,,,Active,,,http://www.redfin.com/NY/New-York/522-W-End-Ave-10024/home/45179477,REBNY,TRIP1859228,N,Y,40.788291,-73.977864
MLS Listing,,Condo/Co-op,Unit at 190 E 72nd St,New York,NY,10021,750000,2,2,Upper East Side,,,,60,,,Active,,,http://www.redfin.com/NY/New-York/190-E-72nd-St-10021/home/45157169,REBNY,CORC5936098,N,Y,40.7698703,-73.9611404
MLS Listing,,Condo/Co-op,Unit at 301 E 75th St,New York,NY,10021,729000,1,1,Upper East Side,,,,60,,,Active,,,http://www.redfin.com/NY/New-York/301-E-75th-St-10021/home/45335556,REBNY,HALS19958455,N,Y,40.7707681,-73.9564898
MLS Listing,,Condo/Co-op,Unit at 2322 Adam C Powell Blvd,New York,NY,10030,750000,2,1,Harlem,,,,60,,,Active,,,http://www.redfin.com/NY/New-York/2322-Adam-Clayton-Powell-Junior-Blvd-10030/home/169801618,REBNY,DEGI4022819,N,Y,40.8163897,-73.9433768
MLS Listing,,Condo/Co-op,Unit at 34 -38 81st St,Queens,NY,11372,750000,2,1,Jackson Heights,,,,60,,,Active,,,http://www.redfin.com/NY/Jackson-Heights/34-49-81st-St-11372/home/169795147,REBNY,UCOM1859073,N,Y,40.7519576,-73.8853236
MLS Listing,,Condo/Co-op,Unit at 529 W 42nd St,New York,NY,10036,724950,0,1,Middle West Side,,,,61,,,Active,,,http://www.redfin.com/NY/New-York/529-W-42nd-St-10036/home/53324433,REBNY,DEGI4021766,N,Y,40.7604875,-73.996837
MLS Listing,,Condo/Co-op,Unit at 310 Lexington Ave,New York,NY,10016,735000,1,1,Murray Hill Kips Bay,,,,62,,,Active,,,http://www.redfin.com/NY/New-York/310-Lexington-Ave-10016/home/45147009,REBNY,SOTH2816313,N,Y,40.7487581,-73.9782786
MLS Listing,,Condo/Co-op,Unit at 2903 Frederick Douglass B,New York,NY,10039,712000,1,1,Harlem,,,,62,,,Active,,,http://www.redfin.com/NY/New-York/2903-Frederick-Douglass-Blvd-10039/home/169782160,REBNY,CORC5934432,N,Y,40.828345,-73.938304
MLS Listing,,Condo/Co-op,Unit at 53 W 11th St,New York,NY,10011,739000,1,1,Greenwich Village,,,,62,,,Active,,,http://www.redfin.com/NY/New-York/53-W-11th-St-10011/home/105886483,REBNY,UCOM35176,N,Y,40.7351433,-73.9970382
MLS Listing,,Single Family Residential,,Brooklyn,NY,11234,749000,2,2.25,,2040,1700,1940,62,367,,Active,,,http://www.redfin.com/NY/Brooklyn/Undisclosed-address-11204/home/110033012,BNYMLS,434694,N,Y,40.6195067,-73.9859414
MLS Listing,,Condo/Co-op,Unit at 475 Washington Ave,Brooklyn,NY,11238,748000,2,1,Clinton Hill,,,,62,,,Active,,,http://www.redfin.com/NY/Brooklyn/475-Washington-Ave-11238/home/169770970,REBNY,UCOM1857785,N,Y,40.6844237,-73.964688
MLS Listing,,Multi-Family (2-4 Unit),3848 Maple Ave,Brooklyn,NY,11224,750000,2,4.25,Brooklyn,2009,3000,1930,64,373,,Active,,,http://www.redfin.com/NY/Brooklyn/3848-Maple-Ave-11224/home/40850747,BNYMLS,434656,N,Y,40.5789421,-74.0078633
MLS Listing,,Condo/Co-op,41-25 Kissena Blvd Unit 4TT,Flushing,NY,11355,749000,2,1,The Park Regent Condomin,1004,91600,1960,66,746,702,Active,,,http://www.redfin.com/NY/Flushing/4125-Kissena-Blvd-11355/unit-4TT/home/20850824,MLSLI,3179323,N,Y,40.7583504,-73.8283123
MLS Listing,,Condo/Co-op,Unit at 26 W 97th St,New York,NY,10025,749000,1,1,Upper West Side,,,,66,,,Active,,,http://www.redfin.com/NY/New-York/26-W-97th-St-10025/home/45301053,REBNY,HALS19951806,N,Y,40.7925204,-73.9651754
MLS Listing,,Condo/Co-op,Unit at 142 E 16th St,New York,NY,10003,750000,1,1,Gramercy Park,,,,66,,,Active,,,http://www.redfin.com/NY/New-York/142-E-16th-St-10003/home/53450892,REBNY,DEGI4017344,N,Y,40.7347075,-73.9868826
MLS Listing,,Condo/Co-op,Unit at 92 Prospect Park W,Brooklyn,NY,11215,700000,1,1,Park Slope,,,,67,,,Active,,,http://www.redfin.com/NY/Brooklyn/92-Prospect-Park-W-11215/home/40680728,REBNY,HALS19901031,N,Y,40.667267,-73.975015
MLS Listing,,Condo/Co-op,Unit at 61 Martense St,Brooklyn,NY,11226,740000,2,1,Flatbush,,,,67,,,Active,,,http://www.redfin.com/NY/Unknown/61-Martense-St-11226/home/147154831,REBNY,CHRS2814409,N,Y,40.6515638,-73.9570602
MLS Listing,,Condo/Co-op,Unit at 420 W 47th St,New York,NY,10036,735000,1,1,Middle West Side,,,,67,,,Active,,,http://www.redfin.com/NY/New-York/420-W-47th-St-10036/home/169730346,REBNY,SOTH2814436,N,Y,40.7618632,-73.9913428
MLS Listing,,Single Family Residential,126-10 6th Ave,College Point,NY,11356,715000,2,2,College Point,,2500,1955,67,,,Active,,,http://www.redfin.com/NY/Flushing/126-10-6th-Ave-11356/home/20875542,MLSLI,3178887,N,Y,40.7913039,-73.841362
MLS Listing,,Condo/Co-op,Unit at 1065 Park Ave,New York,NY,10128,729000,1,1,Upper East Side,,,,67,,,Active,,,http://www.redfin.com/NY/New-York/1065-Park-Ave-10128/home/45335238,REBNY,ASHW2813787,N,Y,40.7808776,-73.9563026
MLS Listing,,Condo/Co-op,Unit at 515 E 85th St,New York,NY,10028,700000,1,1,Upper East Side,,,,68,,,Active,,,http://www.redfin.com/NY/New-York/515-E-85th-St-10028/home/169726898,REBNY,STRI1857992,N,Y,40.7751023,-73.9468888
MLS Listing,,Condo/Co-op,Unit at 376 Broadway,New York,NY,10013,725000,0,1,Tribeca,,,,68,,,Active,,,http://www.redfin.com/NY/New-York/376-Broadway-10013/home/45237994,REBNY,RUTE1857832,N,Y,40.7177053,-74.002883
MLS Listing,,Condo/Co-op,Unit at 303 W 66th St,New York,NY,10023,750000,2,1,Upper West Side,,,,68,,,Active,,,http://www.redfin.com/NY/New-York/303-W-66th-St-10023/home/45150987,REBNY,UCOM1857955,N,Y,40.7761564,-73.9871839
MLS Listing,,Condo/Co-op,8707 19th Ave Unit 3D,Brooklyn,NY,11214,735000,2,2,Brooklyn,1133,,2019,68,649,,Active,January-19-2020 01:00 PM,January-19-2020 03:00 PM,http://www.redfin.com/NY/Brooklyn/8707-19th-Ave-11214/unit-3D/home/169666502,BNYMLS,434571,N,Y,40.6038491,-74.0026354
MLS Listing,,Condo/Co-op,Unit at 185 Prospect Park SW,Brooklyn,NY,11218,750000,2,1,Windsor Terrace,,,,68,,,Active,,,http://www.redfin.com/NY/Brooklyn/185-Prospect-Park-SW-11218/home/169665378,REBNY,DEGI4013978,N,Y,40.6533312,-73.973309
MLS Listing,,Condo/Co-op,Unit at 2 S End Ave,New York,NY,10280,725000,2,1,Battery Park City,,,,68,,,Active,,,http://www.redfin.com/NY/New-York/2-S-End-Ave-10280/home/45236779,REBNY,CORC5926150,N,Y,40.7078381,-74.0174577
MLS Listing,,Condo/Co-op,Unit at 167 E 67th St,New York,NY,10065,725000,1,1,Upper East Side,,,,69,,,Active,,,http://www.redfin.com/NY/New-York/167-E-67th-St-10065/home/45182041,REBNY,SOTH2813434,N,Y,40.7668244,-73.9633087
MLS Listing,,Condo/Co-op,Unit at 171 Concord St,Brooklyn,NY,11201,749000,1,1,Brooklyn,,,,69,,,Active,,,http://www.redfin.com/NY/Brooklyn/171-Concord-St-11201/home/169650048,REBNY,UCOM1857589,N,Y,40.6977683,-73.9843688
MLS Listing,,Condo/Co-op,Unit at 363 E 76th St,New York,NY,10021,724500,1,1,Upper East Side,,,,70,,,Active,,,http://www.redfin.com/NY/New-York/363-E-76th-St-10021/home/45159108,REBNY,DEGI4007105,N,Y,40.7707568,-73.9545556
MLS Listing,,Condo/Co-op,132-29 Blossom Ave Unit 4G,Flushing,NY,11355,718000,2,2,-,850,,2009,70,845,245,Active,,,http://www.redfin.com/NY/Flushing/132-29-Blossom-Ave-11355/unit-4G/home/45112274,MLSLI,3177909,N,Y,40.7521539,-73.8312005
MLS Listing,,Condo/Co-op,Unit at 235 E 22nd St,New York,NY,10010,745000,1,1,Gramercy Park,,,,70,,,Active,,,http://www.redfin.com/NY/New-York/235-E-22nd-St-10010/home/169646490,REBNY,UCOM1857402,N,Y,40.7376713,-73.9816456
MLS Listing,,Condo/Co-op,Unit at 155 W 126th St,New York,NY,10027,749000,1,1.5,Harlem,,,,70,,,Active,,,http://www.redfin.com/NY/New-York/155-W-126th-St-10027/home/108581007,REBNY,HALS19930279,N,Y,40.809443,-73.94675
MLS Listing,,Condo/Co-op,Unit at 530 E 90th St,New York,NY,10128,725000,2,1,Upper East Side,,,,71,,,Active,,,http://www.redfin.com/NY/New-York/530-E-90th-St-10128/home/105887612,REBNY,UCOM64789,N,Y,40.7777474,-73.9439269
MLS Listing,,Condo/Co-op,Unit at 300 W 23rd St,New York,NY,10011,749000,1,1,Chelsea,,,,73,,,Active,,,http://www.redfin.com/NY/New-York/300-W-23rd-St-10011/home/45144767,REBNY,UCOM146234,N,Y,40.7452401,-73.9989464
MLS Listing,,Condo/Co-op,1830 Bath Ave #101,Brooklyn,NY,11214,748000,2,2.5,Brooklyn,1595,,2007,73,469,,Active,January-19-2020 12:00 PM,January-19-2020 02:00 PM,http://www.redfin.com/NY/Brooklyn/1830-Bath-Ave-11214/unit-101/home/167040210,BNYMLS,434462,N,Y,40.6030788,-74.0052919
MLS Listing,,Condo/Co-op,Unit at 160 Columbia Hts,Brooklyn,NY,11201,749000,1,1,Brooklyn Heights,,,,74,,,Active,,,http://www.redfin.com/NY/Unknown/160-Columbia-Hts-11201/home/147794728,REBNY,BHSR19923600,N,Y,40.6982243,-73.9966387
MLS Listing,,Condo/Co-op,Unit at 850 Metropolitan Ave,Brooklyn,NY,11211,715000,1,1,East Williamsburg,,,,74,,,Active,,,http://www.redfin.com/NY/Brooklyn/850-Metropolitan-Ave-11211/home/169625774,REBNY,RENY105143,N,Y,40.7144391,-73.94085
MLS Listing,,Condo/Co-op,Unit at 4 -74 48th Ave,Queens,NY,11109,729000,2,2,Long Island City,,,,75,,,Active,,,http://www.redfin.com/NY/Long-Island-City/4-47-48th-Ave-11109/home/167228679,REBNY,SEEK1856721,N,Y,40.7446166,-73.9570912
MLS Listing,,Condo/Co-op,Unit at 220 Congress St,Brooklyn,NY,11201,725000,1,1,Cobble Hill,,,,75,,,Active,,,http://www.redfin.com/NY/Brooklyn/220-Congress-St-11201/home/143866666,REBNY,BOND1604673,N,Y,40.687871,-73.994454
MLS Listing,,Condo/Co-op,,Flushing,NY,11354,719000,2,2,Main Street Plaz,833,,1987,76,863,460,Active,,,http://www.redfin.com/NY/Flushing/Undisclosed-address-11355/home/20854945,MLSLI,3176517,N,Y,40.7570768,-73.8296428
MLS Listing,,Townhouse,50-32 185th St,Fresh Meadows,NY,11365,708888,2,2,Fresh Meadows,1200,2500,1950,76,591,,Active,,,http://www.redfin.com/NY/Flushing/50-32-185th-St-11365/home/20845518,MLSLI,3176293,N,Y,40.744007,-73.791528
MLS Listing,,Condo/Co-op,Unit at 377 Rector Pl,New York,NY,10280,745000,1,1,Battery Park City,,,,77,,,Active,,,http://www.redfin.com/NY/New-York/377-Rector-Pl-10280/home/45235120,REBNY,UCOM1497317,N,Y,40.709744,-74.0177676
MLS Listing,,Condo/Co-op,144-77 Roosevelt Ave,Flushing,NY,11354,718800,2,1.5,Wisteria Plaza,1110,,1983,77,648,444,Active,,,http://www.redfin.com/NY/Flushing/144-77-Roosevelt-Ave-11354/home/20665424,MLSLI,3176097,N,Y,40.7628229,-73.8195292
MLS Listing,,Condo/Co-op,Unit at 350 Cabrini Blvd,New York,NY,10040,729000,2,1.5,Washington Heights,,,,77,,,Active,,,http://www.redfin.com/NY/New-York/350-Cabrini-Blvd-10040/home/53327585,REBNY,HALS19925520,N,Y,40.856711,-73.93755
MLS Listing,,Condo/Co-op,Unit at 83 -10 35th Ave,Queens,NY,11373,740000,2,1,Jackson Heights,,,,77,,,Active,,,http://www.redfin.com/NY/Queens/83-10-35th-AVE-11373/home/169585520,REBNY,UCOM1856294,N,Y,40.737975,-73.8801301
MLS Listing,,Condo/Co-op,109-09 15 Ave Unit S403,College Point,NY,11356,716210,1,1,Waterfront Resort Inc.,779,,2019,78,919,338,Active,,,http://www.redfin.com/NY/College-Point/10909-15th-Ave-11356/unit-S403/home/169584629,MLSLI,3175898,N,Y,40.7841619,-73.8570221
MLS Listing,,Condo/Co-op,Unit at 33 W 67th St,New York,NY,10023,700000,1,1,Upper West Side,,,,79,,,Active,,,http://www.redfin.com/NY/New-York/33-W-67th-St-10023/home/169583718,REBNY,UCOM1856222,N,Y,40.7739157,-73.9799267
MLS Listing,,Condo/Co-op,35-08 146 St Unit 11C,Flushing,NY,11354,733800,2,2,35-02 Development Llc,,,2019,79,,382,Active,,,http://www.redfin.com/NY/Flushing/35-08-146th-St-11354/unit-11C/home/169582865,MLSLI,3175737,N,Y,40.7658289,-73.821138
MLS Listing,,Condo/Co-op,Unit at 87 Barrow St,New York,NY,10014,700000,1,1,West Village,,,,79,,,Active,,,http://www.redfin.com/NY/New-York/87-Barrow-St-10014/home/45166826,REBNY,CORC5921844,N,Y,40.7315443,-74.0063334
MLS Listing,,Condo/Co-op,Unit at 88 Prospect Park W,Brooklyn,NY,11215,700000,1,1,Park Slope,,,,80,,,Active,,,http://www.redfin.com/NY/Brooklyn/88-Prospect-Park-W-11215/home/40921294,REBNY,UCOM890738,N,Y,40.6675334,-73.9747843
MLS Listing,,Condo/Co-op,Unit at 118 E 60th St,New York,NY,10022,745000,1,1,Upper East Side,,,,80,,,Active,,,http://www.redfin.com/NY/New-York/118-E-60th-St-10022/home/45156741,REBNY,DEGI3980285,N,Y,40.7629068,-73.9686349
MLS Listing,,Townhouse,1489 Saint Johns Pl,Brooklyn,NY,11213,700000,1,1,Brooklyn,,1635,1920,81,,,Active,,,http://www.redfin.com/NY/Brooklyn/1489-Saint-Johns-Pl-11213/home/169553048,MLSLI,3175266,N,Y,40.6707968,-73.928693
MLS Listing,,Condo/Co-op,209-45 26th Ave #1,Bayside,NY,11360,735000,2,2,Bay Terrace,1200,,1982,81,613,591,Active,,,http://www.redfin.com/NY/Flushing/209-45-26th-Ave-11360/unit-1/home/170003077,MLSLI,3175222,N,Y,40.7775688,-73.7807696
MLS Listing,,Single Family Residential,1122 Banner Ave,Brooklyn,NY,11235,749000,2,2.5,Brooklyn,,1400,1920,82,,,Active,,,http://www.redfin.com/NY/Brooklyn/1122-Banner-Ave-11235/home/39516141,MLSLI,3175097,N,Y,40.5834582,-73.9582341
MLS Listing,,Condo/Co-op,Unit at 288 Fifth Ave,Brooklyn,NY,11215,750000,2,1,Park Slope,,,,82,,,Active,,,http://www.redfin.com/NY/Brooklyn/288-5th-Ave-11215/home/40648167,REBNY,CORC5898114,N,Y,40.673949,-73.982648
MLS Listing,,Condo/Co-op,35-08 146 St Unit 12C,Flushing,NY,11354,746800,2,2,35-02 Development Llc,,,2019,82,,382,Active,,,http://www.redfin.com/NY/Flushing/35-08-146th-St-11354/unit-12C/home/169525646,MLSLI,3174946,N,Y,40.7658289,-73.821138
MLS Listing,,Condo/Co-op,143-28 41 Ave Unit 7C,Flushing,NY,11355,750000,2,2,Stern 88 Condo,,,2016,82,,435,Active,,,http://www.redfin.com/NY/Flushing/143-28-41st-Ave-11355/unit-7C/home/144212636,MLSLI,3174945,N,Y,40.759914,-73.822716
MLS Listing,,Condo/Co-op,Unit at 130 E 18th St,New York,NY,10003,749000,1,1,Gramercy Park,,,,82,,,Active,,,http://www.redfin.com/NY/New-York/130-E-18th-St-10003/home/45203032,REBNY,BHSR19916978,N,Y,40.7361064,-73.9865382
MLS Listing,,Single Family Residential,76-22 57th Rd,Middle Village,NY,11379,729000,2,1,Middle Village,,3000,1920,83,,,Active,,,http://www.redfin.com/NY/Flushing/76-22-57th-Rd-11379/home/20905981,MLSLI,3174561,N,Y,40.727113,-73.883694
MLS Listing,,Condo/Co-op,Unit at 169 W 73rd St,New York,NY,10023,749000,1,1,Upper West Side,,,,87,,,Active,,,http://www.redfin.com/NY/New-York/169-W-73rd-St-10023/home/45150095,REBNY,DIGS141081,N,Y,40.7790953,-73.9804584
MLS Listing,,Condo/Co-op,206-10 Emily Rd Unit 40M,Bayside,NY,11360,749000,2,2,Baybridge  Condo 1,,,1982,88,,525,Active,,,http://www.redfin.com/NY/Bayside/206-10-Emily-Rd-11360/unit-40M/home/169451457,MLSLI,3173479,N,Y,40.7881865,-73.7874819
MLS Listing,,Condo/Co-op,Unit at 10 Nevins St,Brooklyn,NY,11217,700000,0,1,Downtown Brooklyn,,,,89,,,Active,,,http://www.redfin.com/NY/Brooklyn/10-Nevins-St-11217/home/169440766,REBNY,HALS19099137,N,Y,40.6885353,-73.9813632
MLS Listing,,Condo/Co-op,Unit at 61 E 77th St,New York,NY,10075,750000,1,2,Upper East Side,,,,89,,,Active,,,http://www.redfin.com/NY/New-York/61-E-77th-St-10075/home/45337886,REBNY,UCOM28047,N,Y,40.7749467,-73.9622031
MLS Listing,,Condo/Co-op,Unit at 343 E 74th St,New York,NY,10021,715000,1,1,Upper East Side,,,,90,,,Active,,,http://www.redfin.com/NY/New-York/343-E-74th-St-10021/home/45182923,REBNY,NEXT14546389,N,Y,40.7696861,-73.9557104
MLS Listing,,Condo/Co-op,Unit at 30 W 90th St,New York,NY,10024,725000,1,1,Upper West Side,,,,91,,,Active,,,http://www.redfin.com/NY/New-York/30-W-90th-St-10024/home/45273124,REBNY,DEGI3992437,N,Y,40.7882901,-73.9690333
MLS Listing,,Condo/Co-op,Unit at 342 W 56th St,New York,NY,10019,739000,1,1,Middle West Side,,,,91,,,Active,,,http://www.redfin.com/NY/New-York/342-W-56th-St-10019/home/147902155,REBNY,DEGI3987921,N,Y,40.7666821,-73.9853674
MLS Listing,,Condo/Co-op,Unit at 1 Irving Pl,New York,NY,10003,750000,0,1,Gramercy Park,,,,91,,,Active,,,http://www.redfin.com/NY/New-York/1-Irving-Pl-10003/home/45252880,REBNY,UCOM1854331,N,Y,40.7349087,-73.9891288
MLS Listing,,Condo/Co-op,109-19 72nd Rd Unit PHD,Forest Hills,NY,11375,729000,1,1,The Sunrise,705,,2018,93,1034,362,Active,,,http://www.redfin.com/NY/Forest-Hills/10919-72nd-Rd-11375/unit-PHD/home/169408433,MLSLI,3172337,N,Y,40.7195461,-73.8414054
MLS Listing,,Condo/Co-op,Unit at 16 W 16th St,New York,NY,10011,750000,1,1,Flatiron,,,,94,,,Active,,,http://www.redfin.com/NY/New-York/16-W-16th-St-10011/home/45145094,REBNY,DEGI3988963,N,Y,40.737402,-73.99318
MLS Listing,,Condo/Co-op,Unit at 470 W 24th St,New York,NY,10011,749000,1,1,Chelsea,,,,94,,,Active,,,http://www.redfin.com/NY/New-York/470-W-24th-St-10011/home/130601798,REBNY,CORE2798759,N,Y,40.7480707,-74.0034535
MLS Listing,,Condo/Co-op,Unit at 88 Bleecker St,New York,NY,10011,729000,1,1,Greenwich Village,,,,95,,,Active,,,http://www.redfin.com/NY/New-York/88-Bleecker-St-10012/home/53324657,REBNY,UCOM1214780,N,Y,40.7266914,-73.9965334
MLS Listing,,Condo/Co-op,Unit at 150 W 51st St,New York,NY,10019,750000,1,1,Middle West Side,,,,95,,,Active,,,http://www.redfin.com/NY/New-York/150-W-51st-St-10019/home/45259137,REBNY,EMPI104246,N,Y,40.7612602,-73.9825875
MLS Listing,,Condo/Co-op,Unit at 201 E 25th St,New York,NY,10010,719000,1,1,Gramercy Park,,,,95,,,Active,,,http://www.redfin.com/NY/New-York/201-E-25th-St-10010/home/45147831,REBNY,DEGI3987899,N,Y,40.740113,-73.9818255
MLS Listing,,Condo/Co-op,Unit at 333 E 53rd St,New York,NY,10022,715000,1,1,Middle East Side,,,,95,,,Active,,,http://www.redfin.com/NY/New-York/333-E-53rd-St-10022/home/45180971,REBNY,SOTH2798846,N,Y,40.7563215,-73.9656283
MLS Listing,,Condo/Co-op,Unit at 201 E 66th St,New York,NY,10021,719000,1,1,Upper East Side,,,,95,,,Active,,,http://www.redfin.com/NY/New-York/201-E-66th-St-10065/home/169387460,REBNY,DEGI3984581,N,Y,40.7660538,-73.9629079
MLS Listing,,Single Family Residential,2157 E 28 St,Brooklyn,NY,11229,738000,2,1.25,Brooklyn,1524,1600,1940,96,484,,Active,,,http://www.redfin.com/NY/Brooklyn/2157-E-28th-St-11229/home/40862999,BNYMLS,433933,N,Y,40.598833,-73.9432549
MLS Listing,,Condo/Co-op,Unit at 140 Seventh Ave,New York,NY,10011,725000,1,1,Chelsea,,,,97,,,Active,,,http://www.redfin.com/NY/New-York/140-7th-Ave-10011/home/45249652,REBNY,CORC5903240,N,Y,40.7414861,-73.9979592
MLS Listing,,Townhouse,198-09 Jamaica Ave,Jamaica,NY,11423,748000,2,1.5,Jamaica,,1920,1931,97,,,Active,,,http://www.redfin.com/NY/Jamaica/198-09-Jamaica-Ave-11423/home/169304758,MLSLI,3171212,N,Y,40.713683,-73.760739
MLS Listing,,Condo/Co-op,Unit at 32 Gramercy Park S,New York,NY,10010,749000,1,1,Gramercy Park,,,,97,,,Active,,,http://www.redfin.com/NY/New-York/32-Gramercy-Park-S-10003/home/166835892,REBNY,EVNY19617713,N,Y,40.7369454,-73.9848904
MLS Listing,,Condo/Co-op,Unit at 420 E 51st St,New York,NY,10022,725000,2,2.5,Middle East Side,,,,102,,,Active,,,http://www.redfin.com/NY/New-York/420-E-51st-St-10022/home/169265815,REBNY,ASHW2780709,N,Y,40.7540391,-73.9651308
MLS Listing,,Condo/Co-op,Unit at 33 Greenwich Ave,New York,NY,10014,749000,0,1,Greenwich Village,,,,102,,,Active,,,http://www.redfin.com/NY/New-York/33-Greenwich-Ave-10014/home/45318971,REBNY,UCOM744689,N,Y,40.7348852,-74.0003402
MLS Listing,,Townhouse,23-25 96th St,E. Elmhurst,NY,11369,700000,2,1.5,E. Elmhurst,1485,1710,1946,103,471,,Active,,,http://www.redfin.com/NY/Flushing/23-25-96th-St-11369/home/20944128,MLSLI,3169486,N,Y,40.767513,-73.8738259
MLS Listing,,Condo/Co-op,Unit at 105 W 73rd St,New York,NY,10023,749000,1,1,Upper West Side,,,,103,,,Active,,,http://www.redfin.com/NY/New-York/105-W-73rd-St-10023/home/45167953,REBNY,DEGI3976848,N,Y,40.7784493,-73.9785723
MLS Listing,,Single Family Residential,164 Avenue V,Brooklyn,NY,11223,749000,2,1.75,Brooklyn,904,2333,1930,104,829,,Active,,,http://www.redfin.com/NY/Brooklyn/164-Avenue-V-11223/home/40855544,BNYMLS,433721,N,Y,40.594034,-73.977849
MLS Listing,,Multi-Family (2-4 Unit),53-98 63rd St,Maspeth,NY,11378,750000,2,3,Maspeth,,2000,1940,104,,,Active,,,http://www.redfin.com/NY/Flushing/53-98-63rd-St-11378/home/20911189,MLSLI,3168893,N,Y,40.729067,-73.903155
MLS Listing,,Condo/Co-op,Unit at 333 E 53rd St,New York,NY,10022,720000,1,1,Middle East Side,,,,108,,,Active,,,http://www.redfin.com/NY/New-York/333-E-53rd-St-10022/home/45154762,REBNY,CLIC16756,N,Y,40.7563215,-73.9656283
MLS Listing,,Condo/Co-op,Unit at 77 Seventh Ave,New York,NY,10011,729000,0,1,Chelsea,,,,109,,,Active,,,http://www.redfin.com/NY/New-York/77-7th-Ave-10011/home/45144871,REBNY,UCOM362878,N,Y,40.7387517,-73.9990764
MLS Listing,,Condo/Co-op,140-32 Cherry Ave Unit 6D,Flushing,NY,11355,739000,2,2,Union Garden Condo,,,2009,109,,275,Active,,,http://www.redfin.com/NY/Flushing/140-32-Cherry-Ave-11355/unit-6D/home/28685955,MLSLI,3167892,N,Y,40.7543944,-73.821624
MLS Listing,,Townhouse,268 Fieldston Ter,Bronx,NY,10471,749000,2,3,Bronx,2360,1533,2008,110,317,,Active,,,http://www.redfin.com/NY/The-Bronx/268-Fieldston-Ter-10471/home/44606896,HGMLS,5079624,N,Y,40.8958161,-73.8990306
MLS Listing,,Condo/Co-op,Unit at 231 W 21st St,New York,NY,10011,725000,1,1,Chelsea,,,,110,,,Active,,,http://www.redfin.com/NY/New-York/231-W-21st-St-10011/home/169203005,REBNY,SOTH2770888,N,Y,40.7436167,-73.9979002
MLS Listing,,Condo/Co-op,144-38 35 Ave Unit 3D,Flushing,NY,11354,741400,2,2,N/A,778,,2019,111,953,362,Active,,,http://www.redfin.com/NY/Flushing/144-38-35th-Ave-11354/unit-3D/home/169199749,MLSLI,3167335,N,Y,40.765856,-73.8221593
MLS Listing,,Condo/Co-op,144-38 35 Ave Unit 2A,Flushing,NY,11354,733200,1,1,N/A,816,,2019,111,899,379,Active,,,http://www.redfin.com/NY/Flushing/144-38-35th-Ave-11354/unit-2A/home/169199740,MLSLI,3167333,N,Y,40.765856,-73.8221593
MLS Listing,,Condo/Co-op,Unit at 30 Rutgers St,New York,NY,10002,740000,1,1,Lower East Side,,,,111,,,Active,,,http://www.redfin.com/NY/New-York/30-Rutgers-St-10002/home/45220891,REBNY,UCOM1850873,N,Y,40.712919,-73.9902744
MLS Listing,,Condo/Co-op,Unit at 172 Stuyvesant Ave,Brooklyn,NY,11221,730000,2,1,Bedford Stuyvesant,,,,112,,,Active,,,http://www.redfin.com/NY/Brooklyn/172-Stuyvesant-Ave-11221/home/40720543,REBNY,DEGI3960304,N,Y,40.6894886,-73.9336227
MLS Listing,,Multi-Family (2-4 Unit),1358 Findlay Ave,Bronx,NY,10456,750000,0,,Bronx,2950,2182,2004,112,254,,Active,,,http://www.redfin.com/NY/The-Bronx/1358-Findlay-Ave-10456/home/44716377,HGMLS,5075101,N,Y,40.8366517,-73.9096886
MLS Listing,,Condo/Co-op,90 Gold St Unit 13 M,Manhattan,NY,10038,728000,1,1,Southbridge Towers,,,1971,115,,,Active,,,http://www.redfin.com/NY/New-York/90-Gold-St-10038/unit-13M/home/147152937,MLSLI,3166394,N,Y,40.709837,-74.0038923
MLS Listing,,Condo/Co-op,Unit at 1 Wall Street Ct,New York,NY,10005,749000,1,1,Financial District,,,,115,,,Active,,,http://www.redfin.com/NY/New-York/1-Wall-St-10005/home/166953558,REBNY,UCOM1098928,N,Y,40.707491,-74.0116385
MLS Listing,,Condo/Co-op,Unit at 301 E 48th St,New York,NY,10017,735000,1,1,Middle East Side,,,,115,,,Active,,,http://www.redfin.com/NY/New-York/301-E-48th-St-10017/home/45181039,REBNY,UCOM1807045,N,Y,40.7536937,-73.969019
MLS Listing,,Condo/Co-op,3111 Ocean Pkwy Unit 9D,Brooklyn,NY,11235,749900,2,1.75,Brooklyn,921,,1988,115,814,,Active,,,http://www.redfin.com/NY/Brooklyn/3111-Ocean-Pkwy-11235/unit-9D/home/40907011,BNYMLS,433447,N,Y,40.5752502,-73.9680347
MLS Listing,,Condo/Co-op,Unit at 45 Tudor City Pl,New York,NY,10017,725000,1,2,Murray Hill Kips Bay,,,,117,,,Active,,,http://www.redfin.com/NY/New-York/45-Tudor-City-Pl-10017/home/45180948,REBNY,UCOM1849916,N,Y,40.7489931,-73.97025
MLS Listing,,Condo/Co-op,Unit at 549 W 123rd St,New York,NY,10027,745000,2,1,Morningside Heights,,,,117,,,Active,,,http://www.redfin.com/NY/New-York/549-W-123rd-St-10027/home/169108484,REBNY,FSRN103242,N,Y,40.8123315,-73.9598646
MLS Listing,,Condo/Co-op,14118 Cherry Ave Unit 4G,Flushing,NY,11355,729000,2,2,Cherry Manor,753,,2013,117,968,291,Active,,,http://www.redfin.com/NY/Flushing/141-18-Cherry-Ave-11355/unit-4G/home/59308173,MLSLI,3165550,N,Y,40.7547791,-73.8210707
MLS Listing,,Townhouse,24-36 92nd St,E. Elmhurst,NY,11369,749000,2,1,E. Elmhurst,,2142,1950,118,,,Active,,,http://www.redfin.com/NY/Flushing/24-36-92nd-St-11369/home/20943205,MLSLI,3165292,N,Y,40.764712,-73.877832
MLS Listing,,Condo/Co-op,Unit at 308 E 79th St,New York,NY,10021,715000,1,1,Upper East Side,,,,118,,,Active,,,http://www.redfin.com/NY/New-York/308-E-79th-St-10075/home/45159330,REBNY,DEGI3957279,N,Y,40.7729185,-73.9545596
MLS Listing,,Condo/Co-op,Unit at 227 E 87th St,New York,NY,10128,750000,2,2,Upper East Side,,,,118,,,Active,,,http://www.redfin.com/NY/New-York/227-E-87th-St-10128/home/45187145,REBNY,HALS19840165,N,Y,40.7791922,-73.9522501
MLS Listing,,Condo/Co-op,Unit at 225 Rector Pl,New York,NY,10280,715000,1,1,Battery Park City,,,,119,,,Active,,,http://www.redfin.com/NY/New-York/225-Rector-Pl-10280/home/45217934,REBNY,KIAN524200,N,Y,40.7093441,-74.016035
MLS Listing,,Condo/Co-op,Unit at 205 E 72nd St,New York,NY,10021,749000,1,1,Upper East Side,,,,122,,,Active,,,http://www.redfin.com/NY/New-York/205-E-72nd-St-10021/home/169055721,REBNY,UCOM1849041,N,Y,40.7696659,-73.9600708
MLS Listing,,Condo/Co-op,Unit at 1325 Fifth Ave,New York,NY,10029,735000,1,1,East Harlem,,,,122,,,Active,,,http://www.redfin.com/NY/New-York/1325-5th-Ave-10029/home/169055084,REBNY,MNSM1848980,N,Y,40.7975552,-73.9481517
MLS Listing,,Condo/Co-op,Unit at 2351 Adam Clayton Powell,New York,NY,10030,750000,1,1,Harlem,,,,122,,,Active,,,http://www.redfin.com/NY/New-York/2351-Adam-Clayton-Powell-Junior-Blvd-10030/home/169051684,REBNY,HALS18648154,N,Y,40.8168816,-73.9419981
MLS Listing,,Condo/Co-op,Unit at 96 Schermerhorn St,Brooklyn,NY,11201,735000,1,1,Brooklyn Heights,,,,123,,,Active,,,http://www.redfin.com/NY/Brooklyn/96-Schermerhorn-St-11201/home/169042189,REBNY,UCOM1848741,N,Y,40.6902106,-73.9902159
MLS Listing,,Condo/Co-op,Unit at 111 Montgomery St,Brooklyn,NY,11215,741000,1,1,Crown Heights,,,,123,,,Active,,,http://www.redfin.com/NY/Brooklyn/111-Montgomery-St-11225/home/169042186,REBNY,UCOM1848724,N,Y,40.6665414,-73.9606286
MLS Listing,,Condo/Co-op,Unit at 651 Vanderbilt St,Brooklyn,NY,11218,729000,2,1,Windsor Terrace,,,,123,,,Active,,,http://www.redfin.com/NY/Brooklyn/651-Vanderbilt-St-11218/home/169042180,REBNY,CORE2767063,N,Y,40.654461,-73.9744629
MLS Listing,,Condo/Co-op,Unit at 75 Henry St,Brooklyn,NY,11201,735000,1,1,Brooklyn Heights,,,,123,,,Active,,,http://www.redfin.com/NY/Brooklyn/75-Henry-St-11201/home/169038228,REBNY,BHSR19838443,N,Y,40.698683,-73.991871
MLS Listing,,Condo/Co-op,Unit at 440 E 79th St,New York,NY,10075,700000,1,1,Upper East Side,,,,123,,,Active,,,http://www.redfin.com/NY/New-York/440-E-79th-St-10075/home/139913086,REBNY,UCOM1676629,N,Y,40.7715364,-73.9513203
MLS Listing,,Condo/Co-op,Unit at 305 E 40th St,New York,NY,10016,725000,1,1,Murray Hill Kips Bay,,,,124,,,Active,,,http://www.redfin.com/NY/New-York/305-E-40th-St-10017/home/45228784,REBNY,UCOM236804,N,Y,40.7484797,-73.9724922
MLS Listing,,Condo/Co-op,Unit at 99 E 4th St,New York,NY,10003,725000,1,1,East Village,,,,125,,,Active,,,http://www.redfin.com/NY/New-York/99-E-4th-St-10003/home/168966831,REBNY,DEGI3942914,N,Y,40.7260455,-73.9885583
MLS Listing,,Condo/Co-op,144-77 Barclay Ave #7,Flushing,NY,11355,750000,2,2,The Beacon At Barclay,,,2009,125,,396,Active,,,http://www.redfin.com/NY/Flushing/144-77-Barclay-Ave-11355/unit-7/home/169197300,MLSLI,3163015,N,Y,40.7606431,-73.8184493
MLS Listing,,Condo/Co-op,Unit at 301 E 69th St,New York,NY,10021,725000,1,1,Upper East Side,,,,127,,,Active,,,http://www.redfin.com/NY/New-York/301-E-69th-St-10021/home/168947069,REBNY,MONT1368,N,Y,40.766825,-73.959278
MLS Listing,,Condo/Co-op,Unit at 779 Riverside Dr,New York,NY,10032,745000,2,1,Washington Heights,,,,128,,,Active,,,http://www.redfin.com/NY/New-York/779-Riverside-Dr-10032/home/45228840,REBNY,MAZY634522,N,Y,40.8352542,-73.9476006
MLS Listing,,Condo/Co-op,Unit at 211 E 18th St,New York,NY,10003,725000,1,1,Gramercy Park,,,,129,,,Active,,,http://www.redfin.com/NY/New-York/211-E-18th-St-10003/home/45147429,REBNY,CORC5878027,N,Y,40.7354659,-73.9841568
MLS Listing,,Condo/Co-op,Unit at 10 Lenox Ave,New York,NY,10026,725000,0,1,Harlem,,,,129,,,Active,,,http://www.redfin.com/NY/New-York/10-Malcolm-X-Blvd-10026/home/168935129,REBNY,HALS19473661,N,Y,40.7985277,-73.9517335
MLS Listing,,Condo/Co-op,137-10 Franklin Ave #309,Flushing,NY,11355,739999,2,1,Franklin Tower,1020,,1958,129,725,468,Active,,,http://www.redfin.com/NY/Flushing/13710-Franklin-Ave-11355/unit-309/home/20850731,MLSLI,3162249,N,Y,40.7543368,-73.8265041
MLS Listing,,Condo/Co-op,Unit at 43 E 10th St,New York,NY,10003,740000,0,1,Greenwich Village,,,,131,,,Active,,,http://www.redfin.com/NY/New-York/43-E-10th-St-10003/home/45142125,REBNY,SOTH2762715,N,Y,40.7323908,-73.9924201
MLS Listing,,Vacant Land,72-74 Harris Ln,Staten Island,NY,10309,740000,0,,Rossville,,11764,,132,,,Active,,,http://www.redfin.com/NY/Staten-Island/7274-Harris-Ln-10309/home/168867577,SIBORMLS,1131912,N,Y,40.542657,-74.220791
MLS Listing,,Condo/Co-op,Unit at 45 Sutton Pl S,New York,NY,10022,725000,1,1.5,Middle East Side,,,,132,,,Active,,,http://www.redfin.com/NY/New-York/45-Sutton-Pl-S-10022/home/168867109,REBNY,SOTH2423090,N,Y,40.7556274,-73.9614685
MLS Listing,,Condo/Co-op,Unit at 510 E 84th St,New York,NY,10028,750000,2,2,Upper East Side,,,,132,,,Active,,,http://www.redfin.com/NY/New-York/510-E-84th-St-10028/home/168867091,REBNY,BHSR19652879,N,Y,40.7741421,-73.9473251
MLS Listing,,Condo/Co-op,Unit at 67 E 11th St,New York,NY,10003,729000,1,1,Greenwich Village,,,,136,,,Active,,,http://www.redfin.com/NY/New-York/67-E-11th-St-10003/home/45142075,REBNY,UCOM351649,N,Y,40.7330515,-73.9923312
MLS Listing,,Condo/Co-op,Unit at 10 Christopher St,New York,NY,10014,749000,0,1,Greenwich Village,,,,138,,,Active,,,http://www.redfin.com/NY/New-York/10-Christopher-St-10014/home/45212608,REBNY,UCOM633161,N,Y,40.7337776,-74.0001966
MLS Listing,,Condo/Co-op,Unit at 352 W 117th St,New York,NY,10026,710000,1,1,West Harlem,,,,139,,,Active,,,http://www.redfin.com/NY/New-York/352-W-117th-St-10026/home/45306785,REBNY,KNIG1845398,N,Y,40.8057917,-73.9568536
MLS Listing,,Condo/Co-op,Unit at 21 -26 45th Rd,Queens,NY,11101,745000,0,1.5,Long Island City,,,,140,,,Active,,,http://www.redfin.com/NY/Long-Island-City/21-17-45th-Rd-11101/home/148129977,REBNY,MOSP1845229,N,Y,40.74675,-73.947161
MLS Listing,,Condo/Co-op,Unit at 345 W 58th St,New York,NY,10019,725000,0,1,Upper West Side,,,,143,,,Active,,,http://www.redfin.com/NY/New-York/345-W-58th-St-10019/home/45148557,REBNY,CORC5873073,N,Y,40.7686521,-73.9844412
MLS Listing,,Condo/Co-op,Unit at 464 W 44th St,New York,NY,10036,715000,1,1,Middle West Side,,,,144,,,Active,,,http://www.redfin.com/NY/New-York/464-W-44th-St-10036/home/45206284,REBNY,UCOM400537,N,Y,40.7606792,-73.9941959
MLS Listing,,Condo/Co-op,25-40 38th St Unit 3B,Astoria,NY,11103,714000,1,1,"25-40/44 Astoria, Llc",640,,2015,145,1116,392,Active,,,http://www.redfin.com/NY/Long-Island-City/25-40-38th-St-11103/unit-3B/home/66024564,MLSLI,3157877,N,Y,40.7673838,-73.9134403
MLS Listing,,Condo/Co-op,Unit at 205 W 57th St,New York,NY,10019,745000,1,1,Middle West Side,,,,146,,,Active,,,http://www.redfin.com/NY/New-York/205-W-57th-St-10019/home/146127732,REBNY,SOTH1431760,N,Y,40.7660057,-73.9805351
MLS Listing,,Condo/Co-op,63-60 102 St Unit A22,Rego Park,NY,11374,748000,2,1,New Hampshire House,1160,,1949,147,645,513,Active,,,http://www.redfin.com/NY/Flushing/6360-102nd-St-11374/unit-A22/home/20911568,MLSLI,3157356,N,Y,40.7319691,-73.8541569
MLS Listing,,Townhouse,2831 Batchelder St,Brooklyn,NY,11235,740888,2,1,Sheepshead Bay,2240,2600,1920,147,331,,Active,,,http://www.redfin.com/NY/Brooklyn/2831-Batchelder-St-11235/home/40909467,SIBORMLS,1131584,N,Y,40.5846405,-73.9358239
MLS Listing,,Condo/Co-op,Unit at 60 Sutton Pl S,New York,NY,10022,715000,1,1,Middle East Side,,,,150,,,Active,,,http://www.redfin.com/NY/New-York/60-Sutton-Pl-S-10022/home/168676268,REBNY,CORC5838408,N,Y,40.7553429,-73.9627752
MLS Listing,,Condo/Co-op,Unit at 215 E 81st St,New York,NY,10028,749000,1,1.5,Upper East Side,,,,151,,,Active,,,http://www.redfin.com/NY/New-York/215-E-81st-St-10028/home/45207198,REBNY,BHSR19800544,N,Y,40.7754688,-73.9554301
MLS Listing,,Condo/Co-op,Unit at 16 W 16th St,New York,NY,10011,745000,1,1,Flatiron,,,,152,,,Active,,,http://www.redfin.com/NY/New-York/16-W-16th-St-10011/home/45145086,REBNY,DEGI3911881,N,Y,40.737402,-73.99318
MLS Listing,,Condo/Co-op,Unit at 160 E 38th St,New York,NY,10016,720000,1,1,Murray Hill Kips Bay,,,,152,,,Active,,,http://www.redfin.com/NY/New-York/160-E-38th-St-10016/home/45337742,REBNY,RUTE1843101,N,Y,40.7481485,-73.9768734
MLS Listing,,Condo/Co-op,Unit at 245 E 93rd St,New York,NY,10128,749000,1,1,Upper East Side,,,,153,,,Active,,,http://www.redfin.com/NY/New-York/245-E-93rd-St-10128/home/45293851,REBNY,NYLS92681,N,Y,40.7828524,-73.9486347
MLS Listing,,Condo/Co-op,133 Beach 116th St Unit 4D,Rockaway Park,NY,11694,715000,2,2,One Sixteen,1210,,2019,155,591,,Active,,,http://www.redfin.com/NY/Unknown/133-B-116th-St-11694/unit-4D/home/146986191,MLSLI,3155139,N,Y,40.5785259,-73.836798
MLS Listing,,Condo/Co-op,Unit at 210 W 78th St,New York,NY,10024,749000,1,1,Upper West Side,,,,158,,,Active,,,http://www.redfin.com/NY/New-York/210-W-78th-St-10024/home/45337903,REBNY,UCOM1066373,N,Y,40.7825596,-73.9795365
MLS Listing,,Condo/Co-op,Unit at 111 Fourth Ave,New York,NY,10003,735000,0,1,Greenwich Village,,,,159,,,Active,,,http://www.redfin.com/NY/New-York/111-4th-Ave-10003/home/115152511,REBNY,HALS19789805,N,Y,40.7324137,-73.9898402
MLS Listing,,Condo/Co-op,Unit at 301 E 48th St,New York,NY,10017,725000,1,1,Middle East Side,,,,160,,,Active,,,http://www.redfin.com/NY/New-York/301-E-48th-St-10017/home/45328214,REBNY,CORC5845921,N,Y,40.7536937,-73.969019
MLS Listing,,Condo/Co-op,Unit at 160 E 27th St,New York,NY,10016,700000,1,1,Middle East Side,,,,162,,,Active,,,http://www.redfin.com/NY/New-York/160-E-27th-St-10016/home/45175527,REBNY,UCOM1729745,N,Y,40.7414318,-73.9817405
MLS Listing,,Condo/Co-op,635 W 42nd St Unit 8C,New York,NY,10036,750000,1,1,New York,696,,2007,165,1078,,Active,,,http://www.redfin.com/NY/New-York/635-W-42nd-St-10036/unit-8C/home/45191880,HGMLS,5009866,N,Y,40.7617008,-73.9996228
MLS Listing,,Condo/Co-op,Unit at 150 W 56th St,New York,NY,10019,750000,0,1,Middle West Side,,,,166,,,Active,,,http://www.redfin.com/NY/New-York/150-W-56th-St-10019/home/45259938,REBNY,DYNA96067,N,Y,40.7642467,-73.9797507
MLS Listing,,Condo/Co-op,Unit at 2 Horatio St,New York,NY,10014,724000,0,1,West Village,,,,177,,,Active,,,http://www.redfin.com/NY/New-York/2-Horatio-St-10014/home/167713585,REBNY,BARL27732,N,Y,40.7385473,-74.0026807
MLS Listing,,Condo/Co-op,Unit at 60 E 9th St,New York,NY,10003,749000,1,1,Central Village,,,,178,,,Active,,,http://www.redfin.com/NY/New-York/60-E-9th-St-10003/home/45172830,REBNY,DEGI3880118,N,Y,40.7310966,-73.9926682
MLS Listing,,Condo/Co-op,Unit at 1330 Fifth Ave,New York,NY,10026,740000,1,1,West Harlem,,,,181,,,Active,,,http://www.redfin.com/NY/New-York/1330-5th-Ave-10026/home/167463054,REBNY,MNSM1837651,N,Y,40.797814,-73.9488864
MLS Listing,,Condo/Co-op,Unit at 205 E 78th St,New York,NY,10075,745000,1,1,Upper East Side,,,,181,,,Active,,,http://www.redfin.com/NY/New-York/205-E-78th-St-10075/home/45182229,REBNY,STRI257418,N,Y,40.7736038,-73.9573268
MLS Listing,,Condo/Co-op,Unit at 108 E 37th St,New York,NY,10016,715000,1,1,Murray Hill Kips Bay,,,,181,,,Active,,,http://www.redfin.com/NY/New-York/108-E-37th-St-10016/home/145282717,REBNY,STRI1744374,N,Y,40.7485326,-73.9793069
MLS Listing,,Condo/Co-op,1727 Stillwell Ave Unit A,Brooklyn,NY,11223,735000,2,2.5,Brooklyn,1489,,2008,182,494,,Active,,,http://www.redfin.com/NY/Brooklyn/1727-Stillwell-Ave-11223/unit-A/home/40924836,BNYMLS,431696,N,Y,40.6043091,-73.9866714
MLS Listing,,Condo/Co-op,Unit at 865 First Ave,New York,NY,10017,750000,1,1,Middle East Side,,,,185,,,Active,,,http://www.redfin.com/NY/New-York/865-United-Nations-Plz-10017/home/45207496,REBNY,DOMU1836916,N,Y,40.7530177,-73.9671004
MLS Listing,,Condo/Co-op,Unit at 35 E 85th St,New York,NY,10028,750000,1,1,Upper East Side,,,,187,,,Active,,,http://www.redfin.com/NY/New-York/35-E-85th-St-10028/home/163754187,REBNY,UCOM1836401,N,Y,40.780204,-73.958779
MLS Listing,,Condo/Co-op,37-20 Prince St Unit 7F,Flushing,NY,11354,718000,2,1,Downtown Flushing,731,,2008,189,982,298,Active,,,http://www.redfin.com/NY/Flushing/37-20-Prince-St-11354/unit-7F/home/50217085,MLSLI,3145133,N,Y,40.7602126,-73.8330397
MLS Listing,,Condo/Co-op,Unit at 229 9th St,Brooklyn,NY,11215,730000,1,1,Gowanus,,,,195,,,Active,,,http://www.redfin.com/NY/Brooklyn/229-9th-St-11215/home/167168327,REBNY,HALS19677358,N,Y,40.6708143,-73.9891208
MLS Listing,,Condo/Co-op,Unit at 1175 York Ave,New York,NY,10065,749000,2,1,Upper East Side,,,,195,,,Active,,,http://www.redfin.com/NY/New-York/1175-York-Ave-10065/home/167168321,REBNY,HALS19706602,N,Y,40.7616739,-73.9577816
MLS Listing,,Condo/Co-op,42-42 Union St Unit PHB,Flushing,NY,11355,739500,2,1,Union Terrace Asso,,,1985,203,,272,Active,,,http://www.redfin.com/NY/Flushing/42-42-Union-St-11355/unit-PHB/home/167129413,MLSLI,3141479,N,Y,40.7566585,-73.8243684
MLS Listing,,Condo/Co-op,Unit at 109 -19 72nd Rd,Queens,NY,11375,729000,1,1,Forest Hills,,,,205,,,Active,,,http://www.redfin.com/NY/Forest-Hills/109-01-72nd-Rd-11375/home/167124255,REBNY,DEGI3845935,N,Y,40.7192783,-73.8417086
MLS Listing,,Condo/Co-op,Unit at 20 E 88th St,New York,NY,10128,720000,1,1,Upper East Side,,,,207,,,Active,,,http://www.redfin.com/NY/New-York/20-E-88th-St-10128/home/167117638,REBNY,CORC5771804,N,Y,40.7821875,-73.9584608
MLS Listing,,Condo/Co-op,Unit at 65 Nassau St,New York,NY,10038,735000,2,1,Financial District,,,,208,,,Active,,,http://www.redfin.com/NY/New-York/65-Nassau-St-10038/home/59312949,REBNY,POLJ69620,N,Y,40.7094819,-74.0086895
MLS Listing,,Condo/Co-op,Unit at 55 Liberty St,New York,NY,10005,719000,1,1,Lower Manhattan,,,,209,,,Active,,,http://www.redfin.com/NY/New-York/55-Liberty-St-10005/home/167106941,REBNY,BHSR19618584,N,Y,40.7088048,-74.009407
MLS Listing,,Condo/Co-op,13235 Sanford Ave Unit 1P,Flushing,NY,11355,708000,1,1,Condo Conversion,867,50000,1960,210,817,430,Active,,,http://www.redfin.com/NY/Flushing/132-35A-Sanford-Ave-11355/unit-1P/home/92323892,MLSLI,3139204,N,Y,40.7552979,-73.8319807
MLS Listing,,Condo/Co-op,Unit at 203 W 87th St,New York,NY,10024,749000,2,1,Upper West Side,,,,213,,,Active,,,http://www.redfin.com/NY/New-York/203-W-87th-St-10024/home/45152284,REBNY,CCRE392933,N,Y,40.7885114,-73.9744995
MLS Listing,,Condo/Co-op,Unit at 2025 Broadway,New York,NY,10023,735000,1,1,Upper West Side,,,,216,,,Active,,,http://www.redfin.com/NY/New-York/2025-Broadway-10023/home/114911485,REBNY,UCOM1168064,N,Y,40.7770746,-73.9824749
MLS Listing,,Condo/Co-op,116-11 Curzon Rd Unit 6F,Kew Gardens,NY,11415,735000,2,2,Metrofalls,988,,2010,216,744,467,Active,,,http://www.redfin.com/NY/Jamaica/116-11-Curzon-Rd-11418/unit-6F/home/40221217,MLSLI,3137402,N,Y,40.705073,-73.835612
MLS Listing,,Condo/Co-op,Unit at 1330 Fifth Ave,New York,NY,10026,730000,1,1,West Harlem,,,,217,,,Active,,,http://www.redfin.com/NY/New-York/1330-5th-Ave-10026/home/167076276,REBNY,MNSM1829494,N,Y,40.797814,-73.9488864
MLS Listing,,Condo/Co-op,Unit at 255 E 49th St,New York,NY,10017,725000,0,1,Middle East Side,,,,217,,,Active,,,http://www.redfin.com/NY/New-York/255-E-49th-St-10017/home/45279881,REBNY,DEGI3824248,N,Y,40.7545645,-73.969234
MLS Listing,,Condo/Co-op,Unit at 392 Central Park W,New York,NY,10025,735000,0,1,Upper West Side,,,,217,,,Active,,,http://www.redfin.com/NY/New-York/392-Central-Park-W-10025/home/45302023,REBNY,CCRI1828810,N,Y,40.7945469,-73.9649582
MLS Listing,,Condo/Co-op,Unit at 36 Sutton Pl S,New York,NY,10022,729000,1,1,Middle East Side,,,,220,,,Active,,,http://www.redfin.com/NY/New-York/36-Sutton-Pl-S-10022/home/167052254,REBNY,BHSR19669578,N,Y,40.7563196,-73.9618588
MLS Listing,,Condo/Co-op,Unit at 7 Lexington Ave,New York,NY,10010,735000,0,1,Gramercy Park,,,,232,,,Active,,,http://www.redfin.com/NY/New-York/7-Lexington-Ave-10010/home/166854694,REBNY,NEWL19643371,N,Y,40.7385907,-73.9851379
MLS Listing,,Condo/Co-op,Unit at 350 W 57th St,New York,NY,10019,729000,0,1,Middle West Side,,,,234,,,Active,,,http://www.redfin.com/NY/New-York/350-W-57th-St-10019/home/45262701,REBNY,DEGI3805180,N,Y,40.767514,-73.9852421
MLS Listing,,Condo/Co-op,Unit at 360 E 72nd St,New York,NY,10021,735000,0,1,Upper East Side,,,,234,,,Active,,,http://www.redfin.com/NY/New-York/360-E-72nd-St-10021/home/166831195,REBNY,RUTE1824568,N,Y,40.767784,-73.956509
MLS Listing,,Condo/Co-op,Unit at 353 W 47th St,New York,NY,10036,725000,2,1,Middle West Side,,,,234,,,Active,,,http://www.redfin.com/NY/New-York/353-W-47th-St-10036/home/166831194,REBNY,DEGI3778364,N,Y,40.7615527,-73.9896881
MLS Listing,,Condo/Co-op,Unit at 300 E 64th St,New York,NY,10021,715000,0,1,Upper East Side,,,,234,,,Active,,,http://www.redfin.com/NY/New-York/300-E-64th-St-10065/home/108582360,REBNY,DEGI3789956,N,Y,40.7634372,-73.961718
MLS Listing,,Condo/Co-op,Unit at 41 Jane St,New York,NY,10014,750000,1,1,West Village,,,,234,,,Active,,,http://www.redfin.com/NY/New-York/41-Jane-St-10014/home/45338934,REBNY,TRIP1824755,N,Y,40.7383084,-74.0046097
MLS Listing,,Condo/Co-op,Unit at 10 E End Ave,New York,NY,10075,739000,1,1,Upper East Side,,,,241,,,Active,,,http://www.redfin.com/NY/New-York/10-E-End-Ave-10075/home/45336180,REBNY,HALS19621447,N,Y,40.7711225,-73.9483354
MLS Listing,,Condo/Co-op,Unit at 90 La Salle St,New York,NY,10027,730000,2,1,Morningside Heights,,,,245,,,Active,,,http://www.redfin.com/NY/New-York/90-La-Salle-St-10027/home/166551198,REBNY,ARPL1821450,N,Y,40.8130022,-73.9586215
MLS Listing,,Condo/Co-op,Unit at 116 Pinehurst Ave,New York,NY,10033,725000,2,1,Hudson Heights,,,,246,,,Active,,,http://www.redfin.com/NY/New-York/116-Pinehurst-Ave-10033/home/59312228,REBNY,UCOM1298232,N,Y,40.8520932,-73.9390439
MLS Listing,,Condo/Co-op,Unit at 568 Grand St,New York,NY,10002,745000,2,1,Lower East Side,,,,246,,,Active,,,http://www.redfin.com/NY/New-York/568-Grand-St-10002/home/166458630,REBNY,LOHO90608,N,Y,40.7142822,-73.9792183
MLS Listing,,Condo/Co-op,Unit at 631 E 18th St,Brooklyn,NY,11226,750000,2,1,Ditmas Park,,,,246,,,Active,,,http://www.redfin.com/NY/Brooklyn/631-E-18th-St-11226/home/166457339,REBNY,CORC5735534,N,Y,40.6357203,-73.9602516
MLS Listing,,Condo/Co-op,142-38 37 Ave Unit 10H,Flushing,NY,11354,720000,1,1,East West Tower,527,,2017,248,1366,223,Active,,,http://www.redfin.com/NY/Flushing/142-38-37th-Ave-11354/unit-10H/home/143948743,MLSLI,3127626,N,Y,40.7625952,-73.8259629
MLS Listing,,Condo/Co-op,132-35 Sanford Ave Unit LD,Flushing,NY,11355,715000,1,1,Infinity 8 Condominiums,830,,1960,249,861,414,Active,,,http://www.redfin.com/NY/Flushing/13235-Sanford-Ave-11355/unit-LD/home/92323957,MLSLI,3127271,N,Y,40.7556493,-73.832058
MLS Listing,,Condo/Co-op,Unit at 906 Prospect Pl,Brooklyn,NY,11213,745000,1,1,Crown Heights,,,,263,,,Active,,,http://www.redfin.com/NY/Brooklyn/906-Prospect-Pl-11213/home/163786350,REBNY,TPGR1800559,N,Y,40.673856,-73.946651
MLS Listing,,Single Family Residential,28 -46 56th Pl,Queens,NY,11377,739000,2,1,Woodside,,,,263,,,Active,,,http://www.redfin.com/NY/Woodside/28-14-56th-Pl-11377/home/20944520,REBNY,HALS19578870,N,Y,40.7609404,-73.9051074
MLS Listing,,Condo/Co-op,166-25 Powells Cove Blv Unit 20G,Beechhurst,NY,11357,728000,2,2,Cryder HOuse,,,1962,272,,,Active,,,http://www.redfin.com/NY/Whitestone/166-25-Powells-Cove-Blvd-11357/unit-20G/home/22075182,MLSLI,3119924,N,Y,40.7944231,-73.796598
MLS Listing,,Condo/Co-op,460 W 236th St Unit W7B,Bronx,NY,10463,749900,2,2,Riverdale,1110,,2008,273,676,956,Active,,,http://www.redfin.com/NY/The-Bronx/460-W-236th-St-10463/unit-W7B/home/162207367,HGMLS,4921346,N,Y,40.885549,-73.906672
MLS Listing,,Condo/Co-op,Unit at 303 W 66th St,New York,NY,10023,740000,2,1,Upper West Side,,,,276,,,Active,,,http://www.redfin.com/NY/New-York/303-W-66th-St-10023/home/45178284,REBNY,CORC5714354,N,Y,40.7761564,-73.9871839
MLS Listing,,Condo/Co-op,31 Hylan Blvd Unit 10A,Staten  Island,NY,10305,739000,1,0.75,Staten  Island,1032,,1987,276,716,,Active,,,http://www.redfin.com/NY/Staten-Island/31-Hylan-Blvd-10305/unit-10A/home/56082679,BNYMLS,428929,N,Y,40.6151849,-74.0646359
MLS Listing,,Condo/Co-op,Unit at 401 E 65th St,New York,NY,10065,745000,1,1,Upper East Side,,,,279,,,Active,,,http://www.redfin.com/NY/New-York/401-E-65th-St-10065/home/114844800,REBNY,DEGI3747049,N,Y,40.7633074,-73.9587691
MLS Listing,,Condo/Co-op,Unit at 520 W 23rd St,New York,NY,10011,747500,1,1,Chelsea,,,,280,,,Active,,,http://www.redfin.com/NY/New-York/520-W-23rd-St-10011/home/45326652,REBNY,CORE781133,N,Y,40.7478445,-74.0050394
MLS Listing,,Condo/Co-op,26910 Grand Central Pkwy Unit 28A,Floral Park,NY,11005,709000,1,1.5,North Shore Towers,1200,,1975,283,591,,Active,,,http://www.redfin.com/NY/Queens/26910-Grand-Central-Pkwy-11005/unit-28A/home/20649456,MLSLI,3116479,N,Y,40.757181,-73.714414
MLS Listing,,Condo/Co-op,7819 Bay Pkwy Unit 4C,Brooklyn,NY,11214,720000,2,2,Brooklyn,832,,2017,291,865,,Active,,,http://www.redfin.com/NY/Unknown/7819-Bay-Pkwy-11214/unit-4C/home/143943099,BNYMLS,428502,N,Y,40.6058403,-73.9892555
MLS Listing,,Condo/Co-op,7819 Bay Pkwy Unit 6C,Brooklyn,NY,11214,749000,2,2,Brooklyn,832,,2017,291,900,,Active,,,http://www.redfin.com/NY/Unknown/7819-Bay-Pkwy-11214/unit-6C/home/143943641,BNYMLS,428500,N,Y,40.6058403,-73.9892555
MLS Listing,,Condo/Co-op,Unit at 330 E 38th St,New York,NY,10016,750000,0,1,Middle East Side,,,,297,,,Active,,,http://www.redfin.com/NY/New-York/330-E-38th-St-10016/home/45258114,REBNY,DEGI3726893,N,Y,40.746393,-73.9727324
MLS Listing,,Condo/Co-op,Unit at 530 E 72nd St,New York,NY,10021,750000,1,1.5,Upper East Side,,,,297,,,Active,,,http://www.redfin.com/NY/New-York/530-E-72nd-St-10021/home/45183126,REBNY,HALS19487910,N,Y,40.7657736,-73.9519246
MLS Listing,,Condo/Co-op,8812 26 Ave Unit B-1B,Brooklyn,NY,11214,719000,2,2,Brooklyn,1033,,2016,300,696,,Active,,,http://www.redfin.com/NY/Brooklyn/8812-26th-Ave-11214/unit-B-1B/home/71611439,BNYMLS,428182,N,Y,40.5924647,-73.9896108
MLS Listing,,Condo/Co-op,Unit at 135 Perry St,New York,NY,10014,749000,1,1,West Village,,,,301,,,Active,,,http://www.redfin.com/NY/New-York/135-Perry-St-10014/home/45143623,REBNY,UCOM272961,N,Y,40.7350454,-74.0076746
MLS Listing,,Condo/Co-op,Unit at 350 Albany St,New York,NY,10280,750000,1,1,Battery Park City,,,,312,,,Active,,,http://www.redfin.com/NY/New-York/350-Albany-St-10280/home/45234793,REBNY,DEGI3706584,N,Y,40.7101846,-74.0176786
MLS Listing,,Condo/Co-op,Unit at 200 Rector Pl,New York,NY,10280,749000,1,1,Battery Park City,,,,319,,,Active,,,http://www.redfin.com/NY/New-York/200-Rector-Pl-10280/home/45235958,REBNY,KNIG1808171,N,Y,40.7087736,-74.0161964
MLS Listing,,Condo/Co-op,Unit at 431 Ave P,Brooklyn,NY,11223,749000,1,1,Midwood,,,,319,,,Active,,,http://www.redfin.com/NY/Brooklyn/431-Avenue-P-11230/home/160565372,REBNY,TIME1807630,N,Y,40.6091785,-73.9714481
MLS Listing,,Condo/Co-op,4 Windward Ln #5,Bronx,NY,10464,735000,2,2.5,Bronx,1639,,1983,320,448,875,Active,,,http://www.redfin.com/NY/The-Bronx/4-Windward-Ln-10464/unit-5/home/44798797,HGMLS,4910516,N,Y,40.8462285,-73.7830789
MLS Listing,,Condo/Co-op,Unit at 120 E 87th St,New York,NY,10128,750000,0,1,Upper East Side,,,,321,,,Active,,,http://www.redfin.com/NY/New-York/120-E-87th-St-10128/home/45291987,REBNY,UCOM92892,N,Y,40.7804094,-73.9558669
MLS Listing,,Condo/Co-op,Unit at 117 E 57th St,New York,NY,10022,749000,0,1,Middle West Side,,,,327,,,Active,,,http://www.redfin.com/NY/New-York/117-E-57th-St-10022/home/45278312,REBNY,DEGI3685532,N,Y,40.7614678,-73.9698441
MLS Listing,,Condo/Co-op,Unit at 118 E 60th St,New York,NY,10022,700000,1,1,Upper East Side,,,,328,,,Active,,,http://www.redfin.com/NY/New-York/118-E-60th-St-10022/home/45232460,REBNY,DEGI3682503,N,Y,40.7629068,-73.9686349
MLS Listing,,Condo/Co-op,Unit at 2 Sutton Pl S,New York,NY,10022,700000,1,1,Middle East Side,,,,332,,,Active,,,http://www.redfin.com/NY/New-York/2-Sutton-Pl-S-10022/home/160471779,REBNY,CORC5672777,N,Y,40.757216,-73.961193
MLS Listing,,Condo/Co-op,Unit at 100 W 12th St,New York,NY,10014,729000,1,1,Greenwich Village,,,,340,,,Active,,,http://www.redfin.com/NY/New-York/100-W-12th-St-10011/home/45171419,REBNY,SIMP1804459,N,Y,40.7360185,-73.9983889
MLS Listing,,Condo/Co-op,Unit at 201 E 66th St,New York,NY,10065,719000,1,1,Upper East Side,,,,340,,,Active,,,http://www.redfin.com/NY/New-York/201-E-66th-St-10065/home/160412011,REBNY,CORC5657955,N,Y,40.7660538,-73.9629079
MLS Listing,,Condo/Co-op,Unit at 308 E 38th St,New York,NY,10016,736000,1,1,Middle East Side,,,,353,,,Active,,,http://www.redfin.com/NY/New-York/308-E-38th-St-10016/home/143853566,REBNY,DEGI3637147,N,Y,40.7467901,-73.9735276
MLS Listing,,Condo/Co-op,Unit at 111 Fulton St,New York,NY,10038,725000,0,1,Financial District,,,,363,,,Active,,,http://www.redfin.com/NY/New-York/111-Fulton-St-10038/home/45220420,REBNY,UCOM1349919,N,Y,40.7099366,-74.0066072
MLS Listing,,Condo/Co-op,Unit at 2 Sutton Pl S,New York,NY,10022,725000,1,1,Middle East Side,,,,367,,,Active,,,http://www.redfin.com/NY/New-York/2-Sutton-Pl-S-10022/home/115839692,REBNY,SOTH752348,N,Y,40.757216,-73.961193
MLS Listing,,Condo/Co-op,Unit at 2351 Adam Clayton Powell,New York,NY,10030,745000,1,1,Harlem,,,,374,,,Active,,,http://www.redfin.com/NY/New-York/2351-Adam-Clayton-Powell-Junior-Blvd-10030/home/148576245,REBNY,HALS18679736,N,Y,40.8168816,-73.9419981
MLS Listing,,Condo/Co-op,Unit at 79 Green St,Brooklyn,NY,11222,745000,1,1,Green Point,,,,418,,,Active,,,http://www.redfin.com/NY/Brooklyn/79-Green-St-11222/home/148188597,REBNY,UCOM1792739,N,Y,40.733576,-73.958714
MLS Listing,,Condo/Co-op,Unit at 205 E 78th St,New York,NY,10075,749000,1,1,Upper East Side,,,,420,,,Active,,,http://www.redfin.com/NY/New-York/205-E-78th-St-10075/home/148160337,REBNY,UCOM1792090,N,Y,40.7735677,-73.9574003
MLS Listing,,Condo/Co-op,Unit at 158 15th St,Brooklyn,NY,11215,749000,2,2,Park Slope,,,,423,,,Active,,,http://www.redfin.com/NY/Brooklyn/158-15th-St-11215/home/148129928,REBNY,CORC5611975,N,Y,40.6663227,-73.991273
MLS Listing,,Condo/Co-op,Unit at 15 E 19th St,Brooklyn,NY,11226,750000,2,2,Prospect Park,,,,430,,,Active,,,http://www.redfin.com/NY/Unknown/15-E-19th-St-11226/home/148049769,REBNY,DEGI3541640,N,Y,40.6494283,-73.9618517
MLS Listing,,Condo/Co-op,Unit at 205 E 78th St,New York,NY,10075,725000,1,1,Upper East Side,,,,448,,,Active,,,http://www.redfin.com/NY/New-York/205-E-78th-St-10075/home/45158195,REBNY,UCOM63820,N,Y,40.7736038,-73.9573268
MLS Listing,,Condo/Co-op,Unit at 554 Fourth Ave,Brooklyn,NY,11215,750000,1,1,Gowanus,,,,466,,,Active,,,http://www.redfin.com/NY/Unknown/554-4th-Ave-11215/home/147405655,REBNY,DEGI2951683,N,Y,40.666669,-73.992123
MLS Listing,,Condo/Co-op,132-29 Blossom Ave Unit 2 I,Flushing,NY,11355,718000,2,2,Park Tower,,,2009,467,,240,Active,,,http://www.redfin.com/NY/Flushing/132-29-Blossom-Ave-11355/unit-2I/home/45112262,MLSLI,3070524,N,Y,40.7521539,-73.8312005
MLS Listing,,Condo/Co-op,Unit at 310 E 46th St,New York,NY,10017,750000,1,1,Middle East Side,,,,479,,,Active,,,http://www.redfin.com/NY/New-York/310-E-46th-St-10017/home/45154907,REBNY,SOTH725580,N,Y,40.7520278,-73.9698349
MLS Listing,,Condo/Co-op,Unit at 23 E 10th St,New York,NY,10003,749000,1,1,Greenwich Village,,,,479,,,Active,,,http://www.redfin.com/NY/New-York/23-E-10th-St-10003/home/45142176,REBNY,CCRI1777130,N,Y,40.7327657,-73.9934301
MLS Listing,,Condo/Co-op,Unit at 635 W 42nd St,New York,NY,10036,750000,1,1,Middle West Side,,,,518,,,Active,,,http://www.redfin.com/NY/New-York/635-W-42nd-St-10036/home/45191625,REBNY,R2RR18890880,N,Y,40.7617008,-73.9996228
MLS Listing,,Condo/Co-op,Unit at 343 E 74th St,New York,NY,10021,750000,1,1,Upper East Side,,,,545,,,Active,,,http://www.redfin.com/NY/New-York/343-E-74th-St-10021/home/146261671,REBNY,ASHW284559,N,Y,40.7696826,-73.9557056
MLS Listing,,Condo/Co-op,Unit at 201 E 79th St,New York,NY,10075,700000,1,1,Upper East Side,,,,545,,,Active,,,http://www.redfin.com/NY/New-York/201-E-79th-St-10075/home/45161298,REBNY,HALS18685253,N,Y,40.7744113,-73.9569454
MLS Listing,,Condo/Co-op,Unit at 305 W 86th St,New York,NY,10024,725000,1,1,Upper West Side,,,,648,,,Active,,,http://www.redfin.com/NY/New-York/305-W-86th-St-10024/home/45152571,REBNY,HALS18308954,N,Y,40.78932,-73.9782509
MLS Listing,,Condo/Co-op,Unit at 340 E 23rd St,New York,NY,10010,740000,0,1,Gramercy Park,,,,655,,,Active,,,http://www.redfin.com/NY/New-York/340-E-23rd-St-10010/home/45205856,REBNY,UCOM440158,N,Y,40.7370087,-73.9794227
MLS Listing,,Condo/Co-op,Unit at 554 Fourth Ave,Brooklyn,NY,11215,740000,1,1,Gowanus,,,,777,,,Active,,,http://www.redfin.com/NY/Unknown/554-4th-Ave-11215/home/144382816,REBNY,DEGI2951486,N,Y,40.666669,-73.992123
MLS Listing,,Condo/Co-op,Unit at 400 Central Park W,New York,NY,10025,748000,1,1,Upper West Side,,,,789,,,Active,,,http://www.redfin.com/NY/New-York/400-Central-Park-W-10025/home/45124957,REBNY,UCOM832718,N,Y,40.7942099,-73.9636725
MLS Listing,,Condo/Co-op,Unit at 416 Ocean Ave,Brooklyn,NY,11226,750000,2,1,Prospect Park South,,,,887,,,Active,,,http://www.redfin.com/NY/Brooklyn/416-Ocean-Ave-11226/home/40650048,REBNY,UCOM1684633,N,Y,40.6527069,-73.9616844
MLS Listing,,Condo/Co-op,Unit at 635 W 42nd St,New York,NY,10036,750000,1,1,Middle West Side,,,,950,,,Active,,,http://www.redfin.com/NY/New-York/635-W-42nd-St-10036/home/45195399,REBNY,R2RR2029701,N,Y,40.7617008,-73.9996228
MLS Listing,,Condo/Co-op,Unit at 165 W End Ave,New York,NY,10023,739000,1,1,Upper West Side,,,,950,,,Active,,,http://www.redfin.com/NY/New-York/165-W-End-Ave-10023/home/115433542,REBNY,BHSR15122259,N,Y,40.7772929,-73.9868017
MLS Listing,,Condo/Co-op,Unit at 3800 Blackstone Ave,Bronx,NY,10463,709000,2,2,Riverdale,,,,950,,,Active,,,http://www.redfin.com/NY/The-Bronx/3800-Blackstone-Ave-10463/home/44799937,REBNY,BACH10445603,N,Y,40.889152,-73.911407
MLS Listing,,Condo/Co-op,Unit at 88 Greenwich St,New York,NY,10006,710000,0,1,Financial District,,,,951,,,Active,,,http://www.redfin.com/NY/New-York/88-Greenwich-St-10006/home/45209019,REBNY,LIVL95955,N,Y,40.7078844,-74.0140879
For-Sale-by-Owner Listing,,Condo/Co-op,77 Fulton St Apt 7j,New York,NY,10038,739000,1,1,New York,9450,,1971,163,78,,Active,,,http://www.redfin.com/NY/New-York/77-Fulton-St-10038/unit-7j/home/168257664,Fizber.com,5026239,N,Y,40.7090783,-74.004535
