SALE TYPE,SOLD DATE,PROPERTY TYPE,ADDRESS,CITY,STATE OR PROVINCE,ZIP OR POSTAL CODE,PRICE,BEDS,BATHS,LOCATION,SQUARE FEET,LOT SIZE,YEAR BUILT,DAYS ON MARKET,$/SQUARE FEET,HOA/MONTH,STATUS,NEXT OPEN HOUSE START TIME,NEXT OPEN HOUSE END TIME,URL (SEE http://www.redfin.com/buy-a-home/comparative-market-analysis FOR INFO ON PRICING),SOURCE,MLS#,FAVORITE,INTERESTED,LATITUDE,LONGITUDE
MLS Listing,,Condo/Co-op,Unit at 4 Lexington Ave,New York,NY,10010,800000,1,1,Gramercy Park,,,,1,,,Active,,,http://www.redfin.com/NY/New-York/4-Lexington-Ave-10010/home/134036667,REBNY,ASHW2868740,N,Y,40.7388122,-73.9854811
MLS Listing,,Condo/Co-op,Unit at 301 E 78th St,New York,NY,10075,769000,1,1,Upper East Side,,,,1,,,Active,,,http://www.redfin.com/NY/New-York/301-E-78th-St-10075/home/45228873,REBNY,BHSR20010082,N,Y,40.7725754,-73.9552149
MLS Listing,,Condo/Co-op,Unit at 110 E 36th St,New York,NY,10016,795000,1,1,Murray Hill Kips Bay,,,,1,,,Active,,,http://www.redfin.com/NY/New-York/110-E-36th-St-10016/home/170271371,REBNY,UCOM1865512,N,Y,40.7480064,-73.9799084
MLS Listing,,Condo/Co-op,25-40 Shore Blvd Unit 4 F,Astoria,NY,11102,775000,2,2,Shore Towers,,,,2,,595,Active,,,http://www.redfin.com/NY/Astoria/2540-Shore-Blvd-11105/unit-4F/home/20947771,MLSLI,3191165,N,Y,40.776074,-73.929051
MLS Listing,,Condo/Co-op,140-55 34th Ave,Flushing,NY,11354,788000,2,2,Condo,1300,41742,1967,2,606,570,Active,,,http://www.redfin.com/NY/Flushing/14055-34th-Ave-11354/home/20665428,MLSLI,3191081,N,Y,40.7671775,-73.8253832
MLS Listing,,Condo/Co-op,Unit at 266 E Broadway,New York,NY,10002,799000,1,1,Lower East Side,,,,3,,,Active,,,http://www.redfin.com/NY/New-York/266-E-Broadway-10002/home/66773836,REBNY,LOHO107443,N,Y,40.715005,-73.9851838
MLS Listing,,Condo/Co-op,Unit at 35 Mount Morris Park W,New York,NY,10027,799000,2,1,Mt. Morris Park,,,,4,,,Active,,,http://www.redfin.com/NY/New-York/35-Mount-Morris-Park-W-10027/home/170247539,REBNY,UCOM1865266,N,Y,40.806339,-73.944768
MLS Listing,,Condo/Co-op,Unit at 24 -65 38th St,Queens,NY,11103,799000,2,2,Astoria,,,,4,,,Active,,,http://www.redfin.com/NY/Long-Island-City/24-56-38th-St-11103/home/167187509,REBNY,CORC5962387,N,Y,40.7682962,-73.9127791
MLS Listing,,Condo/Co-op,45-16 83rd St Unit E-7J,Elmhurst,NY,11373,758000,2,2,Elmhurst Plaza,1072,,2019,4,707,533,Active,,,http://www.redfin.com/NY/Elmhurst/4516-83rd-St-11373/unit-E-7J/home/170241146,MLSLI,3190586,N,Y,40.7413468,-73.8816693
MLS Listing,,Condo/Co-op,Unit at 350 E 82nd St,New York,NY,10028,775000,1,1,Upper East Side,,,,4,,,Active,,,http://www.redfin.com/NY/New-York/350-E-82nd-St-10028/home/45196334,REBNY,BHSR19980986,N,Y,40.7743326,-73.9519172
MLS Listing,,Condo/Co-op,Unit at 201 W 70th St,New York,NY,10023,799000,1,1,Upper West Side,,,,4,,,Active,,,http://www.redfin.com/NY/New-York/201-W-70th-St-10023/home/170235656,REBNY,DEGI4070015,N,Y,40.7776054,-73.9828731
MLS Listing,,Condo/Co-op,Unit at 101 W 81st St,New York,NY,10024,765000,1,1,Upper West Side,,,,5,,,Active,,,http://www.redfin.com/NY/New-York/101-W-81st-St-10024/home/45178840,REBNY,CORC5961720,N,Y,40.7837357,-73.9746518
MLS Listing,,Condo/Co-op,Unit at 56 Pine St,New York,NY,10005,795000,1,1,Financial District,,,,6,,,Active,,,http://www.redfin.com/NY/New-York/56-Pine-St-10005/home/114794529,REBNY,PLAT1864686,N,Y,40.7068323,-74.0083798
MLS Listing,,Condo/Co-op,Unit at 16 Park Ave,New York,NY,10016,800000,1,1,Murray Hill Kips Bay,,,,6,,,Active,,,http://www.redfin.com/NY/New-York/16-Park-Ave-10016/home/45145947,REBNY,SOTH2866371,N,Y,40.7477613,-73.9812739
MLS Listing,,Condo/Co-op,2126-2142 Gerritsen Ave #301,Brooklyn,NY,11229,765000,2,2,Brooklyn,1275,,2018,6,600,,Active,January-18-2020 01:00 PM,January-18-2020 03:00 PM,http://www.redfin.com/NY/Brooklyn/2126-Gerritsen-Ave-11229/unit-301/home/170226372,BNYMLS,435774,N,Y,40.602666,-73.936339
MLS Listing,,Condo/Co-op,2126-2142 Gerritsen Ave #205,Brooklyn,NY,11229,756000,2,2.5,Brooklyn,1260,,2018,6,600,,Active,January-18-2020 01:00 PM,January-18-2020 03:00 PM,http://www.redfin.com/NY/Brooklyn/2126-Gerritsen-Ave-11229/unit-205/home/170225168,BNYMLS,435752,N,Y,40.602666,-73.936339
MLS Listing,,Condo/Co-op,244 Madison Ave,New York,NY,10016,750000,1,1,Murray Hill Kips Bay,,,,6,,,Active,,,http://www.redfin.com/NY/New-York/244-Madison-Ave-10016/home/45174664,REBNY,SOTH2865946,N,Y,40.7501409,-73.9814937
MLS Listing,,Condo/Co-op,Unit at 333 E 66th St,New York,NY,10065,750000,2,1,Upper East Side,,,,7,,,Active,,,http://www.redfin.com/NY/New-York/333-E-66th-St-10065/home/45229786,REBNY,LLGI2865741,N,Y,40.7644155,-73.95918
MLS Listing,,Condo/Co-op,Unit at 212 E 48th St,New York,NY,10017,785000,2,1,Middle East Side,,,,7,,,Active,,,http://www.redfin.com/NY/New-York/212-E-48th-St-10017/home/160496413,REBNY,CTRE2864733,N,Y,40.7540743,-73.9710422
MLS Listing,,Townhouse,67-55 Alderton St,Rego Park,NY,11374,780000,2,1.5,Rego Park,,2200,1955,7,,,Active,,,http://www.redfin.com/NY/Flushing/67-55-Alderton-St-11374/home/20891396,MLSLI,3189433,N,Y,40.716562,-73.858456
MLS Listing,,Condo/Co-op,Unit at 353 E 104th St,New York,NY,10029,769000,1,1,East Harlem,,,,9,,,Active,,,http://www.redfin.com/NY/New-York/353-E-104th-St-10029/home/167864990,REBNY,CORC5958694,N,Y,40.7885176,-73.941247
MLS Listing,,Condo/Co-op,131-05 40th Rd Unit 16N,Flushing,NY,11354,798000,1,1,Onex,790,,2017,9,1010,696,Active,,,http://www.redfin.com/NY/Flushing/13105-40-Rd-11354/unit-16N/home/144212698,MLSLI,3189232,N,Y,40.7571799,-73.83395
MLS Listing,,Condo/Co-op,Unit at 140 -55 34th Ave,Queens,NY,11354,788000,2,2,Flushing,,,,9,,,Active,,,http://www.redfin.com/NY/Flushing/140-84-34th-Ave-11354/home/170210778,REBNY,UCOM1864307,N,Y,40.766633,-73.8243449
MLS Listing,,Condo/Co-op,Unit at 165 W End Ave,New York,NY,10023,789000,1,1,Upper West Side,,,,10,,,Active,,,http://www.redfin.com/NY/New-York/165-W-End-Ave-10023/home/170209231,REBNY,UCOM1864273,N,Y,40.7772929,-73.9868017
MLS Listing,,Condo/Co-op,Unit at 427 W 154th St,New York,NY,10032,790000,2,2,Harlem,,,,10,,,Active,,,http://www.redfin.com/NY/New-York/427-W-154th-St-10032/home/167389792,REBNY,LGFG107197,N,Y,40.8307594,-73.942632
MLS Listing,,Condo/Co-op,Unit at 235 Ocean Pkwy,Brooklyn,NY,11218,799000,2,2,Kensington,,,,10,,,Active,,,http://www.redfin.com/NY/Brooklyn/235-Ocean-Pkwy-11218/home/40678193,REBNY,UCOM515163,N,Y,40.6440916,-73.9735905
MLS Listing,,Multi-Family (2-4 Unit),84 Virginia Ave,Staten  Island,NY,10305,759000,1,2.5,Staten  Island,2000,2871,2004,11,380,,Active,,,http://www.redfin.com/NY/Staten-Island/84-Virginia-Ave-10305/home/56057765,BNYMLS,435627,N,Y,40.6141734,-74.069828
MLS Listing,,Condo/Co-op,Unit at 20 Plaza St E,Brooklyn,NY,11238,800000,1,1,Prospect Heights,,,,11,,,Active,,,http://www.redfin.com/NY/Brooklyn/20-Plaza-St-E-11238/home/40649255,REBNY,GARF107086,N,Y,40.6757517,-73.9699199
MLS Listing,,Condo/Co-op,Unit at 11 E 87th St,New York,NY,10128,775000,1,1,Upper East Side,,,,12,,,Active,,,http://www.redfin.com/NY/New-York/11-E-87th-St-10128/home/45199887,REBNY,CORC5949592,N,Y,40.7819602,-73.958897
MLS Listing,,Condo/Co-op,Unit at 100 Beekman St,New York,NY,10038,769000,1,1,Financial District,,,,16,,,Active,,,http://www.redfin.com/NY/New-York/100-Beekman-St-10038/home/114911818,REBNY,RNRE1771,N,Y,40.7080103,-74.0032116
MLS Listing,,Condo/Co-op,Unit at 79 Green St,Brooklyn,NY,11222,785000,1,1,Green Point,,,,17,,,Active,,,http://www.redfin.com/NY/Brooklyn/79-Green-St-11222/home/170170286,REBNY,UCOM1863785,N,Y,40.733576,-73.958714
MLS Listing,,Condo/Co-op,Unit at 1199 Park Ave,New York,NY,10128,799000,0,1,Upper East Side,,,,17,,,Active,,,http://www.redfin.com/NY/New-York/1199-Park-Ave-10128/home/170167929,REBNY,HALS19996592,N,Y,40.7851736,-73.9527438
MLS Listing,,Condo/Co-op,Unit at 255 W 108th St,New York,NY,10025,799000,1,1,Upper West Side,,,,18,,,Active,,,http://www.redfin.com/NY/New-York/255-W-108th-St-10025/home/45163590,REBNY,DEGI4058395,N,Y,40.8028416,-73.9670229
MLS Listing,,Condo/Co-op,Unit at 545 Gates Ave,Brooklyn,NY,11216,799000,2,1.5,Bedford Stuyvesant,,,,18,,,Active,,,http://www.redfin.com/NY/Brooklyn/545-Gates-Ave-11216/home/170133456,REBNY,KWNY238946,N,Y,40.687091,-73.944995
MLS Listing,,Condo/Co-op,Unit at 246 Spring St,New York,NY,10013,750000,0,1,Soho,,,,21,,,Active,,,http://www.redfin.com/NY/New-York/246-Spring-St-10013/home/45331690,REBNY,BHSR19995299,N,Y,40.7253082,-74.005407
MLS Listing,,Condo/Co-op,4455 Douglas Ave Unit 7F,Bronx,NY,10471,750000,2,2.5,Bronx,1682,,1967,26,446,954,Active,,,http://www.redfin.com/NY/The-Bronx/4455-Douglas-Ave-10471/unit-7F/home/44600238,HGMLS,5127734,N,Y,40.888523,-73.917565
MLS Listing,,Condo/Co-op,Unit at 201 W 70th St,New York,NY,10023,795000,1,1,Upper West Side,,,,27,,,Active,,,http://www.redfin.com/NY/New-York/201-W-70th-St-10023/home/170123537,REBNY,AKAM1863068,N,Y,40.7776054,-73.9828731
MLS Listing,,Condo/Co-op,Unit at 100 Beekman St,New York,NY,10038,799000,1,1,Financial District,,,,27,,,Active,,,http://www.redfin.com/NY/New-York/100-Beekman-St-10038/home/170123318,REBNY,BHSR19984492,N,Y,40.7086946,-74.0032458
MLS Listing,,Condo/Co-op,Unit at 404 Grand St,Brooklyn,NY,11211,795000,1,1.5,Williamsburg,,,,27,,,Active,,,http://www.redfin.com/NY/Unknown/404-Grand-St-11211/home/145246026,REBNY,UCOM1863042,N,Y,40.7116304,-73.9541558
MLS Listing,,Condo/Co-op,Unit at 16 W 16th St,New York,NY,10011,795000,1,1,Flatiron,,,,28,,,Active,,,http://www.redfin.com/NY/New-York/16-W-16th-St-10011/home/45174936,REBNY,CORC5948572,N,Y,40.737402,-73.99318
MLS Listing,,Condo/Co-op,Unit at 280 Nassau Ave,Brooklyn,NY,11222,799000,1,1,Green Point,,,,28,,,Active,,,http://www.redfin.com/NY/Brooklyn/280-Nassau-Ave-11222/home/170109099,REBNY,BOLD169275,N,Y,40.7258999,-73.9395365
MLS Listing,,Condo/Co-op,Unit at 52 E 4th St,New York,NY,10003,782800,0,1,East Village,,,,31,,,Active,,,http://www.redfin.com/NY/New-York/52-E-4th-St-10003/home/45221149,REBNY,HALS19982857,N,Y,40.72665,-73.991114
MLS Listing,,Condo/Co-op,Unit at 259 Ainslie St,Brooklyn,NY,11211,799000,0,1.5,East Williamsburg,,,,31,,,Active,,,http://www.redfin.com/NY/Brooklyn/259-Ainslie-St-11211/home/40917819,REBNY,PREV106414,N,Y,40.7133727,-73.9434652
MLS Listing,,Condo/Co-op,Unit at 333 E 46th St,New York,NY,10017,770000,1,1,Middle East Side,,,,32,,,Active,,,http://www.redfin.com/NY/New-York/333-E-46th-St-10017/home/53512999,REBNY,HALS19976212,N,Y,40.7520734,-73.9690003
MLS Listing,,Vacant Land,2671 Bedford Ave,Brooklyn,NY,11210,795000,0,,Midwood,,7300,,33,,,Active,,,http://www.redfin.com/NY/Brooklyn/2671-Bedford-Ave-11210/home/50268986,SIBORMLS,1134284,N,Y,40.6374799,-73.953436
MLS Listing,,Condo/Co-op,Unit at 185 18th St,Brooklyn,NY,11215,760000,1,1,Greenwood,,,,34,,,Active,,,http://www.redfin.com/NY/Brooklyn/185-18th-St-11215/home/170054851,REBNY,HALS19383721,N,Y,40.6642688,-73.9932729
MLS Listing,,Multi-Family (2-4 Unit),32-59 110th St,E. Elmhurst,NY,11369,775000,2,2,E. Elmhurst,1152,2475,1930,34,673,,Active,,,http://www.redfin.com/NY/Flushing/32-59-110th-St-11369/home/20925039,MLSLI,3185305,N,Y,40.758519,-73.859754
MLS Listing,,Condo/Co-op,Unit at 45 Sutton Pl S,New York,NY,10022,799000,1,2,Middle East Side,,,,35,,,Active,,,http://www.redfin.com/NY/New-York/45-Sutton-Pl-S-10022/home/170039554,REBNY,CORC5948267,N,Y,40.7556274,-73.9614685
MLS Listing,,Single Family Residential,2006 Bath Ave,Brooklyn,NY,11214,795000,2,1,Brooklyn,1254,756,1925,35,634,,Active,,,http://www.redfin.com/NY/Brooklyn/2006-Bath-Ave-11214/home/148314754,BNYMLS,435252,N,Y,40.601159,-74.001443
MLS Listing,,Multi-Family (2-4 Unit),1946 Obrien Ave,Bronx,NY,10473,799000,0,,Bronx,2400,3706,1920,35,333,,Active,,,http://www.redfin.com/NY/The-Bronx/1946-OBrien-Ave-10473/home/44756355,HGMLS,5125549,N,Y,40.8114231,-73.8542426
MLS Listing,,Multi-Family (2-4 Unit),3909 Dyre Ave,Bronx,NY,10466,769000,0,,Bronx,2398,2225,1910,35,321,,Active,,,http://www.redfin.com/NY/The-Bronx/3909-Dyre-Ave-10466/home/44744458,HGMLS,5116260,N,Y,40.8895788,-73.8314992
MLS Listing,,Condo/Co-op,Unit at 336 W End Ave,New York,NY,10023,799000,1,1,Upper West Side,,,,36,,,Active,,,http://www.redfin.com/NY/New-York/336-W-End-Ave-10023/home/45202009,REBNY,DEGI4045489,N,Y,40.7821377,-73.9824061
MLS Listing,,Townhouse,62-24 79th St,Middle Village,NY,11379,769000,2,1.5,Middle Village,,1600,1945,37,,,Active,,,http://www.redfin.com/NY/Flushing/62-24-79th-St-11379/home/20896654,MLSLI,3184945,N,Y,40.722043,-73.878327
MLS Listing,,Condo/Co-op,Unit at 4 Sutton Pl,New York,NY,10022,795000,1,1,Middle East Side,,,,38,,,Active,,,http://www.redfin.com/NY/New-York/4-Sutton-Pl-10022/home/170024017,REBNY,SOTH2823245,N,Y,40.7577707,-73.9606649
MLS Listing,,Condo/Co-op,Unit at 455 Fdr Dr,New York,NY,10002,750000,1,1,Lower East Side,,,,38,,,Active,,,http://www.redfin.com/NY/New-York/455-FDR-Dr-10002/home/55351228,REBNY,LOHO106550,N,Y,40.7128644,-73.9779703
MLS Listing,,Condo/Co-op,Unit at 315 E 65th St,New York,NY,10021,795000,1,1,Upper East Side,,,,38,,,Active,,,http://www.redfin.com/NY/New-York/315-E-65th-St-10065/home/56545055,REBNY,DEGI4040901,N,Y,40.764197,-73.960624
MLS Listing,,Condo/Co-op,Unit at 25 Broad St,New York,NY,10004,795000,1,1,Financial District,,,,38,,,Active,,,http://www.redfin.com/NY/New-York/25-Broad-St-10004/home/170020886,REBNY,TMDI1861741,N,Y,40.7060521,-74.0110566
MLS Listing,,Condo/Co-op,Unit at 850 Metropolitan Ave,Brooklyn,NY,11211,792000,1,1,East Williamsburg,,,,40,,,Active,,,http://www.redfin.com/NY/Brooklyn/850-Metropolitan-Ave-11211/home/170011961,REBNY,RENY106446,N,Y,40.7144391,-73.94085
MLS Listing,,Condo/Co-op,Unit at 570 Grand St,New York,NY,10002,790000,2,1,Lower East Side,,,,40,,,Active,,,http://www.redfin.com/NY/New-York/570-Grand-St-10002/home/170011951,REBNY,CORC5903395,N,Y,40.7140634,-73.978966
MLS Listing,,Condo/Co-op,Unit at 16 W 19th St,New York,NY,10011,775000,0,1,Flatiron,,,,40,,,Active,,,http://www.redfin.com/NY/New-York/16-W-19th-St-10011/home/45194619,REBNY,DEGI4040924,N,Y,40.7394618,-73.9925543
MLS Listing,,Condo/Co-op,Unit at 2373 Adam Clayton Powell,New York,NY,10030,788000,2,2,West Harlem,,,,40,,,Active,,,http://www.redfin.com/NY/New-York/2373-Adam-Clayton-Powell-Jr-Blvd-10030/home/53397078,REBNY,UCOM849139,N,Y,40.817489,-73.941581
MLS Listing,,Condo/Co-op,Unit at 172 E 4th St,New York,NY,10009,799000,1,1,East Village,,,,41,,,Active,,,http://www.redfin.com/NY/New-York/172-E-4th-St-10009/home/45198485,REBNY,CORE2822247,N,Y,40.7239677,-73.9853445
MLS Listing,,Condo/Co-op,Unit at 43 Newel St,Brooklyn,NY,11222,765000,1,1,Green Point,,,,41,,,Active,,,http://www.redfin.com/NY/Brooklyn/43-Newel-St-11222/home/170002820,REBNY,BOLD167336,N,Y,40.7239954,-73.9471099
MLS Listing,,Condo/Co-op,Unit at 420 E 55th St,New York,NY,10022,750000,1,1,Middle East Side,,,,41,,,Active,,,http://www.redfin.com/NY/New-York/420-E-55th-St-10022/home/45209224,REBNY,HALS19976598,N,Y,40.7562471,-73.9625705
MLS Listing,,Condo/Co-op,Unit at 227 E 57th St,New York,NY,10022,789000,1,1,Middle East Side,,,,41,,,Active,,,http://www.redfin.com/NY/New-York/227-E-57th-St-10022/home/114449139,REBNY,WRNY1860833,N,Y,40.7598525,-73.9660434
MLS Listing,,Condo/Co-op,Unit at 855 W End Ave,New York,NY,10025,775000,2,1,Upper West Side,,,,42,,,Active,,,http://www.redfin.com/NY/New-York/855-W-End-Ave-10025/home/45164223,REBNY,CORC5941638,N,Y,40.7990285,-73.9706706
MLS Listing,,Condo/Co-op,Unit at 205 Third Ave,New York,NY,10003,775000,1,1,Gramercy Park,,,,42,,,Active,,,http://www.redfin.com/NY/New-York/205-3rd-Ave-10003/home/45167413,REBNY,UCOM519357,N,Y,40.735952,-73.9847706
MLS Listing,,Townhouse,138-17 64 Ave,Flushing,NY,11367,758888,2,2,Flushing,,3250,1950,42,,,Active,,,http://www.redfin.com/NY/Flushing/138-17-64th-Ave-11367/home/20831969,MLSLI,3183659,N,Y,40.7391176,-73.8275944
MLS Listing,,Condo/Co-op,81-14 Queens Blvd Unit 5C,Elmhurst,NY,11373,799000,2,2,Mirama,1048,,2007,42,762,670,Active,,,http://www.redfin.com/NY/Elmhurst/81-14-Queens-Blvd-11373/unit-5C/home/169990848,MLSLI,3183563,N,Y,40.7371758,-73.8818298
MLS Listing,,Condo/Co-op,65 Oceana Dr E Unit 2B,Brooklyn,NY,11235,798000,2,2,Brooklyn,1228,,2004,47,650,,Active,,,http://www.redfin.com/NY/Brooklyn/65-Oceana-Dr-E-11235/unit-2B/home/40640591,BNYMLS,435034,N,Y,40.5769367,-73.9570143
MLS Listing,,Condo/Co-op,Unit at 635 W 42nd St,New York,NY,10036,800000,1,1,Middle West Side,,,,47,,,Active,,,http://www.redfin.com/NY/New-York/635-W-42nd-St-10036/home/45191653,REBNY,SOTH2821525,N,Y,40.7617008,-73.9996228
MLS Listing,,Townhouse,622 Oakland Ave,Staten Island,NY,10310,779000,2,2,Sunset Hill,1600,3276,1940,49,487,,Active,,,http://www.redfin.com/NY/Staten-Island/622-Oakland-Ave-10310/home/56119946,SIBORMLS,1134033,N,Y,40.6261172,-74.1095624
MLS Listing,,Condo/Co-op,62-54 97th Pl,Rego Park,NY,11374,750000,0,1,The Summit,1500,,1988,52,500,2001,Active,,,http://www.redfin.com/NY/Rego-Park/62-54-97th-Pl-11374/home/20665460,MLSLI,3182307,N,Y,40.7330184,-73.8613454
MLS Listing,,Condo/Co-op,Unit at 784 Park Ave,New York,NY,10065,795000,1,1,Upper East Side,,,,53,,,Active,,,http://www.redfin.com/NY/New-York/784-Park-Ave-10021/home/45156813,REBNY,LLGI1424381,N,Y,40.7723675,-73.9634275
MLS Listing,,Condo/Co-op,Unit at 40 -26 College Point Blvd,Queens,NY,11354,780000,1,1,Flushing,,,,53,,,Active,,,http://www.redfin.com/NY/Flushing/40-49-College-Point-Blvd-11354/home/147152653,REBNY,LLGI724095,N,Y,40.7567698,-73.8335661
MLS Listing,,Condo/Co-op,Unit at 153 W 85th St,New York,NY,10024,799000,2,1,Upper West Side,,,,53,,,Active,,,http://www.redfin.com/NY/New-York/153-W-85th-St-10024/home/45333869,REBNY,UCOM857030,N,Y,40.7867973,-73.9745432
MLS Listing,,Condo/Co-op,Unit at 1325 Herkimer St,Brooklyn,NY,11233,750000,2,2,Brooklyn,,,,54,,,Active,,,http://www.redfin.com/NY/Brooklyn/1325-Herkimer-St-11233/home/169906651,REBNY,KWNY238371,N,Y,40.6776279,-73.9093901
MLS Listing,,Condo/Co-op,Unit at 1702 Newkirk Ave,Brooklyn,NY,11226,799000,2,2,Ditmas Park,,,,54,,,Active,,,http://www.redfin.com/NY/Brooklyn/1702-Newkirk-Ave-11226/home/169906217,REBNY,CORC5939526,N,Y,40.636303,-73.961279
MLS Listing,,Condo/Co-op,Unit at 310 E 46th St,New York,NY,10017,750000,0,1,Middle East Side,,,,54,,,Active,,,http://www.redfin.com/NY/New-York/310-E-46th-St-10017/home/169899270,REBNY,DEGI4025904,N,Y,40.7520278,-73.9698349
MLS Listing,,Condo/Co-op,Unit at 20 West St,New York,NY,10004,800000,0,1,Lower Manhattan,,,,55,,,Active,,,http://www.redfin.com/NY/New-York/20-West-St-10004/home/45187946,REBNY,DEGI4025081,N,Y,40.7061965,-74.0157366
MLS Listing,,Townhouse,83-11 25 Ave,E. Elmhurst,NY,11370,788000,2,2,E. Elmhurst,,2200,1940,58,,,Active,,,http://www.redfin.com/NY/Flushing/83-11-25th-Ave-11370/home/20939091,MLSLI,3181048,N,Y,40.763408,-73.885361
MLS Listing,,Condo/Co-op,Unit at 20 West St,New York,NY,10004,799000,0,1,Financial District,,,,59,,,Active,,,http://www.redfin.com/NY/New-York/20-West-St-10004/home/45187728,REBNY,GROL1859320,N,Y,40.7061965,-74.0157366
MLS Listing,,Condo/Co-op,Unit at 190 E 72nd St,New York,NY,10021,750000,2,2,Upper East Side,,,,60,,,Active,,,http://www.redfin.com/NY/New-York/190-E-72nd-St-10021/home/45157169,REBNY,CORC5936098,N,Y,40.7698703,-73.9611404
MLS Listing,,Condo/Co-op,Unit at 344 W 12th St,New York,NY,10014,795000,1,1,West Village,,,,60,,,Active,,,http://www.redfin.com/NY/New-York/344-W-12th-St-10014/home/45144457,REBNY,ASHW2797981,N,Y,40.7373666,-74.0072665
MLS Listing,,Condo/Co-op,Unit at 2322 Adam C Powell Blvd,New York,NY,10030,750000,2,1,Harlem,,,,60,,,Active,,,http://www.redfin.com/NY/New-York/2322-Adam-Clayton-Powell-Junior-Blvd-10030/home/169801618,REBNY,DEGI4022819,N,Y,40.8163897,-73.9433768
MLS Listing,,Condo/Co-op,Unit at 34 -38 81st St,Queens,NY,11372,750000,2,1,Jackson Heights,,,,60,,,Active,,,http://www.redfin.com/NY/Jackson-Heights/34-49-81st-St-11372/home/169795147,REBNY,UCOM1859073,N,Y,40.7519576,-73.8853236
MLS Listing,,Condo/Co-op,Unit at 205 E 85th St,New York,NY,10028,799000,0,1,Upper East Side,,,,62,,,Active,,,http://www.redfin.com/NY/New-York/205-E-85th-St-10028/home/45226481,REBNY,CORC5932702,N,Y,40.7780577,-73.9537655
MLS Listing,,Condo/Co-op,Unit at 12 W 72nd St,New York,NY,10023,799000,1,1,Upper West Side,,,,62,,,Active,,,http://www.redfin.com/NY/New-York/12-W-72nd-St-10023/home/45149433,REBNY,MONT1381,N,Y,40.776434,-73.9771489
MLS Listing,,Condo/Co-op,Unit at 156 Sackett St,Brooklyn,NY,11231,799000,2,1,Carroll Gardens,,,,63,,,Active,,,http://www.redfin.com/NY/Brooklyn/156-Sackett-St-11231/home/40634950,REBNY,CORC5928591,N,Y,40.6845774,-74.0017451
MLS Listing,,Multi-Family (2-4 Unit),3848 Maple Ave,Brooklyn,NY,11224,750000,2,4.25,Brooklyn,2009,3000,1930,64,373,,Active,,,http://www.redfin.com/NY/Brooklyn/3848-Maple-Ave-11224/home/40850747,BNYMLS,434656,N,Y,40.5789421,-74.0078633
MLS Listing,,Multi-Family (2-4 Unit),793 Jennings St,Bronx,NY,10459,785000,0,,Bronx,2925,1899,2006,65,268,,Active,,,http://www.redfin.com/NY/The-Bronx/793-Jennings-St-10459/home/44718242,HGMLS,5119049,N,Y,40.832232,-73.896118
MLS Listing,,Condo/Co-op,Unit at 142 E 16th St,New York,NY,10003,750000,1,1,Gramercy Park,,,,66,,,Active,,,http://www.redfin.com/NY/New-York/142-E-16th-St-10003/home/53450892,REBNY,DEGI4017344,N,Y,40.7347075,-73.9868826
MLS Listing,,Condo/Co-op,Unit at 3520 Leverich St,Queens,NY,11372,799000,2,1,Jackson Heights,,,,67,,,Active,,,http://www.redfin.com/NY/Jackson-Heights/35-20-Leverich-St-11372/home/161010269,REBNY,BOND1606161,N,Y,40.7500272,-73.8956895
MLS Listing,,Condo/Co-op,Unit at 303 W 66th St,New York,NY,10023,750000,2,1,Upper West Side,,,,68,,,Active,,,http://www.redfin.com/NY/New-York/303-W-66th-St-10023/home/45150987,REBNY,UCOM1857955,N,Y,40.7761564,-73.9871839
MLS Listing,,Condo/Co-op,Unit at 185 Prospect Park SW,Brooklyn,NY,11218,750000,2,1,Windsor Terrace,,,,68,,,Active,,,http://www.redfin.com/NY/Brooklyn/185-Prospect-Park-SW-11218/home/169665378,REBNY,DEGI4013978,N,Y,40.6533312,-73.973309
MLS Listing,,Condo/Co-op,1 Bay Club Dr Unit 18-O,Bayside,NY,11360,798000,2,3,Bay Terrace,1500,,1982,69,532,1180,Active,,,http://www.redfin.com/NY/Bayside/1-Bay-Club-Dr-11360/unit-18O/home/20837958,MLSLI,3178336,N,Y,40.7784405,-73.7804294
MLS Listing,,Condo/Co-op,Unit at 570 Grand St,New York,NY,10002,775000,2,1,Lower East Side,,,,69,,,Active,,,http://www.redfin.com/NY/New-York/570-Grand-St-10002/home/45140378,REBNY,CCRI1857611,N,Y,40.7140634,-73.978966
MLS Listing,,Condo/Co-op,Unit at 362 Van Brunt St,Brooklyn,NY,11231,800000,2,2,Redhook,,,,69,,,Active,,,http://www.redfin.com/NY/Brooklyn/362-Van-Brunt-St-11231/home/169651877,REBNY,DEGI4012608,N,Y,40.6776133,-74.0127734
MLS Listing,,Condo/Co-op,Unit at 220 E 60th St,New York,NY,10022,768000,1,1,Upper East Side,,,,69,,,Active,,,http://www.redfin.com/NY/New-York/220-E-60th-St-10022/home/45285247,REBNY,DEGI4012055,N,Y,40.761661,-73.9653315
MLS Listing,,Condo/Co-op,Unit at 24 -16 Queens Plz S,Queens,NY,11101,775000,1,1,Queens ( Other),,,,70,,,Active,,,http://www.redfin.com/NY/Long-Island-City/24-Queens-Plz-S-11101/home/169649049,REBNY,SEEK1857416,N,Y,40.7506597,-73.940856
MLS Listing,,Condo/Co-op,131-03 40 Rd Ph 1D,Flushing,NY,11354,790000,1,1,The Grand 2,,,2017,70,,560,Active,,,http://www.redfin.com/NY/Flushing/13103-40-Rd-11354/unit-1D/home/144212846,MLSLI,3177838,N,Y,40.7565824,-73.8374314
MLS Listing,,Condo/Co-op,Unit at 1991 Broadway,New York,NY,10023,775000,0,1,Upper West Side,,,,73,,,Active,,,http://www.redfin.com/NY/New-York/1991-Broadway-10023/home/45268117,REBNY,DEGI3792372,N,Y,40.7751972,-73.9825668
MLS Listing,,Condo/Co-op,Unit at 211 E 18th St,New York,NY,10003,770000,1,1,Gramercy Park,,,,74,,,Active,,,http://www.redfin.com/NY/New-York/211-E-18th-St-10003/home/45147414,REBNY,UCOM192464,N,Y,40.7354659,-73.9841568
MLS Listing,,Condo/Co-op,Unit at 531 Clinton St,Brooklyn,NY,11231,795000,2,1,Carroll Gardens,,,,74,,,Active,,,http://www.redfin.com/NY/Brooklyn/531-Clinton-St-11231/home/169628247,REBNY,CORC5925630,N,Y,40.677462,-74.000278
MLS Listing,,Condo/Co-op,Unit at 105 E 19th St,New York,NY,10003,799999,1,1,Gramercy Park,,,,74,,,Active,,,http://www.redfin.com/NY/New-York/105-E-19th-St-10003/home/53323427,REBNY,CORC5926262,N,Y,40.7376428,-73.9873939
MLS Listing,,Condo/Co-op,Unit at 159 W 53rd St,New York,NY,10019,795000,1,1,Middle West Side,,,,74,,,Active,,,http://www.redfin.com/NY/New-York/159-W-53rd-St-10019/home/45128189,REBNY,DEGI4010398,N,Y,40.763055,-73.9813332
MLS Listing,,Condo/Co-op,Unit at 315 W 70th St,New York,NY,10023,799000,1,1,Upper West Side,,,,75,,,Active,,,http://www.redfin.com/NY/New-York/315-W-70th-St-10023/home/169606256,REBNY,KWNY237891,N,Y,40.7789427,-73.9859873
MLS Listing,,Condo/Co-op,Unit at 315 E 68th St,New York,NY,10065,775000,1,1,Upper East Side,,,,75,,,Active,,,http://www.redfin.com/NY/New-York/315-E-68th-St-10065/home/169603189,REBNY,HALS19917865,N,Y,40.7662371,-73.9596022
MLS Listing,,Single Family Residential,25 Bay 49 St,Brooklyn,NY,11214,799000,1,1.5,Brooklyn,615,3863,1910,76,1299,,Active,,,http://www.redfin.com/NY/Brooklyn/25-Bay-49th-St-11214/home/40849130,BNYMLS,434387,N,Y,40.5888559,-73.9844033
MLS Listing,,Condo/Co-op,Unit at 57 Thompson St,New York,NY,10013,799000,1,1,Soho,,,,76,,,Active,,,http://www.redfin.com/NY/New-York/57-Thompson-St-10012/home/45141082,REBNY,DEGI4001709,N,Y,40.7241044,-74.0035529
MLS Listing,,Condo/Co-op,Unit at 190 E 72nd St,New York,NY,10021,799000,2,2,Upper East Side,,,,78,,,Active,,,http://www.redfin.com/NY/New-York/190-E-72nd-St-10021/home/160671301,REBNY,UCOM1814199,N,Y,40.7698703,-73.9611404
MLS Listing,,Condo/Co-op,109-09 15 Ave Unit N106,College Point,NY,11356,799000,2,2,Waterfront Resort Inc.,1039,,2019,79,769,450,Active,,,http://www.redfin.com/NY/College-Point/10909-15th-Ave-11356/unit-N106/home/169583609,MLSLI,3175841,N,Y,40.7841619,-73.8570221
MLS Listing,,Condo/Co-op,35-08 146 St Unit 11B,Flushing,NY,11354,793200,2,2,35-02 Development Llc,,,2019,79,,411,Active,,,http://www.redfin.com/NY/Flushing/35-08-146th-St-11354/unit-11B/home/169582866,MLSLI,3175738,N,Y,40.7658289,-73.821138
MLS Listing,,Condo/Co-op,35-08 146 St Unit 11D,Flushing,NY,11354,793200,2,2,35-02 Development Llc,,,2019,79,,411,Active,,,http://www.redfin.com/NY/Flushing/35-08-146th-St-11354/unit-11D/home/169582848,MLSLI,3175734,N,Y,40.7658289,-73.821138
MLS Listing,,Condo/Co-op,Unit at 477 Fdr Dr,New York,NY,10002,775000,2,1,Lower East Side,,,,80,,,Active,,,http://www.redfin.com/NY/New-York/477-FDR-Dr-10002/home/169568429,REBNY,LOHO104916,N,Y,40.7140278,-73.9772592
MLS Listing,,Condo/Co-op,Unit at 245 E 93rd St,New York,NY,10128,795000,1,1,Upper East Side,,,,80,,,Active,,,http://www.redfin.com/NY/New-York/245-E-93rd-St-10128/home/45293965,REBNY,DEGI4003252,N,Y,40.7828524,-73.9486347
MLS Listing,,Condo/Co-op,3111 Ocean Pkwy Unit 10E,Brooklyn,NY,11235,780000,2,2,Brooklyn,950,,1988,81,821,,Active,,,http://www.redfin.com/NY/Brooklyn/3111-Ocean-Pkwy-11235/unit-10E/home/40907026,BNYMLS,434267,N,Y,40.5752502,-73.9680347
MLS Listing,,Condo/Co-op,Unit at 430 E 56th St,New York,NY,10022,779000,1,1,Middle East Side,,,,81,,,Active,,,http://www.redfin.com/NY/New-York/430-E-56th-St-10022/home/45327117,REBNY,ASHW2806198,N,Y,40.7569833,-73.9624557
MLS Listing,,Condo/Co-op,Unit at 331 Sackett St,Brooklyn,NY,11231,765000,1,1,Carroll Gardens,,,,81,,,Active,,,http://www.redfin.com/NY/Brooklyn/331-Sackett-St-11231/home/40647692,REBNY,CORC5918338,N,Y,40.6828074,-73.9943202
MLS Listing,,Condo/Co-op,Unit at 4 -74 48th Ave,Queens,NY,11109,775000,2,2,Long Island City,,,,81,,,Active,,,http://www.redfin.com/NY/Long-Island-City/4-47-48th-Ave-11109/home/169557253,REBNY,MOSP1855875,N,Y,40.7446166,-73.9570912
MLS Listing,,Multi-Family (2-4 Unit),71-05 71th St,Glendale,NY,11385,779000,2,2,Glendale,1344,2000,1920,81,580,,Active,,,http://www.redfin.com/NY/Flushing/71-05-71st-St-11385/home/20878755,MLSLI,3175321,N,Y,40.704411,-73.880773
MLS Listing,,Condo/Co-op,Unit at 1160 Third Ave,New York,NY,10021,799000,2,1,Upper East Side,,,,81,,,Active,,,http://www.redfin.com/NY/New-York/1160-Third-Ave-10065/home/169551450,REBNY,DEGI4003062,N,Y,40.7671346,-73.9629075
MLS Listing,,Condo/Co-op,Unit at 288 Fifth Ave,Brooklyn,NY,11215,750000,2,1,Park Slope,,,,82,,,Active,,,http://www.redfin.com/NY/Brooklyn/288-5th-Ave-11215/home/40648167,REBNY,CORC5898114,N,Y,40.673949,-73.982648
MLS Listing,,Condo/Co-op,143-28 41 Ave Unit 7C,Flushing,NY,11355,750000,2,2,Stern 88 Condo,,,2016,82,,435,Active,,,http://www.redfin.com/NY/Flushing/143-28-41st-Ave-11355/unit-7C/home/144212636,MLSLI,3174945,N,Y,40.759914,-73.822716
MLS Listing,,Condo/Co-op,Unit at 310 W 56th St,New York,NY,10019,770000,1,1,Middle West Side,,,,82,,,Active,,,http://www.redfin.com/NY/New-York/310-W-56th-St-10019/home/169522295,REBNY,CAME1212,N,Y,40.7661814,-73.9841508
MLS Listing,,Condo/Co-op,Unit at 199 Bowery,New York,NY,10002,770000,0,1,Lower East Side,,,,83,,,Active,,,http://www.redfin.com/NY/New-York/199-Bowery-10002/home/45189219,REBNY,SEEK1855105,N,Y,40.7209818,-73.9931495
MLS Listing,,Condo/Co-op,Unit at 129 Columbia Hts,Brooklyn,NY,11201,799000,2,1,Brooklyn Heights,,,,84,,,Active,,,http://www.redfin.com/NY/Brooklyn/129-Columbia-Hts-11201/home/59291492,REBNY,UCOM1088022,N,Y,40.6983009,-73.9961367
MLS Listing,,Condo/Co-op,Unit at 216 Columbia St,Brooklyn,NY,11231,800000,2,1,Columbia Street W D,,,,84,,,Active,,,http://www.redfin.com/NY/Brooklyn/216-Columbia-St-11231/home/40640532,REBNY,DEGI3995663,N,Y,40.6847526,-74.0031026
MLS Listing,,Vacant Land,382 Maryland Ave,Staten Island,NY,10305,799900,0,,Rosebank,,6209,,84,,,Active,,,http://www.redfin.com/NY/Staten-Island/382-Maryland-Ave-10305/home/169499873,SIBORMLS,1133208,N,Y,40.6094542,-74.0733635
MLS Listing,,Condo/Co-op,41-25 Kissena Blvd Unit 2 TT,Flushing,NY,11355,778000,2,1,Condo,,,1950,86,,705,Active,,,http://www.redfin.com/NY/Flushing/4125-Kissena-Blvd-11355/unit-2-Tt/home/39805046,MLSLI,3174013,N,Y,40.7583488,-73.8283114
MLS Listing,,Condo/Co-op,Unit at 3 W 122nd St,New York,NY,10027,799000,2,1,Mt. Morris Park,,,,87,,,Active,,,http://www.redfin.com/NY/New-York/3-W-122nd-St-10027/home/45299059,REBNY,RUTE1855100,N,Y,40.805557,-73.945622
MLS Listing,,Townhouse,Unit at 139 W 85th St,New York,NY,10024,765000,1,1,Upper West Side,,,,87,,,Active,,,http://www.redfin.com/NY/New-York/139-W-85th-St-10024/home/45179284,REBNY,HALS19903972,N,Y,40.7866455,-73.974153
MLS Listing,,Townhouse,Unit at 2579 Frederick Douglass,New York,NY,10030,800000,2,1.5,West Harlem,,,,88,,,Active,,,http://www.redfin.com/NY/New-York/2579-Frederick-Douglass-Blvd-10030/home/169451205,REBNY,HALS19922101,N,Y,40.8183649,-73.9454799
MLS Listing,,Condo/Co-op,131-03 40th Rd Unit 17P,Flushing,NY,11354,770000,1,1,Condo,785,,2015,88,981,562,Active,,,http://www.redfin.com/NY/Flushing/13103-40-Rd-11354/unit-17P/home/144212791,MLSLI,3173518,N,Y,40.7565824,-73.8374314
MLS Listing,,Condo/Co-op,Unit at 5 Court Sq,Queens,NY,11101,780000,1,1,Long Island City,,,,88,,,Active,,,http://www.redfin.com/NY/Long-Island-City/5-Court-Sq-W-11101/home/169449063,REBNY,MOSP1849637,N,Y,40.7466114,-73.9428052
MLS Listing,,Condo/Co-op,Unit at 215 W 75th St,New York,NY,10023,799999,1,1,Upper West Side,,,,88,,,Active,,,http://www.redfin.com/NY/New-York/215-W-75th-St-10023/home/45334208,REBNY,DEGI3995646,N,Y,40.7810583,-73.9808407
MLS Listing,,Condo/Co-op,Unit at 66 N 1st St,Brooklyn,NY,11249,779000,0,1,Williamsburg,,,,88,,,Active,,,http://www.redfin.com/NY/Brooklyn/66-N-1st-St-11249/home/40923615,REBNY,UCOM769477,N,Y,40.7164377,-73.9644072
MLS Listing,,Condo/Co-op,Unit at 225 Rector Pl,New York,NY,10280,780000,0,1,Battery Park City,,,,88,,,Active,,,http://www.redfin.com/NY/New-York/225-Rector-Pl-10280/home/45217977,REBNY,DEGI3994665,N,Y,40.7093441,-74.016035
MLS Listing,,Condo/Co-op,42-15 81st St Unit 2S,Elmhurst,NY,11373,799000,2,2,Elmhurst Tower,1200,1200,1989,89,666,470,Active,,,http://www.redfin.com/NY/Elmhurst/42-15-81st-St-11373/unit-2S/home/20927961,MLSLI,3173386,N,Y,40.7427474,-73.883968
MLS Listing,,Condo/Co-op,Unit at 10 Nevins St,Brooklyn,NY,11217,800000,0,1,Downtown Brooklyn,,,,89,,,Active,,,http://www.redfin.com/NY/Brooklyn/10-Nevins-St-11217/home/169439686,REBNY,HALS18789399,N,Y,40.6885353,-73.9813632
MLS Listing,,Condo/Co-op,Unit at 414 E 52nd St,New York,NY,10022,775000,1,1,Middle East Side,,,,89,,,Active,,,http://www.redfin.com/NY/New-York/414-E-52nd-St-10022/home/45181145,REBNY,ASHW2799931,N,Y,40.7545386,-73.9644813
MLS Listing,,Condo/Co-op,Unit at 61 E 77th St,New York,NY,10075,750000,1,2,Upper East Side,,,,89,,,Active,,,http://www.redfin.com/NY/New-York/61-E-77th-St-10075/home/45337886,REBNY,UCOM28047,N,Y,40.7749467,-73.9622031
MLS Listing,,Single Family Residential,2281 E 26 St,Brooklyn,NY,11229,775000,2,1,Brooklyn,1200,1600,,90,646,,Active,,,http://www.redfin.com/NY/Brooklyn/2281-E-26th-St-11229/home/40864156,BNYMLS,434064,N,Y,40.595979,-73.9446059
MLS Listing,,Condo/Co-op,Unit at 111 Fourth Ave,New York,NY,10003,795000,0,1,Central Village,,,,90,,,Active,,,http://www.redfin.com/NY/New-York/111-4th-Ave-10003/home/45172895,REBNY,DEGI3988523,N,Y,40.7323682,-73.989885
MLS Listing,,Condo/Co-op,Unit at 125 Eastern Pkwy,Brooklyn,NY,11238,775000,2,2,Prospect Heights,,,,90,,,Active,,,http://www.redfin.com/NY/Brooklyn/125-Eastern-Pkwy-11238/home/169429111,REBNY,CORC5897368,N,Y,40.67261,-73.964711
MLS Listing,,Condo/Co-op,Unit at 100 W 57th St,New York,NY,10019,795000,2,2,Middle West Side,,,,90,,,Active,,,http://www.redfin.com/NY/New-York/100-W-57th-St-10019/home/115069411,REBNY,SOTH2799668,N,Y,40.7641922,-73.9776198
MLS Listing,,Condo/Co-op,Unit at 325 E 79th St,New York,NY,10075,789000,2,1,Upper East Side,,,,90,,,Active,,,http://www.redfin.com/NY/New-York/325-E-79th-St-10075/home/45162031,REBNY,UCOM183559,N,Y,40.7729553,-73.9535736
MLS Listing,,Condo/Co-op,16-70 Norman St Unit 3F,Ridgewood,NY,11385,779000,2,1,Ridgewood/ Bushwick,940,,1990,91,829,525,Active,,,http://www.redfin.com/NY/Ridgewood/1670-Norman-St-11385/unit-3F/home/20881637,MLSLI,3172691,N,Y,40.6966434,-73.9015173
MLS Listing,,Condo/Co-op,Unit at 205 E 63rd St,New York,NY,10065,775000,1,1,Upper East Side,,,,91,,,Active,,,http://www.redfin.com/NY/New-York/205-E-63rd-St-10065/home/109997373,REBNY,UCOM1516560,N,Y,40.7640501,-73.964336
MLS Listing,,Condo/Co-op,Unit at 1129 Halsey St,Brooklyn,NY,11207,765000,2,2,Bushwick,,,,91,,,Active,,,http://www.redfin.com/NY/Brooklyn/1129-Halsey-St-11207/home/169420721,REBNY,CORC5917759,N,Y,40.689744,-73.9116279
MLS Listing,,Condo/Co-op,Unit at 415 E 52nd St,New York,NY,10022,800000,1,1,Middle East Side,,,,91,,,Active,,,http://www.redfin.com/NY/New-York/415-E-52nd-St-10022/home/45209496,REBNY,CORC5903982,N,Y,40.7548672,-73.964448
MLS Listing,,Condo/Co-op,Unit at 1 Irving Pl,New York,NY,10003,750000,0,1,Gramercy Park,,,,91,,,Active,,,http://www.redfin.com/NY/New-York/1-Irving-Pl-10003/home/45252880,REBNY,UCOM1854331,N,Y,40.7349087,-73.9891288
MLS Listing,,Condo/Co-op,Unit at 2519 35th St,Queens,NY,11103,799000,1,1,Astoria,,,,91,,,Active,,,http://www.redfin.com/NY/Long-Island-City/25-19-35th-St-11103/home/45109082,REBNY,DEGI3987680,N,Y,40.768841,-73.915027
MLS Listing,,Condo/Co-op,Unit at 323 W 11th St,New York,NY,10014,759000,1,1,West Village,,,,93,,,Active,,,http://www.redfin.com/NY/New-York/323-W-11th-St-10014/home/45143920,REBNY,DEGI3990607,N,Y,40.7358481,-74.0074023
MLS Listing,,Condo/Co-op,Unit at 116 E 66th St,New York,NY,10065,769000,1,1,Upper East Side,,,,94,,,Active,,,http://www.redfin.com/NY/New-York/116-E-66th-St-10065/home/108529439,REBNY,UCOM30707,N,Y,40.7667268,-73.965816
MLS Listing,,Condo/Co-op,Unit at 16 W 16th St,New York,NY,10011,750000,1,1,Flatiron,,,,94,,,Active,,,http://www.redfin.com/NY/New-York/16-W-16th-St-10011/home/45145094,REBNY,DEGI3988963,N,Y,40.737402,-73.99318
MLS Listing,,Condo/Co-op,Unit at 36 Sutton Pl S,New York,NY,10022,795000,2,2,Middle East Side,,,,94,,,Active,,,http://www.redfin.com/NY/New-York/36-Sutton-Pl-S-10022/home/115828631,REBNY,RUTE1850163,N,Y,40.7563196,-73.9618588
MLS Listing,,Single Family Residential,184-49 Hovenden Rd,Jamaica Estates,NY,11432,769000,2,1,Jamaica Estates,,4000,1950,94,,,Active,,,http://www.redfin.com/NY/Jamaica/184-49-Hovenden-Rd-11432/home/20759704,MLSLI,3172077,N,Y,40.720009,-73.779021
MLS Listing,,Single Family Residential,2539 Benson Ave,Brooklyn,NY,11214,799000,2,2,Brooklyn,992,1280,1950,94,805,,Active,,,http://www.redfin.com/NY/Brooklyn/2539-Benson-Ave-11214/home/40848326,BNYMLS,433964,N,Y,40.595655,-73.987606
MLS Listing,,Condo/Co-op,Unit at 400 W 58th St,New York,NY,10019,799000,1,1,Middle West Side,,,,94,,,Active,,,http://www.redfin.com/NY/New-York/400-W-58th-St-10019/home/45203979,REBNY,CORC5900739,N,Y,40.7685214,-73.9856512
MLS Listing,,Condo/Co-op,Unit at 150 W 51st St,New York,NY,10019,750000,1,1,Middle West Side,,,,95,,,Active,,,http://www.redfin.com/NY/New-York/150-W-51st-St-10019/home/45259137,REBNY,EMPI104246,N,Y,40.7612602,-73.9825875
MLS Listing,,Condo/Co-op,132-35 Sanford Ave Unit 2A,Flushing,NY,11355,799000,2,1,The Infinity 8 Condomini,,50000,1960,95,,465,Active,,,http://www.redfin.com/NY/Flushing/132-35A-Sanford-Ave-11355/unit-2A/home/92323898,MLSLI,3171762,N,Y,40.7552979,-73.8319807
MLS Listing,,Vacant Land,145 Androvette Ave,Staten Island,NY,10312,799900,0,,Huguenot,,15700,,96,,,Active,,,http://www.redfin.com/NY/Staten-Island/145-Androvette-Ave-10312/home/56068732,SIBORMLS,1132908,N,Y,40.5277664,-74.1901189
MLS Listing,,Condo/Co-op,Unit at 205 W End Ave,New York,NY,10023,789000,1,1,Upper West Side,,,,97,,,Active,,,http://www.redfin.com/NY/New-York/205-W-End-Ave-10023/home/169305174,REBNY,TRIP1853408,N,Y,40.778545,-73.9864464
MLS Listing,,Condo/Co-op,Unit at 21 -26 45th Rd,Queens,NY,11101,795000,1,1,Long Island City,,,,97,,,Active,,,http://www.redfin.com/NY/Unknown/21-17-45th-Rd-11101/home/148049907,REBNY,MOSP1853409,N,Y,40.74675,-73.947161
MLS Listing,,Condo/Co-op,Unit at 200 W 108th St,New York,NY,10025,799000,1,1,Upper West Side,,,,98,,,Active,,,http://www.redfin.com/NY/New-York/200-W-108th-St-10025/home/45318862,REBNY,BHSR19901611,N,Y,40.8017879,-73.9651719
MLS Listing,,Condo/Co-op,Unit at 333 E 43rd St,New York,NY,10017,795000,2,2,Middle East Side,,,,99,,,Active,,,http://www.redfin.com/NY/New-York/333-E-43rd-St-10017/home/45154890,REBNY,DEGI3977135,N,Y,40.7500244,-73.9702218
MLS Listing,,Condo/Co-op,Unit at 529 W 147th St,New York,NY,10031,799000,1,1.5,Hamilton Heights,,,,100,,,Active,,,http://www.redfin.com/NY/New-York/529-W-147th-St-10031/home/45138918,REBNY,KWTL1848759,N,Y,40.827313,-73.947991
MLS Listing,,Condo/Co-op,Unit at 320 W 19th St,New York,NY,10011,779000,1,1,Chelsea,,,,100,,,Active,,,http://www.redfin.com/NY/New-York/320-W-19th-St-10011/home/45144134,REBNY,DEGI3982397,N,Y,40.7431009,-74.0013931
MLS Listing,,Condo/Co-op,Unit at 203 W 87th St,New York,NY,10024,765000,2,1,Upper West Side,,,,100,,,Active,,,http://www.redfin.com/NY/New-York/203-W-87th-St-10024/home/169288792,REBNY,DEGI3982306,N,Y,40.7888184,-73.9749909
MLS Listing,,Condo/Co-op,Unit at 116 Covert St,Brooklyn,NY,11207,799000,2,2,Bushwick,,,,101,,,Active,,,http://www.redfin.com/NY/Brooklyn/116-Covert-St-11207/home/112386169,REBNY,UCOM1852972,N,Y,40.688009,-73.910269
MLS Listing,,Condo/Co-op,131-03 40 Rd Unit 9P,Flushing,NY,11354,759000,1,1,Skyview Grand Two,785,,2017,101,967,687,Active,,,http://www.redfin.com/NY/Flushing/13103-40-Rd-11354/unit-9P/home/144212754,MLSLI,3170320,N,Y,40.7565824,-73.8374314
MLS Listing,,Condo/Co-op,Unit at 196 E 75th St,New York,NY,10021,775000,1,1,Upper East Side,,,,102,,,Active,,,http://www.redfin.com/NY/New-York/196-E-75th-St-10021/home/45181915,REBNY,UCOM46455,N,Y,40.7717341,-73.9595938
MLS Listing,,Townhouse,5052 Francis Lewis Blvd,Oakland Gardens,NY,11364,759000,2,1.5,Oakland Gardens,,2425,,102,,,Active,,,http://www.redfin.com/NY/Oakland-Gardens/50-52-Francis-Lewis-Blvd-11364/home/20809796,MLSLI,3169831,N,Y,40.748792,-73.778723
MLS Listing,,Condo/Co-op,Unit at 200 E 90th St,New York,NY,10128,785000,1,1,Upper East Side,,,,103,,,Active,,,http://www.redfin.com/NY/New-York/200-E-90th-St-10128/home/169259483,REBNY,UCOM1852456,N,Y,40.7810682,-73.9519127
MLS Listing,,Condo/Co-op,Unit at 2 Sutton Pl S,New York,NY,10022,785000,1,1,Middle East Side,,,,103,,,Active,,,http://www.redfin.com/NY/New-York/2-Sutton-Pl-S-10022/home/169256782,REBNY,DEGI3977137,N,Y,40.757216,-73.961193
MLS Listing,,Condo/Co-op,Unit at 240 E 76th St,New York,NY,10021,769000,1,1,Upper East Side,,,,103,,,Active,,,http://www.redfin.com/NY/New-York/240-E-76th-St-10021/home/169255994,REBNY,ROSE1852096,N,Y,40.7714098,-73.9568334
MLS Listing,,Condo/Co-op,Unit at 190 E 72nd St,New York,NY,10021,799000,2,2,Upper East Side,,,,103,,,Active,,,http://www.redfin.com/NY/New-York/190-E-72nd-St-10021/home/169255992,REBNY,ASHW1447213,N,Y,40.7698703,-73.9611404
MLS Listing,,Condo/Co-op,Unit at 55 Avenue C,New York,NY,10009,795000,1,1,East Village,,,,103,,,Active,,,http://www.redfin.com/NY/New-York/55-Avenue-C-10009/home/45202020,REBNY,UCOM1733955,N,Y,40.7265999,-73.9790999
MLS Listing,,Condo/Co-op,Unit at 23 -43 31st Rd,Queens,NY,11106,780000,1,1,Astoria,,,,104,,,Active,,,http://www.redfin.com/NY/Queens/23-54-31st-Rd-11106/home/169253825,REBNY,TRIP1852142,N,Y,40.764865,-73.927619
MLS Listing,,Condo/Co-op,Unit at 23 -43 31st Rd,Queens,NY,11106,752000,1,1,Astoria,,,,104,,,Active,,,http://www.redfin.com/NY/Queens/23-54-31st-Rd-11106/home/169253824,REBNY,TRIP1852139,N,Y,40.764865,-73.927619
MLS Listing,,Condo/Co-op,Unit at 23 -43 31st Rd,Queens,NY,11106,790900,1,1,Astoria,,,,104,,,Active,,,http://www.redfin.com/NY/Queens/23-54-31st-Rd-11106/home/146859231,REBNY,TRIP1852125,N,Y,40.764865,-73.927619
MLS Listing,,Condo/Co-op,109-09 15 Ave Ph -S03,College Point,NY,11356,770000,1,1,Allura,762,,2019,104,1010,330,Active,,,http://www.redfin.com/NY/College-Point/10909-15th-Ave-11356/unit-S03/home/169253314,MLSLI,3169166,N,Y,40.7841619,-73.8570221
MLS Listing,,Condo/Co-op,Unit at 12 E 97th St,New York,NY,10029,795000,2,1,Upper East Side,,,,104,,,Active,,,http://www.redfin.com/NY/New-York/12-E-97th-St-10029/home/147154298,REBNY,CORC5897952,N,Y,40.7880445,-73.9544887
MLS Listing,,Condo/Co-op,Unit at 235 W 108th St,New York,NY,10025,790000,2,1,Upper West Side,,,,104,,,Active,,,http://www.redfin.com/NY/New-York/235-W-108th-St-10025/home/169250461,REBNY,HALS19867891,N,Y,40.8026976,-73.9664917
MLS Listing,,Multi-Family (2-4 Unit),53-98 63rd St,Maspeth,NY,11378,750000,2,3,Maspeth,,2000,1940,104,,,Active,,,http://www.redfin.com/NY/Flushing/53-98-63rd-St-11378/home/20911189,MLSLI,3168893,N,Y,40.729067,-73.903155
MLS Listing,,Condo/Co-op,Unit at 4 Lexington Ave,New York,NY,10010,790000,1,1,Gramercy Park,,,,105,,,Active,,,http://www.redfin.com/NY/New-York/4-Lexington-Ave-10010/home/45146155,REBNY,ASHW2772482,N,Y,40.7388198,-73.9855281
MLS Listing,,Condo/Co-op,109-09 15 Ave Unit N409,College Point,NY,11356,770000,1,1,Allura,980,,2019,105,786,425,Active,,,http://www.redfin.com/NY/College-Point/10909-15th-Ave-11356/unit-N409/home/169236615,MLSLI,3168766,N,Y,40.7841619,-73.8570221
MLS Listing,,Condo/Co-op,109-09 15 Ave Unit N201,College Point,NY,11356,781000,1,1,Allura,1084,,2019,105,720,470,Active,,,http://www.redfin.com/NY/College-Point/10909-15th-Ave-11356/unit-N201/home/169236356,MLSLI,3168748,N,Y,40.7841619,-73.8570221
MLS Listing,,Condo/Co-op,109-09 15 Ave Unit E310,College Point,NY,11356,796000,2,2,Allura,1116,,2019,105,713,484,Active,,,http://www.redfin.com/NY/College-Point/10909-15th-Ave-11356/unit-E310/home/169235859,MLSLI,3168729,N,Y,40.7841619,-73.8570221
MLS Listing,,Condo/Co-op,109-09 15 Ave Unit E202,College Point,NY,11356,751000,2,2,Allura,1113,,2019,105,675,482,Active,,,http://www.redfin.com/NY/College-Point/10909-15th-Ave-11356/unit-E202/home/169235804,MLSLI,3168724,N,Y,40.7841619,-73.8570221
MLS Listing,,Condo/Co-op,Unit at 15 W 72nd St,New York,NY,10023,770000,0,1,Upper West Side,,,,105,,,Active,,,http://www.redfin.com/NY/New-York/15-W-72nd-St-10023/home/45200261,REBNY,DEGI3970032,N,Y,40.7771759,-73.9768046
MLS Listing,,Condo/Co-op,Unit at 45 -16 83rd St,Queens,NY,11373,800000,2,2,Elmhurst,,,,108,,,Active,,,http://www.redfin.com/NY/Elmhurst/45-20-83rd-St-11373/home/163334360,REBNY,CORC5896267,N,Y,40.740757,-73.8828149
MLS Listing,,Condo/Co-op,Unit at 45 -16 83rd St,Queens,NY,11373,787630,2,2,Elmhurst,,,,108,,,Active,,,http://www.redfin.com/NY/Elmhurst/45-20-83rd-St-11373/home/146130279,REBNY,CORC5896277,N,Y,40.740757,-73.8828149
MLS Listing,,Condo/Co-op,Unit at 371 W 126th St,New York,NY,10027,795000,1,1.5,West Harlem,,,,108,,,Active,,,http://www.redfin.com/NY/New-York/371-W-126th-St-10027/home/144131948,REBNY,UCOM1851646,N,Y,40.8120285,-73.9529963
MLS Listing,,Condo/Co-op,Unit at 77 Bleecker St,New York,NY,10012,775000,1,1,Greenwich Village,,,,109,,,Active,,,http://www.redfin.com/NY/New-York/77-Bleecker-St-10012/home/45329175,REBNY,CORC5893655,N,Y,40.7267103,-73.9958678
MLS Listing,,Vacant Land,69 Vanderbilt Ave,Brooklyn,NY,11205,799000,0,,Clinton Hill,,1948,,109,,,Active,,,http://www.redfin.com/NY/Brooklyn/69-Vanderbilt-Ave-11205/home/40729790,SIBORMLS,1132555,N,Y,40.695677,-73.969998
MLS Listing,,Condo/Co-op,Unit at 25 Sutton Pl S,New York,NY,10022,795000,1,1,Middle East Side,,,,110,,,Active,,,http://www.redfin.com/NY/New-York/25-Sutton-Pl-S-10022/home/169205489,REBNY,SOTH2771528,N,Y,40.7566436,-73.960951
MLS Listing,,Townhouse,159-17 Powells Cove Blvd Unit Beechhurst,Whitestone,NY,11357,759000,2,2.5,Whitestone,,1600,1945,112,,,Active,,,http://www.redfin.com/NY/Flushing/159-17-Powells-Cove-Blvd-11357/home/20865922,MLSLI,3167000,N,Y,40.794539,-73.801667
MLS Listing,,Multi-Family (2-4 Unit),1358 Findlay Ave,Bronx,NY,10456,750000,0,,Bronx,2950,2182,2004,112,254,,Active,,,http://www.redfin.com/NY/The-Bronx/1358-Findlay-Ave-10456/home/44716377,HGMLS,5075101,N,Y,40.8366517,-73.9096886
MLS Listing,,Condo/Co-op,Unit at 215 W 105th St,New York,NY,10025,799000,2,1,Upper West Side,,,,116,,,Active,,,http://www.redfin.com/NY/New-York/215-W-105th-St-10025/home/45197195,REBNY,HALS19867831,N,Y,40.8001551,-73.9667851
MLS Listing,,Condo/Co-op,Unit at 382 Central Park W,New York,NY,10025,775000,0,1,Upper West Side,,,,116,,,Active,,,http://www.redfin.com/NY/New-York/382-Central-Park-W-10025/home/45133131,REBNY,DEGI3960247,N,Y,40.7935585,-73.9656011
MLS Listing,,Condo/Co-op,Unit at 225 Rector Pl,New York,NY,10280,790000,1,1,Battery Park City,,,,116,,,Active,,,http://www.redfin.com/NY/New-York/225-Rector-Pl-10280/home/45218607,REBNY,UCOM1103353,N,Y,40.7093441,-74.016035
MLS Listing,,Condo/Co-op,400 E 56th St Unit 38J,Manhattan,NY,10022,775000,1,1.5,Plaza 400,1040,,1960,117,745,,Active,,,http://www.redfin.com/NY/New-York/400-E-56th-St-10022/unit-38J/home/169098591,MLSLI,3165429,N,Y,40.7572235,-73.9630107
MLS Listing,,Condo/Co-op,Unit at 70 Washington St,Brooklyn,NY,11201,799000,1,1,Dumbo,,,,118,,,Active,,,http://www.redfin.com/NY/Brooklyn/70-Washington-St-11201/home/40644037,REBNY,SOTH2768593,N,Y,40.7020292,-73.9898445
MLS Listing,,Condo/Co-op,Unit at 227 E 87th St,New York,NY,10128,750000,2,2,Upper East Side,,,,118,,,Active,,,http://www.redfin.com/NY/New-York/227-E-87th-St-10128/home/45187145,REBNY,HALS19840165,N,Y,40.7791922,-73.9522501
MLS Listing,,Condo/Co-op,Unit at 539 Hart St,Brooklyn,NY,11221,795000,2,1,Bushwick,,,,118,,,Active,,,http://www.redfin.com/NY/Brooklyn/539-Hart-St-11221/home/169088861,REBNY,UCOM1849464,N,Y,40.696679,-73.930062
MLS Listing,,Condo/Co-op,Unit at 403 E 62nd St,New York,NY,10065,800000,2,1.5,Upper East Side,,,,118,,,Active,,,http://www.redfin.com/NY/New-York/403-E-62nd-St-10065/home/169087781,REBNY,UCOM1849455,N,Y,40.7614157,-73.9599761
MLS Listing,,Condo/Co-op,Unit at 304 E 65th St,New York,NY,10065,800000,1,1,Upper East Side,,,,122,,,Active,,,http://www.redfin.com/NY/New-York/304-E-65th-St-10065/home/45287990,REBNY,RUTE1848876,N,Y,40.7640326,-73.9614858
MLS Listing,,Condo/Co-op,Unit at 2351 Adam Clayton Powell,New York,NY,10030,788000,1,1,Harlem,,,,122,,,Active,,,http://www.redfin.com/NY/New-York/2351-Adam-Clayton-Powell-Junior-Blvd-10030/home/169053121,REBNY,HALS19342081,N,Y,40.8168816,-73.9419981
MLS Listing,,Condo/Co-op,Unit at 2351 Adam Clayton Powell,New York,NY,10030,798000,1,1,Harlem,,,,122,,,Active,,,http://www.redfin.com/NY/New-York/2351-Adam-Clayton-Powell-Junior-Blvd-10030/home/169051720,REBNY,HALS18671635,N,Y,40.8168816,-73.9419981
MLS Listing,,Condo/Co-op,Unit at 2351 Adam Clayton Powell,New York,NY,10030,750000,1,1,Harlem,,,,122,,,Active,,,http://www.redfin.com/NY/New-York/2351-Adam-Clayton-Powell-Junior-Blvd-10030/home/169051684,REBNY,HALS18648154,N,Y,40.8168816,-73.9419981
MLS Listing,,Condo/Co-op,Unit at 220 W 111th St,New York,NY,10026,785000,2,2,West Harlem,,,,123,,,Active,,,http://www.redfin.com/NY/New-York/220-W-111th-St-10026/home/45196417,REBNY,UCOM313075,N,Y,40.8004439,-73.9563944
MLS Listing,,Condo/Co-op,Unit at 111 Montgomery St,Brooklyn,NY,11215,799000,1,1,Crown Heights,,,,123,,,Active,,,http://www.redfin.com/NY/Brooklyn/111-Montgomery-St-11225/home/169042187,REBNY,UCOM1848725,N,Y,40.6665414,-73.9606286
MLS Listing,,Condo/Co-op,Unit at 477 Fdr Dr,New York,NY,10002,775000,2,1,Lower East Side,,,,123,,,Active,,,http://www.redfin.com/NY/New-York/477-FDR-Dr-10002/home/169039982,REBNY,LOHO102672,N,Y,40.7140278,-73.9772592
MLS Listing,,Condo/Co-op,Unit at 345 E 80th St,New York,NY,10021,799000,1,1,Upper East Side,,,,124,,,Active,,,http://www.redfin.com/NY/New-York/345-E-80th-St-10075/home/45295000,REBNY,DEGI3945183,N,Y,40.7734898,-73.9524729
MLS Listing,,Condo/Co-op,Unit at 310 E 46th St,New York,NY,10017,799000,1,1,Middle East Side,,,,124,,,Active,,,http://www.redfin.com/NY/New-York/310-E-46th-St-10017/home/45154958,REBNY,UCOM187537,N,Y,40.7520278,-73.9698349
MLS Listing,,Condo/Co-op,Unit at 140 W End Ave,New York,NY,10023,759000,1,1,Upper West Side,,,,124,,,Active,,,http://www.redfin.com/NY/New-York/140-W-End-Ave-10023/home/168984137,REBNY,HALS19842724,N,Y,40.776076,-73.986482
MLS Listing,,Condo/Co-op,144-23 Barclay Ave Unit 6B,Flushing,NY,11355,759000,2,2,N/A,,,1988,125,,495,Active,,,http://www.redfin.com/NY/Flushing/144-23-Barclay-Ave-11355/unit-6B/home/20855312,MLSLI,3163049,N,Y,40.7601646,-73.8203563
MLS Listing,,Condo/Co-op,144-77 Barclay Ave #7,Flushing,NY,11355,750000,2,2,The Beacon At Barclay,,,2009,125,,396,Active,,,http://www.redfin.com/NY/Flushing/144-77-Barclay-Ave-11355/unit-7/home/169197300,MLSLI,3163015,N,Y,40.7606431,-73.8184493
MLS Listing,,Condo/Co-op,Unit at 171 Concord St,Brooklyn,NY,11201,769000,1,1,Brooklyn,,,,126,,,Active,,,http://www.redfin.com/NY/Brooklyn/171-Concord-St-11201/home/168958878,REBNY,UCOM1847862,N,Y,40.6977683,-73.9843688
MLS Listing,,Condo/Co-op,2131 Ocean Ave Unit 6C,Brooklyn,NY,11229,788000,2,2,Brooklyn,1160,,2019,126,679,,Active,January-18-2020 12:00 PM,January-18-2020 03:00 PM,http://www.redfin.com/NY/Brooklyn/2131-Ocean-Ave-11229/unit-6C/home/168962675,BNYMLS,433117,N,Y,40.609826,-73.952993
MLS Listing,,Condo/Co-op,Unit at 67 E 11th St,New York,NY,10003,799000,1,1,Central Village,,,,127,,,Active,,,http://www.redfin.com/NY/New-York/67-E-11th-St-10003/home/160692612,REBNY,DEGI3945584,N,Y,40.7328398,-73.9917774
MLS Listing,,Condo/Co-op,Unit at 148 West St,Brooklyn,NY,11222,795000,1,1,Green Point,,,,128,,,Active,,,http://www.redfin.com/NY/Brooklyn/148-West-St-11222/home/168943752,REBNY,BOLD151262,N,Y,40.7321309,-73.9594714
MLS Listing,,Condo/Co-op,Unit at 88 Bleecker St,New York,NY,10012,789000,1,1,Noho,,,,129,,,Active,,,http://www.redfin.com/NY/New-York/88-Bleecker-St-10012/home/45172425,REBNY,HALS19841882,N,Y,40.7266914,-73.9965334
MLS Listing,,Condo/Co-op,Unit at 2218 Jackson Ave,Queens,NY,11101,795000,0,1,Long Island City,,,,129,,,Active,,,http://www.redfin.com/NY/Long-Island-City/2218-Jackson-Ave-11101/home/168935133,REBNY,HALS19067968,N,Y,40.7452362,-73.946935
MLS Listing,,Condo/Co-op,Unit at 440 E 79th St,New York,NY,10021,799000,1,1,Upper East Side,,,,129,,,Active,,,http://www.redfin.com/NY/New-York/440-E-79th-St-10075/home/144319707,REBNY,CITI5879398,N,Y,40.7715364,-73.9513203
MLS Listing,,Condo/Co-op,Unit at 166 E 63rd St,New York,NY,10065,795000,1,1,Upper East Side,,,,130,,,Active,,,http://www.redfin.com/NY/New-York/166-E-63rd-St-10065/home/45284249,REBNY,BHSR19807134,N,Y,40.7640866,-73.9651703
MLS Listing,,Condo/Co-op,Unit at 529 W 147th St,New York,NY,10031,765000,2,2,Hamilton Heights,,,,130,,,Active,,,http://www.redfin.com/NY/New-York/529-W-147th-St-10031/home/45138938,REBNY,ANCH455452,N,Y,40.827313,-73.947991
MLS Listing,,Condo/Co-op,131-05 40th Rd Unit 10R,Flushing,NY,11354,768000,1,1,Grand At Skyview Parc,734,,2017,131,1046,664,Active,,,http://www.redfin.com/NY/Flushing/13105-40-Rd-11354/unit-10R/home/144212664,MLSLI,3161375,N,Y,40.7571799,-73.83395
MLS Listing,,Condo/Co-op,Unit at 350 W 57th St,New York,NY,10023,765000,1,1,Middle West Side,,,,132,,,Active,,,http://www.redfin.com/NY/New-York/350-W-57th-St-10019/home/45262722,REBNY,BOND1593750,N,Y,40.767514,-73.9852421
MLS Listing,,Condo/Co-op,Unit at 510 E 84th St,New York,NY,10028,750000,2,2,Upper East Side,,,,132,,,Active,,,http://www.redfin.com/NY/New-York/510-E-84th-St-10028/home/168867091,REBNY,BHSR19652879,N,Y,40.7741421,-73.9473251
MLS Listing,,Condo/Co-op,Unit at 70 Remsen St,Brooklyn,NY,11201,785000,1,1,Brooklyn Heights,,,,132,,,Active,,,http://www.redfin.com/NY/Brooklyn/70-Remsen-St-11201/home/40647203,REBNY,BHSR19837134,N,Y,40.6943112,-73.9957427
MLS Listing,,Condo/Co-op,Unit at 150 E 93rd St,New York,NY,10128,769000,2,1,Upper East Side,,,,133,,,Active,,,http://www.redfin.com/NY/New-York/150-E-93rd-St-10128/home/168862520,REBNY,DEGI3932877,N,Y,40.7836666,-73.9522501
MLS Listing,,Condo/Co-op,Unit at 1776 Broadway,Brooklyn,NY,11207,799000,1,2,Brooklyn,,,,133,,,Active,,,http://www.redfin.com/NY/Brooklyn/1776-Broadway-11207/home/166752688,REBNY,CORC5877689,N,Y,40.6823576,-73.9098264
MLS Listing,,Condo/Co-op,Unit at 9 W 10th St,New York,NY,10011,799000,0,1,Greenwich Village,,,,136,,,Active,,,http://www.redfin.com/NY/New-York/9-W-10th-St-10011/home/168841345,REBNY,UCOM190133,N,Y,40.733848,-73.9960648
MLS Listing,,Condo/Co-op,140-21 32 Ave Unit 2AN,Flushing,NY,11354,798000,2,2,N/A,965,,2009,139,827,,Active,,,http://www.redfin.com/NY/Flushing/14021-32nd-Ave-11354/unit-2AN/home/28524014,MLSLI,3159292,N,Y,40.7691076,-73.82784
MLS Listing,,Condo/Co-op,131-05 40th Rd Unit 11G,Flushing,NY,11354,755000,1,1,Skyview Grand One,892,,2017,140,846,668,Active,,,http://www.redfin.com/NY/Flushing/13105-40-Rd-11354/unit-11G/home/113909695,MLSLI,3159062,N,Y,40.7571799,-73.83395
MLS Listing,,Condo/Co-op,Unit at 406 Seventh Ave,Brooklyn,NY,11215,795000,1,1,Park Slope,,,,146,,,Active,,,http://www.redfin.com/NY/Brooklyn/406-7th-Ave-11215/home/168691150,REBNY,STRI1844277,N,Y,40.6646844,-73.9837146
MLS Listing,,Condo/Co-op,131-03 40 Rd Unit 9R,Flushing,NY,11354,795000,1,1,0,756,,2017,152,1052,631,Active,,,http://www.redfin.com/NY/Flushing/13103-40-Rd-11354/unit-9R/home/114031536,MLSLI,3155968,N,Y,40.7565824,-73.8374314
MLS Listing,,Condo/Co-op,271-10 Grand Central Park Unit 32K,Floral Park,NY,11005,770000,2,2.5,Building 1,1550,,1975,154,497,,Active,,,http://www.redfin.com/NY/Queens/271-10-Grand-Central-Pkwy-11005/unit-32K/home/168641259,MLSLI,3155201,N,Y,40.7574839,-73.7138635
MLS Listing,,Condo/Co-op,Unit at 41 Newel St,Brooklyn,NY,11222,775000,1,1,Green Point,,,,156,,,Active,,,http://www.redfin.com/NY/Brooklyn/41-Newel-St-11222/home/168635544,REBNY,CITI5847749,N,Y,40.723923,-73.9470754
MLS Listing,,Single Family Residential,,Whitestone,NY,11357,799000,1,1,Cross Island Pkwy,,3640,1915,158,,,Active,,,http://www.redfin.com/NY/Flushing/Undisclosed-address-11357/home/20860544,MLSLI,3154462,N,Y,40.783594,-73.808867
MLS Listing,,Condo/Co-op,Unit at 332 E 84th St,New York,NY,10028,795000,2,1,Upper East Side,,,,158,,,Active,,,http://www.redfin.com/NY/New-York/332-E-84th-St-10028/home/108529190,REBNY,CORC5849051,N,Y,40.7757812,-73.9513891
MLS Listing,,Condo/Co-op,Unit at 309 Ocean Pkwy,Brooklyn,NY,11218,755000,2,2,Kensington,,,,159,,,Active,,,http://www.redfin.com/NY/Brooklyn/309-Ocean-Pkwy-11218/home/168612236,REBNY,CORC5851517,N,Y,40.641855,-73.973161
MLS Listing,,Townhouse,25-19 College Point Blvd,College Point,NY,11356,799000,2,1,College Point,,2519,1950,159,,,Active,,,http://www.redfin.com/NY/College-Point/2519-College-Point-BLVD-11356/home/168611975,MLSLI,3154196,N,Y,40.7901266,-73.8477874
MLS Listing,,Condo/Co-op,Unit at 150 E 85th St,New York,NY,10028,770000,1,1,Upper East Side,,,,160,,,Active,,,http://www.redfin.com/NY/New-York/150-E-85th-St-10028/home/45132019,REBNY,PLAZ1841749,N,Y,40.7785105,-73.9559544
MLS Listing,,Townhouse,Unit at 558 W 150th St,New York,NY,10031,775000,1,1,Harlem,,,,160,,,Active,,,http://www.redfin.com/NY/New-York/558-W-150th-St-10031/home/168400538,REBNY,HALS19341069,N,Y,40.8290584,-73.9472562
MLS Listing,,Condo/Co-op,Unit at 210 E 47th St,New York,NY,10017,798800,1,1,Middle East Side,,,,164,,,Active,,,http://www.redfin.com/NY/New-York/210-E-47th-St-10017/home/45279263,REBNY,DEGI3895891,N,Y,40.7535482,-73.971685
MLS Listing,,Condo/Co-op,635 W 42nd St Unit 8C,New York,NY,10036,750000,1,1,New York,696,,2007,165,1078,,Active,,,http://www.redfin.com/NY/New-York/635-W-42nd-St-10036/unit-8C/home/45191880,HGMLS,5009866,N,Y,40.7617008,-73.9996228
MLS Listing,,Condo/Co-op,Unit at 200 E 16th St,New York,NY,10003,760000,1,1,Gramercy Park,,,,165,,,Active,,,http://www.redfin.com/NY/New-York/200-E-16th-St-10003/home/45176059,REBNY,UCOM88800,N,Y,40.7344134,-73.9860577
MLS Listing,,Condo/Co-op,Unit at 10 Park Ave,New York,NY,10016,759000,1,1,Murray Hill Kips Bay,,,,166,,,Active,,,http://www.redfin.com/NY/New-York/10-Park-Ave-10016/home/45145862,REBNY,CCRI1840438,N,Y,40.7477195,-73.9813083
MLS Listing,,Condo/Co-op,Unit at 150 W 56th St,New York,NY,10019,750000,0,1,Middle West Side,,,,166,,,Active,,,http://www.redfin.com/NY/New-York/150-W-56th-St-10019/home/45259938,REBNY,DYNA96067,N,Y,40.7642467,-73.9797507
MLS Listing,,Condo/Co-op,31 Hylan Blvd Unit 12D,Staten  Island,NY,10305,799000,2,2,Staten  Island,1155,,1987,166,692,,Active,,,http://www.redfin.com/NY/Staten-Island/31-Hylan-Blvd-10305/unit-12D/home/56110703,BNYMLS,432117,N,Y,40.6151849,-74.0646359
MLS Listing,,Condo/Co-op,2540 Shore Blvd Unit 3D,Astoria,NY,11102,779000,2,2,Shore Towers Condominium,903,,1992,167,863,593,Active,January-19-2020 03:00 PM,January-19-2020 05:00 PM,http://www.redfin.com/NY/LONG-ISLAND-CITY/2540-SHORE-BLVD-11102/unit-3D/home/20944569,MLSLI,3151601,N,Y,40.776074,-73.929051
MLS Listing,,Condo/Co-op,Unit at 150 W 56th St,New York,NY,10019,775000,1,1,Middle West Side,,,,171,,,Active,,,http://www.redfin.com/NY/New-York/150-156-W-56th-St-10019/home/45260005,REBNY,DOMU1839542,N,Y,40.7642467,-73.9797507
MLS Listing,,Condo/Co-op,Unit at 530 Grand St,New York,NY,10002,759000,2,1,Lower East Side,,,,172,,,Active,,,http://www.redfin.com/NY/New-York/530-Grand-St-10002/home/167933140,REBNY,LOHO98209,N,Y,40.7147871,-73.9809766
MLS Listing,,Condo/Co-op,Unit at 180 E 79th St,New York,NY,10075,800000,0,1.5,Upper East Side,,,,173,,,Active,,,http://www.redfin.com/NY/New-York/180-E-79th-St-10075/home/142109558,REBNY,UCOM473496,N,Y,40.7743228,-73.9579991
MLS Listing,,Condo/Co-op,80 Bay Street Lndg Unit 5p,Staten Island,NY,10301,799000,2,2,St. George,1432,1432,1986,174,558,937,Active,,,http://www.redfin.com/NY/Staten-Island/80-Bay-St-Lndg-10301/unit-5P/home/56029367,SIBORMLS,1130852,N,Y,40.6391529,-74.0739812
MLS Listing,,Condo/Co-op,Unit at 30 Beekman Pl,New York,NY,10022,795000,1,2,Middle East Side,,,,175,,,Active,,,http://www.redfin.com/NY/New-York/30-Beekman-Pl-10022/home/147405829,REBNY,CORC5837861,N,Y,40.7537896,-73.9646253
MLS Listing,,Single Family Residential,3010 Young Ave,Bronx,NY,10469,799000,2,1,Bronx,,5000,1920,178,,,Active,,,http://www.redfin.com/NY/The-Bronx/3010-Young-Ave-10469/home/44781520,MLSLI,3148816,N,Y,40.869812,-73.847672
MLS Listing,,Condo/Co-op,Unit at 135 E 54th St,New York,NY,10022,759000,1,1,Middle West Side,,,,178,,,Active,,,http://www.redfin.com/NY/New-York/135-E-54th-St-10022/home/45277990,REBNY,DEGI3878300,N,Y,40.7592574,-73.970743
MLS Listing,,Condo/Co-op,Unit at 55 E 65th St,New York,NY,10065,800000,1,1,Upper East Side,,,,179,,,Active,,,http://www.redfin.com/NY/New-York/55-E-65th-St-10065/home/105884046,REBNY,CORC5829411,N,Y,40.7669715,-73.9674377
MLS Listing,,Condo/Co-op,13621 Latimer Pl Unit 4D,Flushing,NY,11354,780000,2,2,Parkside Tower Condo,,,2016,181,,579,Active,,,http://www.redfin.com/NY/Flushing/136-21-Latimer-Pl-11354/unit-4D/home/144212525,MLSLI,3147574,N,Y,40.7669399,-73.8307495
MLS Listing,,Condo/Co-op,41-25 Kissena Blvd Unit 5TT,Flushing,NY,11355,789000,2,1,The Park Regent Condomin,1004,,1963,182,786,702,Active,,,http://www.redfin.com/NY/Flushing/4125-Kissena-Blvd-11355/unit-5TT/home/20853014,MLSLI,3147368,N,Y,40.7583504,-73.8283123
MLS Listing,,Condo/Co-op,Unit at 865 First Ave,New York,NY,10017,750000,1,1,Middle East Side,,,,185,,,Active,,,http://www.redfin.com/NY/New-York/865-United-Nations-Plz-10017/home/45207496,REBNY,DOMU1836916,N,Y,40.7530177,-73.9671004
MLS Listing,,Condo/Co-op,Unit at 98 Front St,Brooklyn,NY,11201,780000,0,1,Dumbo,,,,185,,,Active,,,http://www.redfin.com/NY/Brooklyn/98-Front-St-11201/home/167270523,REBNY,TPGR1836094,N,Y,40.701994,-73.9890574
MLS Listing,,Condo/Co-op,Unit at 572 Grand St,New York,NY,10002,799000,2,1,Lower East Side,,,,186,,,Active,,,http://www.redfin.com/NY/New-York/572-Grand-St-10002/home/167228700,REBNY,HALS19720277,N,Y,40.7142344,-73.9793225
MLS Listing,,Condo/Co-op,Unit at 35 E 85th St,New York,NY,10028,750000,1,1,Upper East Side,,,,187,,,Active,,,http://www.redfin.com/NY/New-York/35-E-85th-St-10028/home/163754187,REBNY,UCOM1836401,N,Y,40.780204,-73.958779
MLS Listing,,Townhouse,53-64 62nd St,Maspeth,NY,11378,765000,2,2,Maspeth,,2200,1945,187,,,Active,,,http://www.redfin.com/NY/Flushing/53-64-62nd-St-11378/home/20911161,MLSLI,3145941,N,Y,40.7303252,-73.9032235
MLS Listing,,Condo/Co-op,Unit at 176 Johnson St,Brooklyn,NY,11201,799000,1,1,Fort Greene,,,,188,,,Active,,,http://www.redfin.com/NY/Brooklyn/176-Johnson-St-11201/home/40641577,REBNY,SEEK1835890,N,Y,40.6945488,-73.982687
MLS Listing,,Condo/Co-op,Unit at 114 Christopher St,New York,NY,10014,799999,2,1,West Village,,,,189,,,Active,,,http://www.redfin.com/NY/New-York/114-Christopher-St-10014/home/167182698,REBNY,BOLD135400,N,Y,40.7330387,-74.0052985
MLS Listing,,Condo/Co-op,Unit at 2021 First Ave,New York,NY,10029,769000,1,1,East Harlem,,,,192,,,Active,,,http://www.redfin.com/NY/New-York/2021-1st-Ave-10029/home/167178813,REBNY,UCOM526374,N,Y,40.7886721,-73.9411485
MLS Listing,,Condo/Co-op,Unit at 1189 Jefferson Ave,Brooklyn,NY,11221,759000,2,1,Bushwick,,,,200,,,Active,,,http://www.redfin.com/NY/Brooklyn/1189-Jefferson-Ave-11221/home/167142621,REBNY,DEGI3852839,N,Y,40.6906141,-73.9142351
MLS Listing,,Condo/Co-op,Unit at 132 E 35th St,New York,NY,10016,799000,1,1.5,Murray Hill Kips Bay,,,,209,,,Active,,,http://www.redfin.com/NY/New-York/132-E-35th-St-10016/home/148704828,REBNY,BHSR19676310,N,Y,40.7468689,-73.979697
MLS Listing,,Condo/Co-op,Unit at 321 E 48th St,New York,NY,10017,775000,1,1,Middle East Side,,,,216,,,Active,,,http://www.redfin.com/NY/New-York/130-5th-Ave-10011/home/45281086,REBNY,CITY1829254,N,Y,40.738829,-73.992041
MLS Listing,,Condo/Co-op,Unit at 245 E 25th St,New York,NY,10010,799999,1,1,Middle East Side,,,,216,,,Active,,,http://www.redfin.com/NY/New-York/245-E-25th-St-10010/home/45175882,REBNY,ETAG1000,N,Y,40.7395312,-73.980372
MLS Listing,,Condo/Co-op,Unit at 41 Newel St,Brooklyn,NY,11222,765000,1,1,Green Point,,,,217,,,Active,,,http://www.redfin.com/NY/Brooklyn/41-Newel-St-11222/home/167076115,REBNY,CITI5756980,N,Y,40.723923,-73.9470754
MLS Listing,,Condo/Co-op,Unit at 333 W End Ave,New York,NY,10023,775000,1,1,Upper West Side,,,,222,,,Active,,,http://www.redfin.com/NY/New-York/333-W-End-Ave-10023/home/167040953,REBNY,BHSR19646615,N,Y,40.782368,-73.983025
MLS Listing,,Condo/Co-op,113 Sterling Pl #1,Brooklyn,NY,11217,799000,1,1.5,Brooklyn,1000,,1920,224,799,,Active,,,http://www.redfin.com/NY/Brooklyn/113-Sterling-Pl-11217/unit-1/home/167020828,BNYMLS,430527,N,Y,40.677701,-73.974661
MLS Listing,,Condo/Co-op,Unit at 2235 Frederick Douglass B,New York,NY,10027,795000,2,1.5,West Harlem,,,,228,,,Active,,,http://www.redfin.com/NY/New-York/2235-Frederick-Douglass-Blvd-10027/home/166893819,REBNY,UCOM1827447,N,Y,40.807426,-73.9535703
MLS Listing,,Condo/Co-op,Unit at 80 John St,New York,NY,10038,775000,2,1,Financial District,,,,230,,,Active,,,http://www.redfin.com/NY/New-York/80-John-St-10038/home/45188952,REBNY,NYLS86965,N,Y,40.7082117,-74.0069487
MLS Listing,,Condo/Co-op,Unit at 15 W 72nd St,New York,NY,10023,775000,1,1,Upper West Side,,,,234,,,Active,,,http://www.redfin.com/NY/New-York/15-W-72nd-St-10023/home/45339428,REBNY,CORC5740201,N,Y,40.7771759,-73.9768046
MLS Listing,,Condo/Co-op,Unit at 377 Rector Pl,New York,NY,10280,790000,1,1,Battery Park City,,,,234,,,Active,,,http://www.redfin.com/NY/New-York/377-Rector-Pl-10280/home/45125255,REBNY,DEGI2580605,N,Y,40.709744,-74.0177676
MLS Listing,,Condo/Co-op,Unit at 3333 Henry Hudson Pkwy W,Bronx,NY,10463,799000,2,2,Riverdale,,,,234,,,Active,,,http://www.redfin.com/NY/The-Bronx/3333-Henry-Hudson-Pkwy-W-10463/home/169926412,REBNY,FOXW16642,N,Y,40.8856111,-73.9143173
MLS Listing,,Condo/Co-op,Unit at 3311 Newkirk Ave,Brooklyn,NY,11203,799000,2,2,East Flatbush,,,,234,,,Active,,,http://www.redfin.com/NY/Unknown/3311-Newkirk-Ave-11203/home/146130435,REBNY,DEGI3792944,N,Y,40.6404037,-73.945052
MLS Listing,,Condo/Co-op,Unit at 435 Convent Ave,New York,NY,10031,795000,2,1.5,Hamilton Heights,,,,234,,,Active,,,http://www.redfin.com/NY/New-York/435-Convent-Ave-10031/home/45338713,REBNY,UCOM1823280,N,Y,40.8270403,-73.9442611
MLS Listing,,Condo/Co-op,Unit at 233 W 99th St,New York,NY,10025,775000,1,1,Upper West Side,,,,234,,,Active,,,http://www.redfin.com/NY/New-York/233-W-99th-St-10025/home/63689912,REBNY,CORC5746149,N,Y,40.7965462,-73.9698789
MLS Listing,,Condo/Co-op,Unit at 41 Jane St,New York,NY,10014,750000,1,1,West Village,,,,234,,,Active,,,http://www.redfin.com/NY/New-York/41-Jane-St-10014/home/45338934,REBNY,TRIP1824755,N,Y,40.7383084,-74.0046097
MLS Listing,,Condo/Co-op,Unit at 310 E 46th St,New York,NY,10017,799000,1,1,Middle East Side,,,,245,,,Active,,,http://www.redfin.com/NY/New-York/310-E-46th-St-10017/home/45181081,REBNY,CORC5732400,N,Y,40.7520278,-73.9698349
MLS Listing,,Condo/Co-op,Unit at 631 E 18th St,Brooklyn,NY,11226,750000,2,1,Ditmas Park,,,,246,,,Active,,,http://www.redfin.com/NY/Brooklyn/631-E-18th-St-11226/home/166457339,REBNY,CORC5735534,N,Y,40.6357203,-73.9602516
MLS Listing,,Condo/Co-op,Unit at 250 E 30th St,New York,NY,10016,800000,1,1,Middle East Side,,,,262,,,Active,,,http://www.redfin.com/NY/New-York/250-E-30th-St-10016/home/45127692,REBNY,UCOM1329976,N,Y,40.7422824,-73.9781111
MLS Listing,,Condo/Co-op,Unit at 782 W End Ave,New York,NY,10025,799999,2,1,Upper West Side,,,,263,,,Active,,,http://www.redfin.com/NY/New-York/782-W-End-Ave-10025/home/45329137,REBNY,UCOM913245,N,Y,40.7964994,-73.9717768
MLS Listing,,Condo/Co-op,Unit at 300 W 110th St,New York,NY,10026,785000,2,1,Upper West Side,,,,263,,,Active,,,http://www.redfin.com/NY/New-York/300-W-110th-St-10026/home/45302679,REBNY,UCOM1820144,N,Y,40.8007542,-73.9591719
MLS Listing,,Condo/Co-op,Unit at 365 W 20th St,New York,NY,10011,799000,2,1,Chelsea,,,,272,,,Active,,,http://www.redfin.com/NY/New-York/365-W-20th-St-10011/home/45144092,REBNY,UCOM146079,N,Y,40.7445839,-74.0023215
MLS Listing,,Condo/Co-op,2 Bay Club Dr Unit 11L,Bayside,NY,11360,788000,2,2,Bay Club,,,1982,272,,946,Active,,,http://www.redfin.com/NY/Bayside/2-Bay-Club-Dr-11360/unit-11L/home/20834617,MLSLI,3119730,N,Y,40.7780359,-73.7808993
MLS Listing,,Vacant Land,50 Poughkeepsie Ct,Staten Island,NY,10312,799000,0,,S.E. Annadale,,10028,,273,,,Active,,,http://www.redfin.com/NY/Staten-Island/50-Poughkeepsie-Ct-10312/home/87575761,SIBORMLS,1127981,N,Y,40.524997,-74.170768
MLS Listing,,Condo/Co-op,Unit at 13 W 13th St,New York,NY,10011,795000,1,1,West Village,,,,277,,,Active,,,http://www.redfin.com/NY/New-York/13-W-13th-St-10011/home/45173252,REBNY,UCOM54782,N,Y,40.7356028,-73.9944338
MLS Listing,,Condo/Co-op,Unit at 455 Main St,Roosevelt Island,NY,10044,799000,1,1,Roosevelt Island,,,,279,,,Active,,,http://www.redfin.com/NY/New-York/455-Main-St-10044/home/45137916,REBNY,RUTE1816286,N,Y,40.7592235,-73.9526052
MLS Listing,,Condo/Co-op,Unit at 520 W 23rd St,New York,NY,10011,774000,1,1,Chelsea,,,,280,,,Active,,,http://www.redfin.com/NY/New-York/520-W-23rd-St-10011/home/45144534,REBNY,SOTH782511,N,Y,40.7478445,-74.0050394
MLS Listing,,Condo/Co-op,Unit at 310 E 46th St,New York,NY,10017,799000,1,1,Middle East Side,,,,280,,,Active,,,http://www.redfin.com/NY/New-York/310-E-46th-St-10017/home/45229381,REBNY,MONT1319,N,Y,40.7520278,-73.9698349
MLS Listing,,Condo/Co-op,Unit at 137 Eldert St,Brooklyn,NY,11207,799000,2,2,Bushwick,,,,284,,,Active,,,http://www.redfin.com/NY/Brooklyn/137-Eldert-St-11207/home/113655131,REBNY,UCOM1531371,N,Y,40.6888337,-73.9113304
MLS Listing,,Condo/Co-op,7819 Bay Pkwy Unit 5D,Brooklyn,NY,11214,759000,2,2,Brooklyn,867,,2017,291,875,,Active,,,http://www.redfin.com/NY/Unknown/7819-Bay-Pkwy-11214/unit-5D/home/143943609,BNYMLS,428501,N,Y,40.6058403,-73.9892555
MLS Listing,,Condo/Co-op,7819 Bay Pkwy Unit 6D,Brooklyn,NY,11214,759000,2,2,Brooklyn,867,,2017,291,875,,Active,,,http://www.redfin.com/NY/Unknown/7819-Bay-Pkwy-11214/unit-6D/home/143943751,BNYMLS,428499,N,Y,40.6058403,-73.9892555
MLS Listing,,Condo/Co-op,Unit at 75 Wall St,New York,NY,10005,799000,0,1,Financial District,,,,291,,,Active,,,http://www.redfin.com/NY/New-York/75-Wall-St-10005/home/45219056,REBNY,UCOM428330,N,Y,40.7051691,-74.008024
MLS Listing,,Condo/Co-op,Unit at 263 W End Ave,New York,NY,10023,785000,1,1,Upper West Side,,,,293,,,Active,,,http://www.redfin.com/NY/New-York/263-W-End-Ave-10023/home/114472947,REBNY,BATR1813122,N,Y,40.7802357,-73.9846328
MLS Listing,,Condo/Co-op,Unit at 99 John St,New York,NY,10038,799000,2,1,Financial District,,,,294,,,Active,,,http://www.redfin.com/NY/New-York/99-John-St-10038/home/45220093,REBNY,NYLS83521,N,Y,40.7082733,-74.0060173
MLS Listing,,Condo/Co-op,Unit at 330 E 38th St,New York,NY,10016,750000,0,1,Middle East Side,,,,297,,,Active,,,http://www.redfin.com/NY/New-York/330-E-38th-St-10016/home/45258114,REBNY,DEGI3726893,N,Y,40.746393,-73.9727324
MLS Listing,,Condo/Co-op,Unit at 530 E 72nd St,New York,NY,10021,750000,1,1.5,Upper East Side,,,,297,,,Active,,,http://www.redfin.com/NY/New-York/530-E-72nd-St-10021/home/45183126,REBNY,HALS19487910,N,Y,40.7657736,-73.9519246
MLS Listing,,Condo/Co-op,Unit at 325 E 79th St,New York,NY,10075,775000,2,1,Upper East Side,,,,299,,,Active,,,http://www.redfin.com/NY/New-York/325-E-79th-St-10075/home/45162036,REBNY,UCOM1763208,N,Y,40.7729553,-73.9535736
MLS Listing,,Condo/Co-op,Unit at 240 E 46th St,New York,NY,10017,799000,1,1,Middle East Side,,,,299,,,Active,,,http://www.redfin.com/NY/New-York/240-E-46th-St-10017/home/45130283,REBNY,CORC5702157,N,Y,40.7524248,-73.9711493
MLS Listing,,Condo/Co-op,Unit at 321 E 43rd St,New York,NY,10017,775000,2,2,Middle East Side,,,,300,,,Active,,,http://www.redfin.com/NY/New-York/321-43rd-St-10017/home/45328346,REBNY,CORC5681025,N,Y,40.7502464,-73.9707498
MLS Listing,,Condo/Co-op,Unit at 630 First Ave,New York,NY,10016,785000,1,1,Murray Hill Kips Bay,,,,305,,,Active,,,http://www.redfin.com/NY/New-York/630-1st-Ave-10016/home/45258511,REBNY,CCRI1811036,N,Y,40.7451918,-73.9716642
MLS Listing,,Condo/Co-op,4455 Douglas Ave Unit 7K,Bronx,NY,10471,785000,2,2,Bronx,1351,,1969,305,581,748,Active,,,http://www.redfin.com/NY/The-Bronx/4455-Douglas-Ave-10471/unit-7K/home/44797487,HGMLS,4914134,N,Y,40.888523,-73.917565
MLS Listing,,Condo/Co-op,Unit at 303 W 66th St,New York,NY,10023,765000,1,1,Upper West Side,,,,306,,,Active,,,http://www.redfin.com/NY/New-York/303-W-66th-St-10023/home/147152759,REBNY,CORC5695765,N,Y,40.776554,-73.9876401
MLS Listing,,Condo/Co-op,Unit at 75 Greene Ave,Brooklyn,NY,11238,799000,1,1,Fort Greene,,,,306,,,Active,,,http://www.redfin.com/NY/Brooklyn/75-Greene-Ave-11238/home/160677261,REBNY,MNSM1810754,N,Y,40.6863652,-73.9698697
MLS Listing,,Condo/Co-op,Unit at 100 United Nations Plz,New York,NY,10017,779000,1,1,Middle East Side,,,,307,,,Active,,,http://www.redfin.com/NY/New-York/100-United-Nations-Plz-10017/home/45281118,REBNY,CORC5689444,N,Y,40.753132,-73.9678051
MLS Listing,,Condo/Co-op,Unit at 350 W 50th St,New York,NY,10019,798000,1,1,Middle West Side,,,,308,,,Active,,,http://www.redfin.com/NY/New-York/350-W-50th-St-10019/home/45261274,REBNY,CORC5691234,N,Y,40.7628821,-73.9884916
MLS Listing,,Condo/Co-op,41-04 27th St Unit 7D,Long Island City,NY,11101,788000,1,1,The Queens Boro Tower,658,,2018,310,1198,,Active,,,http://www.redfin.com/NY/Long-Island-City/41-04-27th-St-11101/unit-7D/home/160631896,MLSLI,3107601,N,Y,40.7517068,-73.9386033
MLS Listing,,Condo/Co-op,41-04 27th St Unit 6D,Long Island City,NY,11101,778000,1,1,The Queens Boro Tower,,,2018,310,,352,Active,,,http://www.redfin.com/NY/Long-Island-City/41-04-27th-St-11101/unit-6D/home/160631824,MLSLI,3107595,N,Y,40.7517068,-73.9386033
MLS Listing,,Condo/Co-op,41-04 27th St Unit 5D,Long Island City,NY,11101,762800,1,1,The Queens Boro Tower,653,,2018,310,1168,352,Active,,,http://www.redfin.com/NY/Long-Island-City/41-04-27th-St-11101/unit-5D/home/160631702,MLSLI,3107591,N,Y,40.7517068,-73.9386033
MLS Listing,,Condo/Co-op,Unit at 350 Albany St,New York,NY,10280,750000,1,1,Battery Park City,,,,312,,,Active,,,http://www.redfin.com/NY/New-York/350-Albany-St-10280/home/45234793,REBNY,DEGI3706584,N,Y,40.7101846,-74.0176786
MLS Listing,,Condo/Co-op,Unit at 120 E 87th St,New York,NY,10128,750000,0,1,Upper East Side,,,,321,,,Active,,,http://www.redfin.com/NY/New-York/120-E-87th-St-10128/home/45291987,REBNY,UCOM92892,N,Y,40.7804094,-73.9558669
MLS Listing,,Condo/Co-op,Unit at 205 W 57th St,New York,NY,10019,799000,1,1,Middle West Side,,,,321,,,Active,,,http://www.redfin.com/NY/New-York/205-W-57th-St-10019/home/45148157,REBNY,SOTH769295,N,Y,40.7660116,-73.9805433
MLS Listing,,Condo/Co-op,140-55 34 Ave Unit 2 J,Flushing,NY,11354,760000,2,2,Dorado House,1155,,1968,327,658,541,Active,,,http://www.redfin.com/NY/FLUSHING/14055-34TH-AVE-11354/unit-2J/home/20858678,MLSLI,3102822,N,Y,40.767178,-73.825383
MLS Listing,,Multi-Family (2-4 Unit),131-16 Linden Blvd,call Listing Agent,NY,11420,799900,0,,South Ozone Park,2112,,1950,329,379,,Active,,,http://www.redfin.com/NY/Jamaica/131-16-Linden-Blvd-11420/home/20724541,HGMLS,4908719,N,Y,40.681547,-73.809918
MLS Listing,,Condo/Co-op,Unit at 392 Central Park W,New York,NY,10025,775000,0,1,Upper West Side,,,,345,,,Active,,,http://www.redfin.com/NY/New-York/392-Central-Park-W-10025/home/45301824,REBNY,DEGI3649222,N,Y,40.7945469,-73.9649582
MLS Listing,,Condo/Co-op,Unit at 415 Main St,Roosevelt Island,NY,10044,795000,1,1,Roosevelt Island,,,,352,,,Active,,,http://www.redfin.com/NY/New-York/415-Main-St-10044/home/45225557,REBNY,DEGI3638060,N,Y,40.7582784,-73.9536439
MLS Listing,,Condo/Co-op,Unit at 25 Chittenden Ave,New York,NY,10033,775000,2,1,Hudson Heights,,,,354,,,Active,,,http://www.redfin.com/NY/New-York/25-Chittenden-Ave-10033/home/45230080,REBNY,UCOM637621,N,Y,40.8553893,-73.9388012
MLS Listing,,Multi-Family (2-4 Unit),2310 Morris Ave,Bronx,NY,10468,800000,0,,Bronx,2910,2204,1901,355,275,,Active,,,http://www.redfin.com/NY/The-Bronx/2310-Morris-Ave-10468/home/44715392,HGMLS,4903453,N,Y,40.858448,-73.901341
MLS Listing,,Single Family Residential,2140 E 28 St,Brooklyn,NY,11229,769000,2,1.75,Brooklyn,1320,1600,1940,356,583,,Active,,,http://www.redfin.com/NY/Brooklyn/2140-E-28th-St-11229/home/40862915,BNYMLS,426652,N,Y,40.5991719,-73.9438925
MLS Listing,,Condo/Co-op,Unit at 42 W 120th St,New York,NY,10027,799000,2,2,Harlem,,,,363,,,Active,,,http://www.redfin.com/NY/New-York/42-W-120th-St-10027/home/105848620,REBNY,CORC5643890,N,Y,40.8037811,-73.9462459
MLS Listing,,Condo/Co-op,Unit at 2218 Jackson Ave,Queens,NY,11101,760000,0,1,Long Island City,,,,363,,,Active,,,http://www.redfin.com/NY/Long-Island-City/2218-Jackson-Ave-11101/home/148721948,REBNY,HALS18946946,N,Y,40.7452362,-73.946935
MLS Listing,,Condo/Co-op,Unit at 240 E 46th St,New York,NY,10017,789000,2,1,Middle East Side,,,,367,,,Active,,,http://www.redfin.com/NY/New-York/240-E-46th-St-10017/home/45130250,REBNY,LAFF1798932,N,Y,40.7524248,-73.9711493
MLS Listing,,Condo/Co-op,Unit at 210 Jackson St,Brooklyn,NY,11211,795000,1,1,Green Point,,,,367,,,Active,,,http://www.redfin.com/NY/Brooklyn/210-Jackson-St-11211/home/148704894,REBNY,UCOM1795925,N,Y,40.716736,-73.9423578
Local rules require that we limit downloads to 250 results from REBNY.,,,,,,,,,,,,,,,,,,,,,,,,,,
