SALE TYPE,SOLD DATE,PROPERTY TYPE,ADDRESS,CITY,STATE OR PROVINCE,ZIP OR POSTAL CODE,PRICE,BEDS,BATHS,LOCATION,SQUARE FEET,LOT SIZE,YEAR BUILT,DAYS ON MARKET,$/SQUARE FEET,HOA/MONTH,STATUS,NEXT OPEN HOUSE START TIME,NEXT OPEN HOUSE END TIME,URL (SEE http://www.redfin.com/buy-a-home/comparative-market-analysis FOR INFO ON PRICING),SOURCE,MLS#,FAVORITE,INTERESTED,LATITUDE,LONGITUDE
MLS Listing,,Single Family Residential,22 Ely Ave,Staten Island,NY,10312,759900,4,2,Annandale,2300,5203,1965,60,330,,Active,,,http://www.redfin.com/NY/Staten-Island/22-Ely-Ave-10312/home/56121479,SIBORMLS,1133798,N,Y,40.538605,-74.1805456
MLS Listing,,Multi-Family (2-4 Unit),163-62 Mathias Ave,Jamaica,NY,11433,779000,6,2.5,Jamaica,,3947,1930,1,,,Active,,,http://www.redfin.com/NY/Jamaica/163-62-Mathias-Ave-11433/home/20759578,MLSLI,3191446,N,Y,40.6920173,-73.7853152
MLS Listing,,Multi-Family (2-4 Unit),800 S Oak Dr,Bronx,NY,10467,779900,6,4,Bronx,2004,3158,2008,1,389,,Active,,,http://www.redfin.com/NY/The-Bronx/800-S-Oak-Dr-10467/home/44805729,HGMLS,6004125,N,Y,40.8720011,-73.8630176
MLS Listing,,Multi-Family (2-4 Unit),1210 Colgate Ave,Bronx,NY,10472,799000,5,3,Bronx,3635,2949,1920,1,220,,Active,,,http://www.redfin.com/NY/The-Bronx/1210-Colgate-Ave-10472/home/44771957,HGMLS,6003841,N,Y,40.8288293,-73.8818987
MLS Listing,,Multi-Family (2-4 Unit),2002 Edenwald Ave,Bronx,NY,10466,800000,6,2,Bronx,3276,2100,1970,1,244,,Active,,,http://www.redfin.com/NY/The-Bronx/2002-Edenwald-Ave-10466/home/44782109,MLSLI,3191293,N,Y,40.892721,-73.843251
MLS Listing,,Single Family Residential,99-51 Russell St,Howard Beach,NY,11414,799000,4,3.5,Hamilton Beach,3800,4368,1930,1,210,,Active,,,http://www.redfin.com/NY/Jamaica/99-51-Russell-St-11414/home/20679570,MLSLI,3191277,N,Y,40.654995,-73.8313
MLS Listing,,Multi-Family (2-4 Unit),145-03 107th Ave,Jamaica,NY,11435,800000,6,4.5,Jamaica,2200,1797,2007,1,364,,Active,,,http://www.redfin.com/NY/Jamaica/145-03-107th-Ave-11435/home/20642068,MLSLI,3191275,N,Y,40.691404,-73.80488
MLS Listing,,Townhouse,608 Jarvis Ave,Far Rockaway,NY,11691,799000,4,3.5,Far Rockaway,,2859,1965,1,,,Active,,,http://www.redfin.com/NY/Far-Rockaway/6-08-Jarvis-Ave-11691/home/20678875,MLSLI,3191239,N,Y,40.598698,-73.7407039
MLS Listing,,Single Family Residential,88-18 Hollis Court Blvd,Queens Village,NY,11427,799999,4,2.5,Queens Village,,4603,1925,2,,,Active,,,http://www.redfin.com/NY/Jamaica/88-18-Hollis-Ct-Blvd-11427/home/20744967,MLSLI,3191167,N,Y,40.7231987,-73.7541307
MLS Listing,,Single Family Residential,89-80 212 Pl,Queens Village,NY,11427,799000,4,2.5,Queens Village  North,,3500,1930,3,,,Active,,,http://www.redfin.com/NY/Queens-Village/89-80-212th-Pl-11427/home/20743919,MLSLI,3191019,N,Y,40.722193,-73.750161
MLS Listing,,Single Family Residential,79-35 209th St,Bayside,NY,11364,799000,4,1.5,Oakland Gardens,,4000,1939,3,,,Active,,,http://www.redfin.com/NY/Flushing/79-35-209th-St-11364/home/20803736,MLSLI,3190752,N,Y,40.733852,-73.761715
MLS Listing,,Multi-Family (2-4 Unit),1242 Bushwick Ave,Brooklyn,NY,11221,799999,9,3,Brooklyn,,1500,1915,4,,,Active,,,http://www.redfin.com/NY/Brooklyn/1242-Bushwick-Ave-11221/home/40749531,MLSLI,3190635,N,Y,40.687372,-73.914905
MLS Listing,,Multi-Family (2-4 Unit),105-35 135th St,Richmond Hill,NY,11418,799000,4,2.5,Richmond Hill,,2500,1920,5,,,Active,,,http://www.redfin.com/NY/Jamaica/105-35-135th-St-11419/home/20769498,MLSLI,3190394,N,Y,40.689483,-73.8103469
MLS Listing,,Multi-Family (2-4 Unit),150-22 115th Dr,Jamaica,NY,11434,759999,5,2,Jamaica,,3100,1925,5,,,Active,,,http://www.redfin.com/NY/Jamaica/150-22-115th-Dr-11434/home/20708601,MLSLI,3190340,N,Y,40.683487,-73.791685
MLS Listing,,Multi-Family (2-4 Unit),3745 Cypress Ave,Brooklyn,NY,11224,768000,6,2,Brooklyn,1976,3000,1930,5,389,,Active,,,http://www.redfin.com/NY/Brooklyn/3745-Cypress-Ave-11224/home/40850625,BNYMLS,435755,N,Y,40.57892,-74.0052466
MLS Listing,,Multi-Family (2-4 Unit),212 Bradford St,Brooklyn,NY,11207,799000,5,3,Brooklyn,,2500,1920,6,,,Active,January-18-2020 01:00 PM,January-18-2020 04:00 PM,http://www.redfin.com/NY/Brooklyn/212-Bradford-St-11207/home/40754796,MLSLI,3190100,N,Y,40.674043,-73.892819
MLS Listing,,Multi-Family (2-4 Unit),177-54 105th Ave,Jamaica,NY,11433,775000,5,2,Jamaica,,2500,1930,6,,,Active,,,http://www.redfin.com/NY/Jamaica/177-54-105th-Ave-11433/home/20755039,MLSLI,3190085,N,Y,40.70408,-73.779307
MLS Listing,,Multi-Family (2-4 Unit),1460 New York Ave,Brooklyn,NY,11210,799000,4,2,Brooklyn,2028,2050,1910,6,394,,Active,,,http://www.redfin.com/NY/Brooklyn/1460-New-York-Ave-11210/home/40783279,MLSLI,3190074,N,Y,40.6372743,-73.9455456
MLS Listing,,Multi-Family (2-4 Unit),,Flushing,NY,11365,799000,6,2,Flushing,,2484,2006,6,,,Active,,,http://www.redfin.com/NY/Flushing/Undisclosed-address-11365/home/20623954,MLSLI,3190043,N,Y,40.7385918,-73.7974953
MLS Listing,,Multi-Family (2-4 Unit),279 E 32nd St,Brooklyn,NY,11226,750000,5,2,Brooklyn,2160,2050,1910,6,347,,Active,,,http://www.redfin.com/NY/Brooklyn/279-E-32nd-St-11226/home/40780647,MLSLI,3190020,N,Y,40.643894,-73.946615
MLS Listing,,Multi-Family (2-4 Unit),66 Van Siclen Ave,Brooklyn,NY,11207,799000,4,2.5,Brooklyn,,2500,1910,7,,,Active,,,http://www.redfin.com/NY/Brooklyn/66-Van-Siclen-Ave-11207/home/40758417,MLSLI,3189770,N,Y,40.678805,-73.8921144
MLS Listing,,Townhouse,59 Thompson St,Staten Island,NY,10304,775000,6,3,Stapleton,1648,4204,1910,7,470,,Active,,,http://www.redfin.com/NY/Staten-Island/59-Thompson-St-10304/home/56129432,SIBORMLS,1134636,N,Y,40.6260539,-74.0760807
MLS Listing,,Single Family Residential,7-12 125 St,College Point,NY,11356,799500,5,3,College Point,,2500,2020,7,,,Active,,,http://www.redfin.com/NY/Flushing/7-12-125th-St-11356/home/20875487,MLSLI,3189629,N,Y,40.79036,-73.843028
MLS Listing,,Townhouse,31 Essex Dr,Staten Island,NY,10314,760000,5,4,Heartland Village,2400,2100,2000,7,317,60,Active,,,http://www.redfin.com/NY/Staten-Island/31-Essex-Dr-10314/home/56108734,SIBORMLS,1134622,N,Y,40.5823104,-74.1572087
MLS Listing,,Multi-Family (2-4 Unit),130-34 117th St,S. Ozone Park,NY,11420,759000,4,2.5,Wakefield,,2400,1950,7,,,Active,January-18-2020 01:00 PM,January-18-2020 03:00 PM,http://www.redfin.com/NY/Jamaica/130-34-117th-St-11420/home/20721540,MLSLI,3189517,N,Y,40.673559,-73.822202
MLS Listing,,Condo/Co-op,Unit at 470 W 146th St,New York,NY,10031,750000,4,1,Hamilton Heights,,,,10,,,Active,,,http://www.redfin.com/NY/New-York/470-W-146th-St-10031/home/170209423,REBNY,BOND1612224,N,Y,40.8255527,-73.9465904
MLS Listing,,Multi-Family (2-4 Unit),1575 E 48th St,Brooklyn,NY,11234,799500,4,3,Brooklyn,1440,1800,1899,10,555,,Active,,,http://www.redfin.com/NY/Brooklyn/1575-E-48th-St-11234/home/40880451,MLSLI,3189162,N,Y,40.6221844,-73.928982
MLS Listing,,Multi-Family (2-4 Unit),92 Alexander Ave,Yonkers,NY,10704,795000,4,2,Yonkers,1320,5445,1910,10,602,,Active,,,http://www.redfin.com/NY/Yonkers/92-Alexander-Ave-10704/home/20156727,HGMLS,5128798,N,Y,40.907311,-73.8654874
MLS Listing,,Multi-Family (2-4 Unit),35-37 99th St,Corona,NY,11368,799000,6,3,Corona,,2500,1901,10,,,Active,,,http://www.redfin.com/NY/Flushing/35-37-99th-St-11368/home/20922206,MLSLI,3188976,N,Y,40.7529556,-73.8682379
MLS Listing,,Multi-Family (2-4 Unit),3918 Hill Ave,Bronx,NY,10466,750000,9,3,Bronx,2950,2770,1973,10,254,,Active,,,http://www.redfin.com/NY/The-Bronx/3918-Hill-Ave-10466/home/44782123,HGMLS,6000669,N,Y,40.889378,-73.8382139
MLS Listing,,Multi-Family (2-4 Unit),313 Amber St,Brooklyn,NY,11208,765000,6,3,Brooklyn,,2000,1930,11,,,Active,,,http://www.redfin.com/NY/Brooklyn/313-Amber-St-11208/home/40481730,MLSLI,3188861,N,Y,40.66959,-73.857752
MLS Listing,,Single Family Residential,80-42 88th Ave,Woodhaven,NY,11421,759000,4,2,Woodhaven,,2500,1920,11,,,Active,,,http://www.redfin.com/NY/Jamaica/80-42-88th-Ave-11421/home/20788103,MLSLI,3188829,N,Y,40.690035,-73.860043
MLS Listing,,Multi-Family (2-4 Unit),60-17 59 Ave,Maspeth,NY,11378,790000,5,3,Maspeth,,2000,1940,11,,,Active,,,http://www.redfin.com/NY/Flushing/60-17-59th-Ave-11378/home/20906547,MLSLI,3188666,N,Y,40.719097,-73.906106
MLS Listing,,Multi-Family (2-4 Unit),575 Van Siclen Ave,Brooklyn,NY,11207,800000,4,5,East New York,,1000,2005,11,,,Active,January-18-2020 12:00 PM,January-18-2020 04:00 PM,http://www.redfin.com/NY/Brooklyn/575-Van-Siclen-Ave-11207/home/21464318,MLSLI,3188661,N,Y,40.6653865,-73.8882494
MLS Listing,,Townhouse,50 Foothill Ct,Staten Island,NY,10309,799797,4,4,Princes Bay,2100,2400,2008,11,381,92,Active,,,http://www.redfin.com/NY/Staten-Island/50-Foothill-Ct-10309/home/56118339,SIBORMLS,1134525,N,Y,40.536461,-74.213554
MLS Listing,,Multi-Family (2-4 Unit),1502 Crosby Ave,Bronx,NY,10461,799000,5,4,Bronx,1568,2500,1925,12,510,,Active,,,http://www.redfin.com/NY/The-Bronx/1502-Crosby-Ave-10461/home/44784219,HGMLS,6000254,N,Y,40.8423977,-73.8298335
MLS Listing,,Single Family Residential,84 Eldert Ln,Woodhaven,NY,11421,799999,4,2,Woodhaven,,4160,1910,12,,,Active,,,http://www.redfin.com/NY/Woodhaven/84-Eldert-Ln-11421/home/40259814,MLSLI,3188407,N,Y,40.689189,-73.8677797
MLS Listing,,Single Family Residential,157-15 115th Rd,Jamaica,NY,11434,759000,4,3.5,Jamaica,,6000,1935,14,,,Active,,,http://www.redfin.com/NY/Jamaica/157-15-115th-Rd-11434/home/20709894,MLSLI,3188153,N,Y,40.68669,-73.787993
MLS Listing,,Multi-Family (2-4 Unit),1991 Cruger Ave,Bronx,NY,10462,799000,5,3,Bronx,2620,2500,1958,14,305,,Active,,,http://www.redfin.com/NY/The-Bronx/1991-Cruger-Ave-10462/home/44776625,HGMLS,5129764,N,Y,40.850185,-73.867123
MLS Listing,,Single Family Residential,43-13 218 St,Bayside,NY,11361,799000,4,2,Bayside,,2500,1920,15,,,Active,,,http://www.redfin.com/NY/Flushing/43-13-218th-St-11361/home/20826337,MLSLI,3188044,N,Y,40.761986,-73.763791
MLS Listing,,Multi-Family (2-4 Unit),1311 Burke Ave,Bronx,NY,10469,769000,5,2.5,Bronx,2400,3001,1970,16,320,,Active,,,http://www.redfin.com/NY/The-Bronx/1311-Burke-Ave-10469/home/44789176,HGMLS,5129807,N,Y,40.8721094,-73.8479827
MLS Listing,,Multi-Family (2-4 Unit),97-07 116th St,Richmond Hill,NY,11419,798000,5,3,Richmond Hill,,1872,1910,16,,,Active,,,http://www.redfin.com/NY/Jamaica/97-07-116th-St-11419/home/20775086,MLSLI,3187962,N,Y,40.690283,-73.828736
MLS Listing,,Multi-Family (2-4 Unit),528 Wales Ave,Bronx,NY,10455,799000,6,3,Bronx,2001,1663,1920,17,399,,Active,,,http://www.redfin.com/NY/The-Bronx/528-Wales-Ave-10455/home/44711492,HGMLS,5129578,N,Y,40.812121,-73.907217
MLS Listing,,Single Family Residential,168 Sheraden Ave,Staten Island,NY,10314,790000,4,2,Willowbrook,2010,4000,1970,18,393,,Active,,,http://www.redfin.com/NY/Staten-Island/168-Sheraden-Ave-10314/home/56014422,SIBORMLS,1134448,N,Y,40.6070805,-74.1382409
MLS Listing,,Multi-Family (2-4 Unit),954 E 108 St,Brooklyn,NY,11236,790000,6,3,Brooklyn,,2000,,22,,,Active,,,http://www.redfin.com/NY/Brooklyn/954-E-108th-St-11236/home/28896786,BNYMLS,435498,N,Y,40.6476816,-73.8916026
MLS Listing,,Single Family Residential,80-46 Bell Blvd,Hollis Hills,NY,11427,799000,4,2.5,Hollis Hills,,4000,1950,23,,,Active,,,http://www.redfin.com/NY/Jamaica/80-46-Bell-Blvd-11427/home/20803434,MLSLI,3187265,N,Y,40.732903,-73.754925
MLS Listing,,Multi-Family (2-4 Unit),2236 Eastchester Rd,Bronx,NY,10469,765000,4,2.5,Bronx,2620,4142,1955,24,292,,Active,,,http://www.redfin.com/NY/The-Bronx/2236-Eastchester-Rd-10469/home/44735015,HGMLS,5117906,N,Y,40.8592152,-73.8425726
MLS Listing,,Multi-Family (2-4 Unit),952 Hemlock St,Brooklyn,NY,11208,775000,6,3,Brooklyn,,3000,2005,25,,,Active,,,http://www.redfin.com/NY/Brooklyn/952-Hemlock-St-11208/home/40655821,MLSLI,3187106,N,Y,40.6651613,-73.8667963
MLS Listing,,Multi-Family (2-4 Unit),2921 Otis Ave,Bronx,NY,10465,780000,4,2,Bronx,1718,5000,1925,25,454,,Active,,,http://www.redfin.com/NY/The-Bronx/2921-Otis-Ave-10465/home/44763749,HGMLS,5127927,N,Y,40.832894,-73.827082
MLS Listing,,Townhouse,344 Van Duzer St,Staten Island,NY,10304,789000,8,3,Stapleton,3408,12000,1899,25,232,,Active,,,http://www.redfin.com/NY/Staten-Island/344-Van-Duzer-St-10304/home/56092273,SIBORMLS,1134392,N,Y,40.6297971,-74.0793733
MLS Listing,,Single Family Residential,94 Goodall St,Staten Island,NY,10308,769900,5,2,Great Kills,2502,5400,1930,25,308,,Active,,,http://www.redfin.com/NY/Staten-Island/94-Goodall-St-10308/home/56022433,SIBORMLS,1134386,N,Y,40.5382134,-74.1457038
MLS Listing,,Multi-Family (2-4 Unit),155-44 116th Dr,Jamaica,NY,11434,789999,5,3,Jamaica,2025,4000,1965,26,390,,Active,,,http://www.redfin.com/NY/Jamaica/155-44-116th-Dr-11434/home/20709981,MLSLI,3186895,N,Y,40.682979,-73.787314
MLS Listing,,Multi-Family (2-4 Unit),2977 Perry Ave,Bronx,NY,10458,775000,4,2,Bronx,3440,,1929,26,225,,Active,,,http://www.redfin.com/NY/The-Bronx/2977-Perry-Ave-10458/home/44716359,HGMLS,5126975,N,Y,40.8704045,-73.8839808
MLS Listing,,Multi-Family (2-4 Unit),4301 Napier Ave,Bronx,NY,10470,799000,4,2,Bronx,2300,4281,1920,26,347,,Active,,,http://www.redfin.com/NY/The-Bronx/4301-Napier-Ave-10470/unit-2/home/44804161,HGMLS,5127763,N,Y,40.8978588,-73.8750539
MLS Listing,,Multi-Family (2-4 Unit),115-47 145th St,Jamaica,NY,11436,799000,5,3,Queens,,4000,1955,26,,,Active,,,http://www.redfin.com/NY/Jamaica/115-47-145th-St-11436/home/20718446,MLSLI,3186771,N,Y,40.681785,-73.797161
MLS Listing,,Single Family Residential,796 Flanders Dr,N. Woodmere,NY,11580,799000,4,2.5,N. Woodmere,,6500,1960,27,,,Active,,,http://www.redfin.com/NY/Valley-Stream/796-Flanders-Dr-11581/home/20390652,MLSLI,3186683,N,Y,40.6501511,-73.7284551
MLS Listing,,Single Family Residential,61 Princeton Ave,Staten Island,NY,10306,754999,4,2,New Dorp,1408,5000,1950,27,536,,Active,,,http://www.redfin.com/NY/Staten-Island/61-Princeton-Ave-10306/home/56094294,SIBORMLS,1134355,N,Y,40.568993,-74.1195342
MLS Listing,,Multi-Family (2-4 Unit),662 Burke Ave,Bronx,NY,10467,768000,6,3,Bronx,2925,3415,1945,27,263,,Active,,,http://www.redfin.com/NY/The-Bronx/662-Burke-Ave-10467/home/44736409,HGMLS,5127467,N,Y,40.8712061,-73.8687602
MLS Listing,,Multi-Family (2-4 Unit),80-35 89th Ave,Woodhaven,NY,11421,799900,5,3,Woodhaven,,2500,1915,27,,,Active,,,http://www.redfin.com/NY/Jamaica/80-35-89th-Ave-11421/home/20788106,MLSLI,3186641,N,Y,40.689053,-73.860095
MLS Listing,,Multi-Family (2-4 Unit),142-15 249th St,Rosedale,NY,11422,799000,5,3.5,Rosedale,,4000,1950,27,,,Active,,,http://www.redfin.com/NY/Jamaica/142-15-249th-St-11422/home/20684302,MLSLI,3186633,N,Y,40.661318,-73.735067
MLS Listing,,Multi-Family (2-4 Unit),471 Pine St,Brooklyn,NY,11208,799000,4,3,Brooklyn,1700,2400,1960,30,470,,Active,,,http://www.redfin.com/NY/Brooklyn/471-Pine-St-11208/home/40765630,BNYMLS,435367,N,Y,40.6739446,-73.8702647
MLS Listing,,Single Family Residential,51 Hamden Ave,Staten Island,NY,10306,759000,4,3,Grant City,1776,6000,1994,31,427,,Active,,,http://www.redfin.com/NY/Staten-Island/51-Hamden-Ave-10306/home/56066853,SIBORMLS,1134334,N,Y,40.5825117,-74.1069511
MLS Listing,,Multi-Family (2-4 Unit),901 Faile St,Bronx,NY,10474,750000,5,4,Bronx,2370,2500,1899,31,316,,Active,,,http://www.redfin.com/NY/The-Bronx/901-Faile-St-10474/home/44716776,HGMLS,5126550,N,Y,40.8197801,-73.888146
MLS Listing,,Multi-Family (2-4 Unit),3442-3444 Grace Ave,Bronx,NY,10469,750000,5,2,Bronx,2319,,1925,32,323,,Active,,,http://www.redfin.com/NY/The-Bronx/3442-Grace-Ave-10469/home/147206674,HGMLS,5125900,N,Y,40.880153,-73.839886
MLS Listing,,Multi-Family (2-4 Unit),988 Westwood Ave,Staten  Island,NY,10314,799000,5,2.5,Staten  Island,2072,5320,1970,32,386,,Active,,,http://www.redfin.com/NY/Staten-Island/988-Westwood-Ave-10314/home/56059333,BNYMLS,435333,N,Y,40.6054851,-74.144801
MLS Listing,,Multi-Family (2-4 Unit),91-40 109th St,Richmond Hill,NY,11418,800000,6,2,Richmond Hill,,2000,1920,34,,,Active,,,http://www.redfin.com/NY/Jamaica/91-40-109th-St-11418/home/20774152,MLSLI,3185310,N,Y,40.6921279,-73.837207
MLS Listing,,Townhouse,371 Montreal Ave,Staten Island,NY,10306,775000,6,5,Oakwood - New Dorp Beach,2376,4500,1970,35,326,,Active,,,http://www.redfin.com/NY/Staten-Island/371-Montreal-Ave-10306/home/56067247,SIBORMLS,1134254,N,Y,40.5583281,-74.1242024
MLS Listing,,Multi-Family (2-4 Unit),1014 E 213th St,Bronx,NY,10469,769000,5,2,Bronx,1920,2809,1960,35,401,,Active,,,http://www.redfin.com/NY/The-Bronx/1014-E-213th-St-10469/home/44603085,HGMLS,5122716,N,Y,40.876549,-73.8564339
MLS Listing,,Single Family Residential,88-26 242nd St,Bellerose,NY,11426,759999,4,2.5,Bellerose,,3000,1925,35,,,Active,,,http://www.redfin.com/NY/Jamaica/88-26-242nd-St-11426/home/20804633,MLSLI,3185168,N,Y,40.728979,-73.7255969
MLS Listing,,Multi-Family (2-4 Unit),212-24 Murdock Ave,Queens Village,NY,11429,798000,8,2,Queens Village,,3000,1930,38,,,Active,,,http://www.redfin.com/NY/Jamaica/212-24-Murdock-Ave-11429/home/20737128,MLSLI,3184612,N,Y,40.702945,-73.742298
MLS Listing,,Multi-Family (5+ Unit),3679 Paulding Ave,Bronx,NY,10469,750000,11,6,Bronx,5840,2905,1928,39,128,,Active,,,http://www.redfin.com/NY/The-Bronx/3679-Paulding-Ave-10469/home/44781200,HGMLS,5124245,N,Y,40.878792,-73.856041
MLS Listing,,Multi-Family (2-4 Unit),1067 Barbey St,Brooklyn,NY,11207,750000,4,3.5,Brooklyn,,1783,1960,39,,,Active,,,http://www.redfin.com/NY/Brooklyn/1067-Barbey-St-11207/home/40768819,MLSLI,3184521,N,Y,40.6569457,-73.8794755
MLS Listing,,Multi-Family (2-4 Unit),85-01 95th Ave,Ozone Park,NY,11416,799000,5,2,Ozone Park,,2250,1915,39,,,Active,,,http://www.redfin.com/NY/Jamaica/85-01-95th-Ave-11416/home/28603915,MLSLI,3184405,N,Y,40.684945,-73.855789
MLS Listing,,Multi-Family (2-4 Unit),89-26 168 Pl,Jamaica,NY,11432,799000,4,3,Jamaica,1229,1200,1920,40,650,,Active,,,http://www.redfin.com/NY/Jamaica/89-26-168th-Pl-11432/home/20765402,MLSLI,3184313,N,Y,40.708177,-73.792922
MLS Listing,,Single Family Residential,26 Elie Ct,Staten Island,NY,10314,785000,4,2,New Springville,2192,5376,1970,40,358,,Active,,,http://www.redfin.com/NY/Staten-Island/26-Elie-Ct-10314/home/56039773,SIBORMLS,1134181,N,Y,40.5895642,-74.1624157
MLS Listing,,Single Family Residential,1447 Gillespie Ave,Bronx,NY,10461,769999,4,2.5,Bronx,1252,1955,1930,40,615,,Active,,,http://www.redfin.com/NY/The-Bronx/1447-Gillespie-Ave-10461/home/44784319,HGMLS,5124223,N,Y,40.841716,-73.831216
MLS Listing,,Single Family Residential,878 Cranford Ave,N. Woodmere,NY,11581,769000,4,3,N. Woodmere,2700,6500,1960,40,285,,Active,,,http://www.redfin.com/NY/Valley-Stream/878-Cranford-Ave-11581/home/20392681,MLSLI,3184082,N,Y,40.6480713,-73.7268921
MLS Listing,,Multi-Family (2-4 Unit),2319 Grand Ave,Bronx,NY,10468,750000,6,2,Bronx,3380,2631,1901,41,222,,Active,,,http://www.redfin.com/NY/The-Bronx/2319-Grand-Ave-10468/home/44715483,HGMLS,5124014,N,Y,40.860822,-73.9048761
MLS Listing,,Single Family Residential,101 12 23rd Ave,E. Elmhurst,NY,11369,800000,4,3,E. Elmhurst,,4480,2009,42,,,Active,,,http://www.redfin.com/NY/East-Elmhurst/10112-23rd-Ave-11369/home/23149316,MLSLI,3183764,N,Y,40.7686704,-73.8691622
MLS Listing,,Multi-Family (2-4 Unit),139-39 250 St,Rosedale,NY,11422,774999,4,3,Rosedale,,2500,2007,42,,,Active,,,http://www.redfin.com/NY/Queens/250th-St-11422/home/20684279,MLSLI,3183665,N,Y,40.662136,-73.731923
MLS Listing,,Single Family Residential,102 Oakville St,Staten Island,NY,10314,799000,4,4,Willowbrook,1770,4000,1970,42,451,,Active,,,http://www.redfin.com/NY/Staten-Island/102-Oakville-St-10314/home/56066456,SIBORMLS,1134098,N,Y,40.598738,-74.1345769
MLS Listing,,Multi-Family (2-4 Unit),257-03 148th Ave,Jamaica,NY,11422,799997,4,4,Rosedale,,4157,1959,43,,,Active,,,http://www.redfin.com/NY/Jamaica/257-03-148th-Ave-11422/home/20684600,MLSLI,3183518,N,Y,40.655282,-73.731603
MLS Listing,,Multi-Family (2-4 Unit),752 E 51 St,Brooklyn,NY,11203,769000,4,2.75,Brooklyn,2080,2000,1930,43,370,,Active,,,http://www.redfin.com/NY/Brooklyn/752-E-51st-St-11203/home/40776369,BNYMLS,435072,N,Y,40.6429148,-73.9286685
MLS Listing,,Single Family Residential,84-59 159th St,Jamaica,NY,11432,799000,4,2.5,Jamaica,,2800,1925,45,,,Active,,,http://www.redfin.com/NY/Jamaica/84-59-159th-St-11432/home/20765619,MLSLI,3183272,N,Y,40.712719,-73.805394
MLS Listing,,Single Family Residential,9148 Springfield Blvd,Jamaica,NY,11423,798999,6,3.5,Jamaica,,2604,1925,45,,,Active,,,http://www.redfin.com/NY/Jamaica/91-48-Springfield-Blvd-11428/home/20748124,MLSLI,3183270,N,Y,40.724531,-73.739462
MLS Listing,,Multi-Family (2-4 Unit),114-50 157 St,Jamaica,NY,11434,760000,5,2,Jamaica,,3096,1960,47,,,Active,,,http://www.redfin.com/NY/Jamaica/114-50-157th-St-11434/home/20710094,MLSLI,3183098,N,Y,40.686515,-73.7892329
MLS Listing,,Multi-Family (2-4 Unit),3316 Clarendon Rd,Brooklyn,NY,11203,750000,5,2.5,Brooklyn,,3400,1920,48,,,Active,,,http://www.redfin.com/NY/Brooklyn/3316-Clarendon-Rd-11203/home/40781763,MLSLI,3183007,N,Y,40.64321,-73.945192
MLS Listing,,Multi-Family (2-4 Unit),116-29 Merrick Blvd,Jamaica,NY,11434,775000,6,4.5,Queens,2000,1977,2005,48,388,,Active,January-18-2020 01:00 PM,January-18-2020 04:00 PM,http://www.redfin.com/NY/Jamaica/116-29-Merrick-Blvd-11434/home/20647455,MLSLI,3183006,N,Y,40.6879105,-73.7756864
MLS Listing,,Townhouse,980 A Gates Ave,Bed-Stuy,NY,11221,799000,4,2.5,Bed-Stuy,,1125,1899,48,,,Active,,,http://www.redfin.com/NY/Brooklyn/980A-Gates-Ave-11221/home/169961567,MLSLI,3182993,N,Y,40.688986,-73.924425
MLS Listing,,Multi-Family (2-4 Unit),133 Highland Pl,Cypress Hills,NY,11208,799000,5,2,Cypress Hills,2140,2000,1899,49,373,,Active,,,http://www.redfin.com/NY/Brooklyn/133-Highland-Pl-11208/home/40758318,MLSLI,3182844,N,Y,40.6821418,-73.8811292
MLS Listing,,Multi-Family (2-4 Unit),2711 Decatur Ave,Bronx,NY,10458,785000,10,3,Bronx,3200,3179,1930,49,245,,Active,,,http://www.redfin.com/NY/The-Bronx/2711-Decatur-Ave-10458/home/44762012,HGMLS,5121593,N,Y,40.8652971,-73.888641
MLS Listing,,Townhouse,218 Braisted Ave,Staten Island,NY,10314,795000,4,4,New Springville,2320,4000,1980,49,343,,Active,,,http://www.redfin.com/NY/Staten-Island/218-Braisted-Ave-10314/home/56088486,SIBORMLS,1134022,N,Y,40.5908777,-74.1557645
MLS Listing,,Multi-Family (2-4 Unit),102-27 188th St,Hollis,NY,11423,799000,5,1,Hollis,,2500,1950,50,,,Active,,,http://www.redfin.com/NY/Jamaica/102-27-188th-St-11423/home/20750865,MLSLI,3182616,N,Y,40.707318,-73.769184
MLS Listing,,Condo/Co-op,37-10 190 St Unit B,Flushing,NY,11358,780000,4,2,Auburndale/North Flushing,1674,,2008,53,466,904,Active,,,http://www.redfin.com/NY/Flushing/37-10A-190th-St-11358/unit-B/home/169914521,MLSLI,3182170,N,Y,40.7621003,-73.7919326
MLS Listing,,Single Family Residential,9-02 129th St,College Point,NY,11356,799000,4,2.5,College Point,1351,5000,1930,53,591,,Active,,,http://www.redfin.com/NY/College-Point/902-129th-St-11356/home/20873309,MLSLI,3182053,N,Y,40.7891504,-73.8392499
MLS Listing,,Multi-Family (2-4 Unit),90-43 176 St,Jamaica,NY,11432,799000,4,2.5,Jamaica,,2469,1920,53,,,Active,,,http://www.redfin.com/NY/Jamaica/90-43-176th-St-11432/home/20765756,MLSLI,3181950,N,Y,40.708924,-73.78446
MLS Listing,,Multi-Family (2-4 Unit),106 Carroll St,Bronx,NY,10464,775000,4,2,Bronx,1800,3149,1999,54,431,,Active,,,http://www.redfin.com/NY/The-Bronx/106-Caroll-St-10464/home/44799235,HGMLS,5120972,N,Y,40.8456553,-73.7861686
MLS Listing,,Multi-Family (2-4 Unit),2238 Haviland Ave,Bronx,NY,10462,750000,4,2,Bronx,1845,3632,1935,55,407,,Active,,,http://www.redfin.com/NY/The-Bronx/2238-Haviland-Ave-10462/home/44760280,HGMLS,5120959,N,Y,40.8304988,-73.8491428
MLS Listing,,Single Family Residential,87 Brielle Ave,Staten Island,NY,10314,799000,5,3,Manor Heights,2112,7000,1955,55,378,,Active,,,http://www.redfin.com/NY/Staten-Island/87-Brielle-Ave-10314/home/56062947,SIBORMLS,1133915,N,Y,40.5984047,-74.1260835
MLS Listing,,Multi-Family (2-4 Unit),1230 Colgate Ave,call Listing Agent,NY,10472,775000,5,2,Bronx,2618,,1920,58,296,,Active,,,http://www.redfin.com/NY/The-Bronx/1230-Colgate-Ave-10472/home/44766058,HGMLS,5120589,N,Y,40.829376,-73.881924
MLS Listing,,Multi-Family (2-4 Unit),109-32 176th St,Jamaica,NY,11433,775000,5,3.5,Jamaica,,4000,1920,58,,,Active,,,http://www.redfin.com/NY/Jamaica/109-32-176th-St-11433/home/20751055,MLSLI,3181034,N,Y,40.698548,-73.7790459
MLS Listing,,Multi-Family (2-4 Unit),49 Montauk Ave,Cypress Hills,NY,11208,769000,5,3.5,Cypress Hills,2813,1875,1910,58,273,,Active,,,http://www.redfin.com/NY/Brooklyn/49-Montauk-Ave-11208/home/169858294,MLSLI,3181007,N,Y,40.6782465,-73.8787405
MLS Listing,,Townhouse,20 Malibu Ct,Staten Island,NY,10309,758800,4,4,Princes Bay,1746,2410,2012,59,435,92,Active,,,http://www.redfin.com/NY/Staten-Island/20-Malibu-Ct-10309/home/56138355,SIBORMLS,1133846,N,Y,40.5375451,-74.2140156
MLS Listing,,Multi-Family (2-4 Unit),1868 Guerlain St,Bronx,NY,10460,765000,6,2,Bronx,2292,,2007,59,334,,Active,,,http://www.redfin.com/NY/The-Bronx/1868-Guerlain-St-10460/home/44805857,HGMLS,5120297,N,Y,40.8397317,-73.8643586
MLS Listing,,Single Family Residential,1635 Bogart Ave,Bronx,NY,10462,750000,4,2,Bronx,1672,3741,1925,59,449,,Active,,,http://www.redfin.com/NY/The-Bronx/1635-Bogart-Ave-10462/home/44731881,HGMLS,5120293,N,Y,40.8449181,-73.8562181
MLS Listing,,Townhouse,19 Knapp St,Staten Island,NY,10314,799000,5,3,New Springville,2693,4480,1970,59,297,,Active,,,http://www.redfin.com/NY/Staten-Island/19-Knapp-St-10314/home/56041036,SIBORMLS,1133830,N,Y,40.5947721,-74.1631038
MLS Listing,,Multi-Family (2-4 Unit),240-15 Caney Rd,Rosedale,NY,11422,789000,5,3,Rosedale,,3000,1925,60,,,Active,,,http://www.redfin.com/NY/Jamaica/240-15-Caney-Rd-11422/home/20688576,MLSLI,3180523,N,Y,40.6620097,-73.740812
MLS Listing,,Multi-Family (2-4 Unit),116-16 131st St,S. Ozone Park,NY,11420,765000,4,3,S. Ozone Park,,3150,1930,60,,,Active,,,http://www.redfin.com/NY/Jamaica/116-16-131st-St-11420/home/20723458,MLSLI,3180521,N,Y,40.677485,-73.808989
MLS Listing,,Townhouse,277 St. Pauls Ave,Staten Island,NY,10304,799301,7,3,St. George,3655,4012,1920,60,219,,Active,,,http://www.redfin.com/NY/Staten-Island/277-St-Pauls-Ave-10304/home/56137814,SIBORMLS,1133800,N,Y,40.6310419,-74.0802452
MLS Listing,,Single Family Residential,90-01 Springfield Blvd,Queens Village,NY,11428,769000,4,3,Queens Village,,3500,1935,61,,,Active,,,http://www.redfin.com/NY/Queens-Village/9001-Springfield-Blvd-11428/home/20744307,MLSLI,3180271,N,Y,40.7267808,-73.7412479
MLS Listing,,Single Family Residential,164-12 88th St,Howard Beach,NY,11414,799000,4,2,Rockward Park,2200,3300,1950,61,363,,Active,,,http://www.redfin.com/NY/Jamaica/164-12-88th-St-11414/home/20683594,MLSLI,3180106,N,Y,40.649656,-73.842641
MLS Listing,,Single Family Residential,524 Powell St,Staten Island,NY,10312,799000,4,3,Huguenot,1720,4725,1965,62,465,,Active,,,http://www.redfin.com/NY/Staten-Island/524-Powell-St-10312/home/56127890,SIBORMLS,1133742,N,Y,40.542509,-74.1993261
MLS Listing,,Multi-Family (2-4 Unit),168-15 119th Ave,Jamaica,NY,11434,777000,5,3,Jamaica,,3100,1920,63,,,Active,,,http://www.redfin.com/NY/Jamaica/168-15-119th-Ave-11434/home/20704697,MLSLI,3179684,N,Y,40.683346,-73.776482
MLS Listing,,Single Family Residential,285 Clinton B Fiske Ave,Staten  Island,NY,10314,774999,4,2.25,Staten  Island,1820,3000,1925,63,426,,Active,,,http://www.redfin.com/NY/Staten-Island/285-Fiske-Ave-10314/home/56047355,BNYMLS,434660,N,Y,40.6163021,-74.1337047
MLS Listing,,Multi-Family (2-4 Unit),85-09 101st Ave,Ozone Park,NY,11416,789000,6,2.5,Ozone Park,,2500,1910,64,,,Active,January-18-2020 12:00 PM,January-18-2020 03:00 PM,http://www.redfin.com/NY/Jamaica/85-09-101st-Ave-11416/home/20779698,MLSLI,3179467,N,Y,40.682161,-73.854227
MLS Listing,,Multi-Family (2-4 Unit),165 W161 St,Bronx,NY,10452,750000,7,4,Bronx,,1570,2004,66,,,Active,,,http://www.redfin.com/NY/The-Bronx/165-W-161st-St-10452/home/44797640,MLSLI,3179291,N,Y,40.830884,-73.9312
MLS Listing,,Multi-Family (2-4 Unit),1414 Vyse Ave,bronx,NY,10459,799000,7,5,bronx,,2500,1920,66,,,Active,,,http://www.redfin.com/NY/The-Bronx/1414-Vyse-Ave-10459/home/44712451,MLSLI,3179231,N,Y,40.830464,-73.889385
MLS Listing,,Multi-Family (2-4 Unit),3048 Wilson Ave,Bronx,NY,10469,799000,4,3,Bronx,,2500,1930,66,,,Active,,,http://www.redfin.com/NY/The-Bronx/3048-Wilson-Ave-10469/home/44735388,MLSLI,3179210,N,Y,40.8707499,-73.8486374
MLS Listing,,Multi-Family (2-4 Unit),630 E 230 St,Bronx,NY,10466,799000,6,5,Bronx,,2860,1901,66,,,Active,,,http://www.redfin.com/NY/The-Bronx/630-E-230th-St-10466/home/44791680,MLSLI,3179185,N,Y,40.891883,-73.861049
MLS Listing,,Townhouse,,Staten Island,NY,10314,795990,5,5,,2072,3045,1982,66,384,,Active,,,http://www.redfin.com/NY/Staten-Island/Undisclosed-address-10314/home/56115274,SIBORMLS,1133675,N,Y,40.586097,-74.14855
MLS Listing,,Multi-Family (2-4 Unit),4218 Edson Ave,Bronx,NY,10466,765000,9,3,Bronx,3186,,1925,66,240,,Active,,,http://www.redfin.com/NY/The-Bronx/4218-Edson-Ave-10466/home/44742165,HGMLS,5118577,N,Y,40.8959054,-73.8455591
MLS Listing,,Multi-Family (2-4 Unit),118-11 Riverton St,St. Albans,NY,11412,799000,5,3,St. Albans,,2500,2004,66,,,Active,,,http://www.redfin.com/NY/Jamaica/118-11-Riverton-St-11412/home/20665123,MLSLI,3179071,N,Y,40.690048,-73.762808
MLS Listing,,Multi-Family (2-4 Unit),560 Fountain Ave,Brooklyn,NY,11208,799000,8,5,East New York,,1800,1910,68,,,Active,,,http://www.redfin.com/NY/Brooklyn/560-Fountain-Ave-11208/home/40770100,MLSLI,3178509,N,Y,40.666104,-73.8717659
MLS Listing,,Townhouse,147 Giffords Ln,Staten Island,NY,10308,780000,5,3,Great Kills,1500,4600,1945,68,520,,Active,,,http://www.redfin.com/NY/Staten-Island/147-Giffords-Ln-10308/home/56066627,SIBORMLS,1133605,N,Y,40.5549466,-74.1517278
MLS Listing,,Multi-Family (2-4 Unit),1531 Hammersley Ave,Bronx,NY,10469,799000,5,2.5,Bronx,2622,1907,1950,69,305,,Active,,,http://www.redfin.com/NY/The-Bronx/1531-Hammersley-Ave-10469/home/44789973,HGMLS,5118382,N,Y,40.8717616,-73.8427163
MLS Listing,,Multi-Family (2-4 Unit),819 E 213th St,Bronx,NY,10467,800000,4,2,Bronx,2718,5000,1935,69,294,,Active,,,http://www.redfin.com/NY/The-Bronx/819-E-213th-St-10467/home/44791603,HGMLS,5118417,N,Y,40.8783841,-73.8608124
MLS Listing,,Single Family Residential,82 Superior Rd,Bellerose Vill,NY,11001,769000,4,2,Village Of Bellerose,2568,4500,1927,69,299,,Active,,,http://www.redfin.com/NY/Bellerose/82-Superior-Rd-11001/home/20480190,MLSLI,3178247,N,Y,40.7233337,-73.7133756
MLS Listing,,Single Family Residential,162 Kelly Blvd,Staten Island,NY,10314,750000,4,2,New Springville,2210,4000,1970,69,339,,Active,,,http://www.redfin.com/NY/Staten-Island/162-Kelly-Blvd-10314/home/56025523,SIBORMLS,1133592,N,Y,40.5861535,-74.1552141
MLS Listing,,Single Family Residential,563 E 32nd St,Brooklyn,NY,11210,799000,5,1.5,East Flatbush,,4100,1915,70,,,Active,,,http://www.redfin.com/NY/Brooklyn/563-E-32nd-St-11210/home/40783271,MLSLI,3178033,N,Y,40.6371383,-73.9460163
MLS Listing,,Multi-Family (2-4 Unit),74-14 88th Ave,Woodhaven,NY,11421,759000,4,2,Woodhaven,,2102,1920,70,,,Active,,,http://www.redfin.com/NY/Jamaica/74-14-88th-Ave-11421/home/20784098,MLSLI,3178015,N,Y,40.688988,-73.867008
MLS Listing,,Multi-Family (2-4 Unit),2578 Marion Ave,call Listing Agent,NY,10458,790000,10,5,Bronx,3625,2504,1910,71,218,,Active,,,http://www.redfin.com/NY/The-Bronx/2578-Marion-Ave-10458/home/44714575,HGMLS,5117904,N,Y,40.8632815,-73.8917977
MLS Listing,,Single Family Residential,104-28 191st St,Jamaica,NY,11412,789000,6,4,Jamaica,,3200,2016,74,,,Active,,,http://www.redfin.com/NY/Jamaica/104-28-191st-St-11412/home/20743499,MLSLI,3177044,N,Y,40.705976,-73.766538
MLS Listing,,Multi-Family (2-4 Unit),80-41 159 St,Jamaica Hills,NY,11432,798000,5,2,Jamaica Hills,,2400,1920,75,,,Active,,,http://www.redfin.com/NY/Jamaica/80-41-159th-St-11432/home/20824231,MLSLI,3176873,N,Y,40.71905,-73.807488
MLS Listing,,Single Family Residential,87-89 256th St,Floral Park,NY,11001,759000,4,2,Floral Park,,4000,1935,75,,,Active,,,http://www.redfin.com/NY/Queens/87-89-256th-St-11001/home/20789918,MLSLI,3176796,N,Y,40.728326,-73.708546
MLS Listing,,Single Family Residential,870 Flanders Dr,N. Woodmere,NY,11581,759000,5,4,N. Woodmere,2980,9240,1959,75,255,,Active,,,http://www.redfin.com/NY/Valley-Stream/870-Flanders-Dr-11581/home/20392614,MLSLI,3176697,N,Y,40.6510572,-73.7257657
MLS Listing,,Multi-Family (2-4 Unit),165-08 Linden Blvd,Jamaica,NY,11434,795000,6,4,Jamaica,,4114,1991,75,,,Active,,,http://www.redfin.com/NY/Jamaica/165-08-Linden-Blvd-11434/home/20708852,MLSLI,3176664,N,Y,40.689503,-73.783616
MLS Listing,,Multi-Family (2-4 Unit),808 Thomas S Boyland St,Brooklyn,NY,11212,799000,5,2.5,Brooklyn,,1800,1997,77,,,Active,,,http://www.redfin.com/NY/Brooklyn/808-S-Thomas-Boyland-St-11212/home/40917927,MLSLI,3176214,N,Y,40.6607839,-73.9116522
MLS Listing,,Multi-Family (2-4 Unit),2128 Edenwald Ave,Bronx,NY,10466,799000,6,6,Bronx,2100,2901,1984,77,380,,Active,,,http://www.redfin.com/NY/The-Bronx/2128-Edenwald-Ave-10466/home/44783749,HGMLS,5098340,N,Y,40.8936511,-73.8388279
MLS Listing,,Multi-Family (2-4 Unit),494 Linwood St,Brooklyn,NY,11208,769000,6,2,Brooklyn,,2250,1901,79,,,Active,,,http://www.redfin.com/NY/Brooklyn/494-Linwood-St-11208/home/40759848,MLSLI,3175759,N,Y,40.6732991,-73.8826451
MLS Listing,,Multi-Family (2-4 Unit),580 E 166 St,Bronx,NY,10456,799000,12,6,Bronx,3804,2743,2007,81,210,,Active,,,http://www.redfin.com/NY/The-Bronx/580-E-166th-St-10456/home/44603534,MLSLI,3175392,N,Y,40.8274178,-73.9056988
MLS Listing,,Multi-Family (2-4 Unit),928 E 211th St,Bronx,NY,10469,789900,5,3,Bronx,3000,2626,1930,81,263,,Active,,,http://www.redfin.com/NY/The-Bronx/928-E-211th-St-10469/home/44791851,HGMLS,5112614,N,Y,40.87576,-73.8590598
MLS Listing,,Multi-Family (2-4 Unit),1159 Vyse Ave,Bronx,NY,10459,789000,5,2.5,Bronx,2160,1999,1992,82,365,,Active,,,http://www.redfin.com/NY/The-Bronx/1159-Vyse-Ave-10459/home/44712037,HGMLS,5112069,N,Y,40.827946,-73.890235
MLS Listing,,Multi-Family (2-4 Unit),109-19 127th St,S. Ozone Park,NY,11420,799000,6,3,South Ozone Park,,1980,1930,83,,,Active,,,http://www.redfin.com/NY/Jamaica/109-19-127th-St-11420/home/20725400,MLSLI,3174798,N,Y,40.683679,-73.814592
MLS Listing,,Single Family Residential,79 Huron Rd,Bellerose Vill,NY,11001,777000,5,1.5,Bellerose Vill,2524,8925,1927,83,308,,Active,,,http://www.redfin.com/NY/Floral-Park/79-Huron-Rd-11001/home/22829377,MLSLI,3174579,N,Y,40.726245,-73.713521
MLS Listing,,Multi-Family (2-4 Unit),483 Jersey St,Staten  Island,NY,10301,799000,6,2,Staten  Island,3078,1620,,84,260,,Active,,,http://www.redfin.com/NY/Staten-Island/483-Jersey-St-10301/home/56099892,BNYMLS,434186,N,Y,40.6369182,-74.0859813
MLS Listing,,Single Family Residential,83 Brentwood Ln,Valley Stream,NY,11581,789000,4,3,Mill Brook,2148,6000,1955,84,367,,Active,,,http://www.redfin.com/NY/Valley-Stream/83-Brentwood-Ln-11581/home/20393266,MLSLI,3174321,N,Y,40.6575529,-73.7219269
MLS Listing,,Single Family Residential,249-04 87th Dr,Bellerose,NY,11426,779000,4,2,Bellerose,,4123,1935,87,,,Active,,,http://www.redfin.com/NY/Jamaica/249-04-87th-Dr-11426/home/20794392,MLSLI,3173826,N,Y,40.728722,-73.7161519
MLS Listing,,Townhouse,71 Forest St,Staten Island,NY,10314,799999,4,3,Bulls Head,2166,4950,1970,89,369,,Active,,,http://www.redfin.com/NY/Staten-Island/71-Forest-St-10314/home/56079272,SIBORMLS,1133097,N,Y,40.6058,-74.1652138
MLS Listing,,Single Family Residential,1763 Stuart St,Brooklyn,NY,11229,779000,4,2.75,Brooklyn,1960,2000,1950,90,397,,Active,,,http://www.redfin.com/NY/Brooklyn/1763-Stuart-St-11229/home/40846127,BNYMLS,434070,N,Y,40.6093306,-73.9418718
MLS Listing,,Multi-Family (2-4 Unit),814 Elsmere Pl,Bronx,NY,10460,779000,7,5,Bronx,2700,1668,2007,91,289,,Active,,,http://www.redfin.com/NY/The-Bronx/814-Elsmere-Pl-10460/home/44603505,HGMLS,5102025,N,Y,40.8427423,-73.8879455
MLS Listing,,Single Family Residential,840 Oliver Ave,N. Woodmere,NY,11581,759000,4,2,N. Woodmere,,6500,1958,91,,,Active,,,http://www.redfin.com/NY/Valley-Stream/840-Oliver-Ave-11581/home/20390633,MLSLI,3172487,N,Y,40.6489341,-73.725375
MLS Listing,,Multi-Family (2-4 Unit),117-11 164th St,Jamaica,NY,11434,785000,6,3,Jamaica,,4000,1930,94,,,Active,,,http://www.redfin.com/NY/Jamaica/117-11-164th-St-11434/home/20707650,MLSLI,3172244,N,Y,40.684225,-73.781644
MLS Listing,,Multi-Family (2-4 Unit),3669 Willett Ave,Bronx,NY,10467,769000,7,3,Bronx,3960,3301,1925,94,194,,Active,,,http://www.redfin.com/NY/The-Bronx/3669-Willett-Ave-10467/home/44736619,HGMLS,5098060,N,Y,40.8814892,-73.8657626
MLS Listing,,Multi-Family (2-4 Unit),4316 Edson Ave,Bronx,NY,10466,769000,5,2,Bronx,1908,2186,1925,94,403,,Active,,,http://www.redfin.com/NY/The-Bronx/4316-Edson-Ave-10466/home/44740032,HGMLS,5095648,N,Y,40.896883,-73.8458692
MLS Listing,,Townhouse,16 Dehart Ave,Staten Island,NY,10303,799000,6,2,Mariners Harbor,2518,9610,1899,94,317,,Active,,,http://www.redfin.com/NY/Staten-Island/16-Dehart-Ave-10303/home/56113428,SIBORMLS,1132984,N,Y,40.6363274,-74.1571865
MLS Listing,,Single Family Residential,196-01 Hillside Ave,Holliswood,NY,11423,798000,4,3,Holliswood,1658,3750,1920,96,481,,Active,,,http://www.redfin.com/NY/Jamaica/196-01-Hillside-Ave-11423/home/20751998,MLSLI,3171478,N,Y,40.717889,-73.766936
MLS Listing,,Single Family Residential,266-08 E Williston Ave,Floral Park,NY,11001,788000,4,2.5,Floral Park,,4500,1955,96,,,Active,,,http://www.redfin.com/NY/Queens/266-08-E-Williston-Ave-11001/home/20790258,MLSLI,3171394,N,Y,40.737816,-73.702123
MLS Listing,,Multi-Family (2-4 Unit),1615 Remsen Ave,Canarsie,NY,11236,768000,5,4,Canarsie,1127,2150,1955,98,681,,Active,,,http://www.redfin.com/NY/Brooklyn/1615-Remsen-Ave-11236/home/40894879,MLSLI,3170918,N,Y,40.632457,-73.896874
MLS Listing,,Multi-Family (2-4 Unit),10-11 Bay 30 St,Far Rockaway,NY,11691,775000,6,3,Far Rockaway,,4000,1955,98,,,Active,,,http://www.redfin.com/NY/Far-Rockaway/1011-Bay-30th-St-11691/home/20675441,MLSLI,3170781,N,Y,40.6016042,-73.7664954
MLS Listing,,Multi-Family (2-4 Unit),467 Atkins Ave,Brooklyn,NY,11208,759000,5,2,Brooklyn,,2000,1920,98,,,Active,,,http://www.redfin.com/NY/Brooklyn/467-Atkins-Ave-11208/home/40769611,MLSLI,3170751,N,Y,40.6672904,-73.8764206
MLS Listing,,Single Family Residential,2135 E 33 St,Brooklyn,NY,11234,779000,4,2.5,Brooklyn,1388,2467,1935,99,561,,Active,,,http://www.redfin.com/NY/Brooklyn/2135-E-33rd-St-11234/home/40903502,BNYMLS,433788,N,Y,40.6061533,-73.9306893
MLS Listing,,Single Family Residential,5525 Avenue T,Brooklyn,NY,11234,799000,4,3,Brooklyn,1944,5761,1940,101,411,,Active,,,http://www.redfin.com/NY/Brooklyn/5525-Avenue-T-11234/home/40902567,BNYMLS,433799,N,Y,40.6139149,-73.920927
MLS Listing,,Single Family Residential,70 Sparkill Ave,Staten Island,NY,10304,799000,4,2,Dongan Hills Colony,1500,12000,1925,103,533,,Active,,,http://www.redfin.com/NY/Staten-Island/70-Sparkill-Ave-10304/home/56134220,SIBORMLS,1132700,N,Y,40.5997972,-74.0941493
MLS Listing,,Multi-Family (2-4 Unit),1009 E 228th St,Bronx,NY,10466,789000,7,3,Bronx,2140,2735,1961,104,369,,Active,,,http://www.redfin.com/NY/The-Bronx/1009-E-228th-St-10466/home/44737061,HGMLS,5086350,N,Y,40.887153,-73.849849
MLS Listing,,Multi-Family (2-4 Unit),1251 Fteley Ave,Bronx,NY,10472,799000,7,3,Bronx,2800,2025,1960,104,285,,Active,,,http://www.redfin.com/NY/The-Bronx/1251-Fteley-Ave-10472/home/44757544,HGMLS,5086318,N,Y,40.830943,-73.872245
MLS Listing,,Multi-Family (2-4 Unit),3561 Willett Ave,Bronx,NY,10467,775000,9,4,Bronx,2400,5000,,105,323,,Active,,,http://www.redfin.com/NY/The-Bronx/3561-Willett-Ave-10467/home/44744001,HGMLS,5080442,N,Y,40.8793866,-73.8667388
MLS Listing,,Multi-Family (2-4 Unit),1910 Lacombe Ave,Bronx,NY,10473,775000,9,6,Bronx,3060,2500,2006,105,253,,Active,,,http://www.redfin.com/NY/The-Bronx/1910-Lacombe-Ave-10473/home/44605231,HGMLS,5080431,N,Y,40.8154481,-73.8573299
MLS Listing,,Multi-Family (2-4 Unit),88-08 91st Ave,Woodhaven,NY,11421,785000,4,2,Woodhaven,,2000,1920,105,,,Active,,,http://www.redfin.com/NY/Woodhaven/8808-91st-Ave-11421/home/20783168,MLSLI,3168792,N,Y,40.6884527,-73.8544956
MLS Listing,,Multi-Family (2-4 Unit),1038 E 100 St,Brooklyn,NY,11236,780000,5,3,Brooklyn,,2000,1960,106,,,Active,,,http://www.redfin.com/NY/Brooklyn/1038-E-100th-St-11236/home/40892675,BNYMLS,433668,N,Y,40.642646,-73.895886
MLS Listing,,Multi-Family (2-4 Unit),108-30 Liverpool St,Jamaica,NY,11435,794800,7,3,Jamaica,2750,3000,1930,107,289,,Active,,,http://www.redfin.com/NY/Jamaica/108-30-Liverpool-St-11435/home/20715968,MLSLI,3168459,N,Y,40.690902,-73.801177
MLS Listing,,Townhouse,7413 Rockaway Blvd,Woodhaven,NY,11421,789000,6,2.5,Woodhaven,,1584,1931,107,,,Active,,,http://www.redfin.com/NY/Jamaica/74-13-Rockaway-Blvd-11421/home/161428403,MLSLI,3168451,N,Y,40.6866204,-73.8663598
MLS Listing,,Single Family Residential,300 Brighton St,Staten Island,NY,10307,775900,4,4,Tottenville,2885,5000,1920,108,269,,Active,,,http://www.redfin.com/NY/Staten-Island/300-Brighton-St-10307/home/56082378,SIBORMLS,1132574,N,Y,40.5027008,-74.2430828
MLS Listing,,Multi-Family (2-4 Unit),150-11 109 Ave,Jamaica,NY,11433,799000,4,3,Jamaica,,2256,1929,108,,,Active,,,http://www.redfin.com/NY/Jamaica/150-11-109th-Ave-11433/home/20759364,MLSLI,3168117,N,Y,40.6919915,-73.7976554
MLS Listing,,Multi-Family (2-4 Unit),922 Logan Ave,Bronx,NY,11208,795000,4,3,Bronx,1512,2800,1930,110,526,,Active,,,http://www.redfin.com/NY/The-Bronx/922-Logan-Ave-10465/home/44787428,HGMLS,5079378,N,Y,40.83146,-73.823495
MLS Listing,,Multi-Family (2-4 Unit),934 E 214th St,Bronx,NY,10469,799000,6,2,Bronx,2880,2374,1970,110,277,,Active,,,http://www.redfin.com/NY/The-Bronx/934-E-214th-St-10469/home/44735421,HGMLS,5079283,N,Y,40.8777893,-73.8577501
MLS Listing,,Multi-Family (2-4 Unit),108-12 171st Pl,Jamaica,NY,11433,774990,5,3,Jamaica,,4000,1950,110,,,Active,,,http://www.redfin.com/NY/Jamaica/108-12-171st-Pl-11433/home/20757914,MLSLI,3167524,N,Y,40.698729,-73.784558
MLS Listing,,Single Family Residential,2221 E 70 St,Brooklyn,NY,11234,799000,4,2,Brooklyn,1683,2550,1960,111,475,,Active,,,http://www.redfin.com/NY/Brooklyn/2221-E-70th-St-11234/home/40899946,BNYMLS,433559,N,Y,40.617458,-73.905635
MLS Listing,,Single Family Residential,79 Charleston Ave,Staten Island,NY,10309,768888,4,2,Rossville,2834,3570,1985,111,271,10,Active,,,http://www.redfin.com/NY/Staten-Island/79-Charleston-Ave-10309/home/56124708,SIBORMLS,1132509,N,Y,40.5496428,-74.2164996
MLS Listing,,Multi-Family (2-4 Unit),87-70 125th St,Richmond Hill,NY,11418,799000,5,2,Richmond Hill,,2000,1901,111,,,Active,,,http://www.redfin.com/NY/Jamaica/87-70-125th-St-11418/home/20775936,MLSLI,3167135,N,Y,40.699003,-73.824954
MLS Listing,,Single Family Residential,367 Saint Pauls Ave,Staten Island,NY,10304,794900,4,4,Stapleton,2862,9975,1899,112,278,,Active,,,http://www.redfin.com/NY/Staten-Island/367-St-Pauls-Ave-10304/home/56111361,SIBORMLS,1132476,N,Y,40.6292566,-74.0821267
MLS Listing,,Multi-Family (2-4 Unit),149-68 256th St,Rosedale,NY,11422,769000,6,3,Rosedale,,2500,1950,112,,,Active,January-13-2020 01:00 PM,January-13-2020 04:30 PM,http://www.redfin.com/NY/Jamaica/149-68-256th-St-11422/home/20684587,MLSLI,3167016,N,Y,40.650889,-73.733357
MLS Listing,,Multi-Family (2-4 Unit),1770 Topping Ave,Bronx,NY,10457,760000,7,2,Bronx,3411,1899,1899,112,223,,Active,,,http://www.redfin.com/NY/The-Bronx/1770-Topping-Ave-10457/home/44605018,HGMLS,5076598,N,Y,40.846067,-73.9054056
MLS Listing,,Townhouse,88-16 87th St,Woodhaven,NY,11421,758000,4,2,Woodhaven,,1917,1915,114,,,Active,,,http://www.redfin.com/NY/Jamaica/88-16-87th-St-11421/home/20786768,MLSLI,3166620,N,Y,40.690502,-73.856747
MLS Listing,,Multi-Family (2-4 Unit),587 Bristol St,Brooklyn,NY,11212,750000,6,3,Brooklyn,,2333,1930,116,,,Active,,,http://www.redfin.com/NY/Brooklyn/587-Bristol-St-11212/home/40754210,MLSLI,3166009,N,Y,40.656551,-73.909069
MLS Listing,,Townhouse,45-39 Oceania St,Bayside,NY,11361,790000,5,3,Bayside,1900,1860,1945,116,416,,Active,,,http://www.redfin.com/NY/Flushing/45-39-Oceania-St-11361/home/20812768,MLSLI,3165976,N,Y,40.757969,-73.773415
MLS Listing,,Multi-Family (2-4 Unit),87-40 78th St,Jamaica,NY,11422,800000,5,3,Jamaica,,1714,1940,116,,,Active,,,http://www.redfin.com/NY/Woodhaven/87-40-78th-St-11421/home/20788880,MLSLI,3165803,N,Y,40.6900302,-73.8636263
MLS Listing,,Multi-Family (2-4 Unit),587 Miller Ave,Brooklyn,NY,11207,760000,6,3,Brooklyn,,2375,1920,117,,,Active,,,http://www.redfin.com/NY/Brooklyn/587-Miller-Ave-11207/home/35634099,MLSLI,3165463,N,Y,40.6662394,-73.8893518
MLS Listing,,Multi-Family (2-4 Unit),3038 Brighton 6 St,Brooklyn,NY,11235,799000,6,3,Brooklyn,2440,2000,1925,118,327,,Active,,,http://www.redfin.com/NY/Brooklyn/3038-Brighton-6th-St-11235/home/40906546,BNYMLS,433338,N,Y,40.578615,-73.962145
MLS Listing,,Multi-Family (2-4 Unit),591 Warwick St,Brooklyn,NY,11207,799000,7,3,Brooklyn,,2000,1920,118,,,Active,,,http://www.redfin.com/NY/Brooklyn/591-Warwick-St-11207/home/40761261,MLSLI,3165150,N,Y,40.6688865,-73.8844826
MLS Listing,,Multi-Family (2-4 Unit),989 Crescent St,E. New York,NY,11207,785000,5,2,E. New York,,1622,1920,123,,,Active,,,http://www.redfin.com/NY/E-New-York/989-Crescent-St-11207/home/109162576,MLSLI,3164063,N,Y,40.663158,-73.866699
MLS Listing,,Single Family Residential,95-18 103rd St,Ozone Park,NY,11416,750000,5,2,Ozone Park,1280,4000,1920,124,586,,Active,,,http://www.redfin.com/NY/Jamaica/95-18-103rd-St-11416/home/20774700,MLSLI,3163508,N,Y,40.688185,-73.841263
MLS Listing,,Multi-Family (2-4 Unit),340 Logan St,Brooklyn,NY,11208,799999,5,3,Brooklyn,,2500,1910,124,,,Active,,,http://www.redfin.com/NY/Brooklyn/340-Logan-St-11208/home/40763721,MLSLI,3163473,N,Y,40.6779993,-73.877213
MLS Listing,,Single Family Residential,939 N 2nd St,New Hyde Park,NY,11040,759999,4,3,New Hyde Park,,5000,1951,129,,,Active,,,http://www.redfin.com/NY/North-New-Hyde-Park/939-N-2nd-St-11040/home/20556024,MLSLI,3162323,N,Y,40.7368876,-73.696858
MLS Listing,,Condo/Co-op,42-22 Ketcham St Unit 18C,Elmhurst,NY,11373,795000,4,2,Berkshire Green,1500,,1927,129,530,,Active,,,http://www.redfin.com/NY/Flushing/42-22-Ketcham-St-11373/unit-18C/home/108535101,MLSLI,3162264,N,Y,40.7447076,-73.883558
MLS Listing,,Multi-Family (2-4 Unit),129-21 144th St,S. Ozone Park,NY,11420,789000,5,3,S. Ozone Park,,2697,1960,129,,,Active,,,http://www.redfin.com/NY/Jamaica/129-21-144th-St-11436/home/20711764,MLSLI,3162257,N,Y,40.670878,-73.794806
MLS Listing,,Multi-Family (2-4 Unit),2550 W 16 St,Brooklyn,NY,11214,799000,6,2,Brooklyn,1968,2000,1930,130,406,,Active,,,http://www.redfin.com/NY/Brooklyn/2550-W-16th-St-11214/home/40849791,BNYMLS,432994,N,Y,40.5854801,-73.9853415
MLS Listing,,Single Family Residential,36-30 201st St,Bayside,NY,11361,759000,4,2,Bayside,,2300,1930,130,,,Active,,,http://www.redfin.com/NY/Flushing/36-30-201st-St-11361/home/20836037,MLSLI,3161577,N,Y,40.763353,-73.785306
MLS Listing,,Townhouse,239-37 65th Ave,Douglaston,NY,11362,799000,5,3.5,Douglaston,2120,2180,1970,137,377,,Active,,,http://www.redfin.com/NY/Flushing/239-37-65th-Ave-11362/home/20800476,MLSLI,3159948,N,Y,40.753181,-73.740204
MLS Listing,,Multi-Family (2-4 Unit),186-52 139th Ave,Springfield Gdns,NY,11413,800000,7,3,Springfield Gdns,2058,2058,1960,138,389,,Active,,,http://www.redfin.com/NY/Jamaica/186-52-139th-Ave-11413/home/20696063,MLSLI,3159691,N,Y,40.673023,-73.757094
MLS Listing,,Single Family Residential,233 Warwick Ave,Staten Island,NY,10314,779000,5,3,Willowbrook,2280,4000,1970,144,342,,Active,January-19-2020 01:00 PM,January-19-2020 03:00 PM,http://www.redfin.com/NY/Staten-Island/233-Warwick-Ave-10314/home/56058987,SIBORMLS,1131677,N,Y,40.6053518,-74.1366811
MLS Listing,,Multi-Family (2-4 Unit),14 Abbey Ct,Brooklyn,NY,11229,799000,4,3,Brooklyn,,1800,,144,,,Active,,,http://www.redfin.com/NY/Brooklyn/14-Abbey-Ct-11229/home/40910419,BNYMLS,432715,N,Y,40.5868407,-73.9189841
MLS Listing,,Multi-Family (2-4 Unit),2425 Brigham St,Brooklyn,NY,11235,798000,5,2,Brooklyn,1560,2000,1955,145,512,,Active,,,http://www.redfin.com/NY/Brooklyn/2425-Brigham-St-11235/home/40866461,BNYMLS,432689,N,Y,40.5939679,-73.9336354
MLS Listing,,Multi-Family (2-4 Unit),5306 Snyder Ave,Brooklyn,NY,11203,798000,6,2,Brooklyn,,2002,1925,147,,,Active,,,http://www.redfin.com/NY/Brooklyn/5306-Snyder-Ave-11203/home/40774723,MLSLI,3157197,N,Y,40.650092,-73.9269463
MLS Listing,,Townhouse,5787 Hylan Blvd,Staten Island,NY,10309,759540,4,4,Princes Bay,2200,3760,2001,150,345,,Active,,,http://www.redfin.com/NY/Staten-Island/5787-Hylan-Blvd-10309/home/56119041,SIBORMLS,1131547,N,Y,40.5191954,-74.1981447
MLS Listing,,Multi-Family (2-4 Unit),1624 Nelson Ave #2,Bronx,NY,10453,799000,6,4.5,Bronx,2569,3101,2007,152,311,,Active,,,http://www.redfin.com/NY/The-Bronx/1624-Nelson-Ave-10453/unit-2/home/168659504,HGMLS,4943909,N,Y,40.846578,-73.918873
MLS Listing,,Multi-Family (2-4 Unit),1628 Nelson Ave,Bronx,NY,10453,789000,6,4.5,Bronx,2478,2042,2007,152,318,,Active,,,http://www.redfin.com/NY/The-Bronx/1628-Nelson-Ave-10453/home/44745380,HGMLS,4943967,N,Y,40.846637,-73.91879
MLS Listing,,Single Family Residential,17 Liss St,Staten  Island,NY,10312,769000,6,2.75,Staten  Island,2184,4000,1960,152,352,,Active,,,http://www.redfin.com/NY/Staten-Island/17-Liss-St-10312/home/56023345,BNYMLS,432504,N,Y,40.5355821,-74.1628744
MLS Listing,,Multi-Family (2-4 Unit),1232 E 85 St,Brooklyn,NY,11236,775000,5,2.5,Brooklyn,,2000,,152,,,Active,,,http://www.redfin.com/NY/Brooklyn/1232-E-85th-St-11236/home/40888415,BNYMLS,432493,N,Y,40.6322404,-73.9036831
MLS Listing,,Multi-Family (2-4 Unit),8912 Bedell Ln,Brooklyn,NY,11236,799000,4,2,Canarsie,,2145,2006,153,,,Active,,,http://www.redfin.com/NY/Brooklyn/8912-Bedell-Ln-11236/home/40672457,MLSLI,3155708,N,Y,40.6435648,-73.9104348
MLS Listing,,Single Family Residential,327 Ashland Ave,Staten Island,NY,10309,799999,4,2,Princes Bay,1872,5000,1982,153,427,,Active,,,http://www.redfin.com/NY/Staten-Island/327-Ashland-Ave-10309/home/56056213,SIBORMLS,1131430,N,Y,40.5303674,-74.2032466
MLS Listing,,Multi-Family (2-4 Unit),2057 Prospect Ave,Bronx,NY,10457,799000,5,4,Bronx,2400,1999,1994,154,333,,Active,,,http://www.redfin.com/NY/The-Bronx/2057-Prospect-Ave-10457/home/44603379,HGMLS,5021388,N,Y,40.846327,-73.8876795
MLS Listing,,Multi-Family (2-4 Unit),2295 N Loring Pl Unit University Heights,Bronx,NY,10468,799000,8,3.5,Bronx,,4200,1901,158,,,Active,,,http://www.redfin.com/NY/The-Bronx/2295-Loring-Pl-N-10468/unit-University-Heights/home/168618994,MLSLI,3154417,N,Y,40.8616155,-73.9087222
MLS Listing,,Multi-Family (2-4 Unit),6408 Hull Ave,Flushing,NY,11351,780000,5,3,Flushing,,2500,1940,160,,,Active,,,http://www.redfin.com/NY/Flushing/64-08-Hull-Ave-11378/home/20908779,MLSLI,3153613,N,Y,40.725041,-73.901415
MLS Listing,,Multi-Family (2-4 Unit),2386 Stillwell Ave,Brooklyn,NY,11223,798000,5,2,Brooklyn,2000,1925,1931,161,399,,Active,,,http://www.redfin.com/NY/Brooklyn/2386-Stillwell-Ave-11223/home/168347770,BNYMLS,432277,N,Y,40.589079,-73.98417
MLS Listing,,Condo/Co-op,320 57th St Unit 5B,Brooklyn,NY,11220,788000,5,2,320 57 St Condo,1367,4007,1900,164,576,268,Active,,,http://www.redfin.com/NY/Brooklyn/320-57th-St-11220/unit-5B/home/40927916,MLSLI,3152817,N,Y,40.643322,-74.018433
MLS Listing,,Single Family Residential,275 Martin Ave,Staten Island,NY,10314,769000,5,3,Willowbrook,2105,4000,1965,165,365,,Active,,,http://www.redfin.com/NY/Staten-Island/275-Martin-Ave-10314/home/56050188,SIBORMLS,1131097,N,Y,40.6040297,-74.1393498
MLS Listing,,Single Family Residential,9 Highland Rd,Staten Island,NY,10308,799000,4,2,Great Kills,2596,6313,1944,165,308,,Active,January-18-2020 12:00 PM,January-18-2020 02:00 PM,http://www.redfin.com/NY/Staten-Island/9-Highland-Rd-10308/home/56019100,SIBORMLS,1131095,N,Y,40.5515795,-74.1440211
MLS Listing,,Multi-Family (2-4 Unit),538 Throggs Neck Expy,Bronx,NY,10465,775000,6,3,Bronx,2620,2526,1924,166,296,,Active,,,http://www.redfin.com/NY/The-Bronx/538-Throgs-Neck-Expy-10465/home/44750624,HGMLS,5008191,N,Y,40.8254385,-73.8155202
MLS Listing,,Multi-Family (2-4 Unit),2806 Marion Ave,Bronx,NY,10458,775000,7,4,Bronx,2558,1899,1935,167,303,,Active,January-19-2020 01:00 PM,January-19-2020 03:00 PM,http://www.redfin.com/NY/The-Bronx/2806-Marion-Ave-10458/home/168015364,HGMLS,5008466,N,Y,40.8670482,-73.8869993
MLS Listing,,Single Family Residential,9263 218th St,Queens Village,NY,11428,799000,5,3.5,Queens Village,1469,4000,1945,167,544,,Active,,,http://www.redfin.com/NY/Queens-Village/92-63-218th-St-11428/home/20748464,MLSLI,3151704,N,Y,40.721988,-73.73961
MLS Listing,,Multi-Family (2-4 Unit),178-36 Eveleth Rd,Jamaica,NY,11434,765000,6,3,Jamaica,2996,2500,1955,167,255,,Active,,,http://www.redfin.com/NY/Jamaica/178-36-Eveleth-Rd-11434/home/20702379,MLSLI,3151598,N,Y,40.681327,-73.7622899
MLS Listing,,Single Family Residential,659 Taylor Ave,Bronx,NY,10473,775000,6,5,Bronx,1340,2718,1978,169,578,,Active,,,http://www.redfin.com/NY/The-Bronx/659-Taylor-Ave-10473/home/44719154,HGMLS,5005625,N,Y,40.818936,-73.862697
MLS Listing,,Multi-Family (2-4 Unit),64 Hale Ave,Brooklyn,NY,11208,779000,7,3,Brooklyn,,2000,1915,173,,,Active,,,http://www.redfin.com/NY/Brooklyn/64-Hale-Ave-11208/home/40757646,MLSLI,3149944,N,Y,40.6837975,-73.8809778
MLS Listing,,Multi-Family (2-4 Unit),117-49 Nashville Blvd Blvd,Cambria Heights,NY,11411,799999,5,2.5,Cambria Heights,3900,3900,1940,174,205,,Active,,,http://www.redfin.com/NY/Jamaica/117-49-Nashville-Blvd-11411/home/20705054,MLSLI,3149875,N,Y,40.694914,-73.744769
MLS Listing,,Multi-Family (2-4 Unit),531 Cleveland St,Brooklyn,NY,11208,799000,6,2,Brooklyn,1834,1922,,178,436,,Active,,,http://www.redfin.com/NY/Brooklyn/531-Cleveland-St-11208/home/40760290,BNYMLS,431845,N,Y,40.6716046,-73.883495
MLS Listing,,Single Family Residential,103-48 96th St,Ozone Park,NY,11417,799000,6,2,Ozone Park,,2500,1930,178,,,Active,,,http://www.redfin.com/NY/Jamaica/103-48-96th-St-11417/home/20779038,MLSLI,3148828,N,Y,40.681078,-73.843667
MLS Listing,,Single Family Residential,7 Seguine Pl,Staten Island,NY,10312,759000,4,4,Annandale,2300,3989,2004,178,330,,Active,,,http://www.redfin.com/NY/Staten-Island/7-Seguine-Pl-10312/home/56106810,SIBORMLS,1130759,N,Y,40.539017,-74.171555
MLS Listing,,Single Family Residential,11538 127th St,S. Ozone Park,NY,11420,759000,5,2.5,S. Ozone Park,,2000,1958,179,,,Active,,,http://www.redfin.com/NY/South-Ozone-Park/115-38-127th-St-11420/home/20720525,MLSLI,3148638,N,Y,40.677858,-73.812331
MLS Listing,,Multi-Family (2-4 Unit),1905 Arnow Ave,Bronx,NY,10469,798000,8,5,Bronx,2040,2012,2004,181,391,,Active,,,http://www.redfin.com/NY/The-Bronx/1905-Arnow-Ave-10469/home/44798457,HGMLS,4992764,N,Y,40.869952,-73.8354852
MLS Listing,,Multi-Family (2-4 Unit),582 E 53 St,Brooklyn,NY,11203,799999,5,3,Brooklyn,3071,2680,,181,261,,Active,,,http://www.redfin.com/NY/Brooklyn/582-E-53rd-St-11203/home/40776071,BNYMLS,431737,N,Y,40.6453567,-73.9270842
MLS Listing,,Multi-Family (2-4 Unit),6 Frank Ct,Brooklyn,NY,11229,769000,4,2.75,Brooklyn,,2400,,182,,,Active,,,http://www.redfin.com/NY/Brooklyn/6-Frank-Ct-11229/home/40910518,BNYMLS,431660,N,Y,40.586201,-73.920891
MLS Listing,,Multi-Family (2-4 Unit),116-04 Farmers Blvd,St. Albans,NY,11412,800000,4,2,St. Albans,,4000,2006,187,,,Active,,,http://www.redfin.com/NY/St-Albans/11604-Farmers-Blvd-11412/home/20751186,MLSLI,3145978,N,Y,40.6936926,-73.7626099
MLS Listing,,Townhouse,361 Livermore Ave,Staten Island,NY,10314,799900,5,3,Westerleigh,1680,4000,1925,189,476,,Active,,,http://www.redfin.com/NY/Staten-Island/361-Livermore-Ave-10314/home/56047471,SIBORMLS,1130429,N,Y,40.6149252,-74.1389749
MLS Listing,,Single Family Residential,16 Sheraden Ave,Staten  Island,NY,10314,769900,4,2,Staten  Island,1280,2500,1978,204,601,,Active,,,http://www.redfin.com/NY/Staten-Island/16-Sheraden-Ave-10314/home/56130401,BNYMLS,431099,N,Y,40.6111965,-74.1386079
MLS Listing,,Townhouse,388 Clarke Ave,Staten Island,NY,10306,799999,4,3,Richmond Town,2647,13280,1915,209,302,,Active,,,http://www.redfin.com/NY/Staten-Island/388-Clarke-Ave-10306/home/56018528,SIBORMLS,1129911,N,Y,40.5692782,-74.1439752
MLS Listing,,Single Family Residential,51-14 Overbrook St,Douglaston,NY,11362,800000,4,1.5,Douglaston,1485,3400,1925,210,539,,Active,,,http://www.redfin.com/NY/Flushing/51-14-Overbrook-St-11362/home/20800922,MLSLI,3139074,N,Y,40.760957,-73.737818
MLS Listing,,Townhouse,449 Home Ave,Staten Island,NY,10305,769000,5,3,Fort Wadsworth,1908,2500,1920,214,403,,Active,,,http://www.redfin.com/NY/Staten-Island/449-Home-Ave-10305/home/56039902,SIBORMLS,1129829,N,Y,40.6083968,-74.065296
MLS Listing,,Single Family Residential,207 Park St,Staten Island,NY,10306,789900,4,2,Richmond Town,2248,4000,1960,222,351,,Active,,,http://www.redfin.com/NY/Staten-Island/207-Park-St-10306/home/56132966,SIBORMLS,1129561,N,Y,40.570001,-74.132401
MLS Listing,,Multi-Family (2-4 Unit),72-41 65th Pl,Glendale,NY,11385,778000,4,3,Ridgewood Border,2535,1767,1910,230,307,,Active,,,http://www.redfin.com/NY/Flushing/72-41-65th-Pl-11385/home/20878465,MLSLI,3132694,N,Y,40.700108,-73.888386
MLS Listing,,Townhouse,240-43 67 Ave,Douglaston,NY,11362,798000,4,2,240 St,,2000,1975,236,,,Active,,,http://www.redfin.com/NY/Flushing/240-43-67th-Ave-11362/home/20795565,MLSLI,3131086,N,Y,40.751894,-73.738488
MLS Listing,,Single Family Residential,9614 32nd Ave,E. Elmhurst,NY,11369,799888,4,3,E. Elmhurst,,2000,1901,241,,,Active,,,http://www.redfin.com/NY/Flushing/96-14-32nd-Ave-11369/home/20930938,MLSLI,3129950,N,Y,40.758625,-73.871923
MLS Listing,,Townhouse,15 Morris St,Staten Island,NY,10309,799000,4,4,Rossville,2500,3850,2005,241,320,,Active,,,http://www.redfin.com/NY/Staten-Island/15-Morris-St-10309/home/56110779,SIBORMLS,1129015,N,Y,40.5535384,-74.2119941
MLS Listing,,Multi-Family (2-4 Unit),,E.Tremont/Bronx,NY,10460,769000,6,3,E. Tremont  Bronx,,1986,1992,246,,,Active,,,http://www.redfin.com/NY/The-Bronx/Undisclosed-address-10460/home/44717256,MLSLI,3127929,N,Y,40.842275,-73.881548
MLS Listing,,Multi-Family (2-4 Unit),32-46 106th St,E. Elmhurst,NY,11369,799000,5,2,E. Elmhurst,,2129,1920,252,,,Active,,,http://www.redfin.com/NY/Flushing/32-46-106th-St-11369/home/20926316,MLSLI,3126069,N,Y,40.758426,-73.863202
MLS Listing,,Multi-Family (2-4 Unit),177-18 110th Ave,Jamaica,NY,11433,799995,6,3,Jamaica,,4087,1930,252,,,Active,,,http://www.redfin.com/NY/Jamaica/177-18-Brinkerhoff-Ave-11433/home/20755616,MLSLI,3125856,N,Y,40.698345,-73.7766259
MLS Listing,,Multi-Family (2-4 Unit),415 Jerome St,Brooklyn,NY,11207,799900,9,6,Brooklyn,3203,2613,2004,255,250,,Active,,,http://www.redfin.com/NY/Brooklyn/415-Jerome-St-11207/home/40760316,MLSLI,3125190,N,Y,40.6714937,-73.886033
MLS Listing,,Townhouse,780 Stafford Ave,Staten Island,NY,10309,750000,5,4,Princes Bay,2736,4488,1984,258,274,,Active,,,http://www.redfin.com/NY/Staten-Island/780-Stafford-Ave-10309/home/56116267,SIBORMLS,1128419,N,Y,40.540338,-74.204054
MLS Listing,,Multi-Family (2-4 Unit),2905 Grace Ave,Bronx,NY,10469,779000,7,5,Bronx,,2375,2004,258,,,Active,,,http://www.redfin.com/NY/The-Bronx/2905-Grace-Ave-10469/home/44798451,MLSLI,3123754,N,Y,40.870174,-73.8352795
MLS Listing,,Multi-Family (2-4 Unit),652 Travis Ave,Staten  Island,NY,10314,768000,4,2.5,Staten  Island,2583,2600,1972,264,297,,Active,,,http://www.redfin.com/NY/Staten-Island/652-Travis-Ave-10314/home/56038115,BNYMLS,429303,N,Y,40.5920868,-74.1611428
MLS Listing,,Multi-Family (2-4 Unit),88-36 Sabre St,Queens Village,NY,11427,751000,4,3,Queens Village,1534,2458,1930,266,490,,Active,,,http://www.redfin.com/NY/Jamaica/88-36-Sabre-St-11427/home/20804655,MLSLI,3121329,N,Y,40.729513,-73.7362167
MLS Listing,,Multi-Family (2-4 Unit),,Brooklyn,NY,11236,799000,6,2.75,,2332,5102,1960,273,343,,Active,,,http://www.redfin.com/NY/Brooklyn/Undisclosed-address-11236/home/162226347,BNYMLS,429048,N,Y,40.6387196,-73.8948295
MLS Listing,,Multi-Family (2-4 Unit),69-17 79th St,Middle Village,NY,11379,795000,4,2,Middle Village,,2000,1925,280,,,Active,,,http://www.redfin.com/NY/Flushing/69-17-79th-St-11379/home/20877172,MLSLI,3117312,N,Y,40.709221,-73.872984
MLS Listing,,Multi-Family (2-4 Unit),120-15 167th St,Jamaica,NY,11434,795000,6,3,Jamaica,,3000,1992,280,,,Active,,,http://www.redfin.com/NY/Jamaica/120-15-167th-St-11434/home/20708165,MLSLI,3117015,N,Y,40.681637,-73.777039
MLS Listing,,Multi-Family (2-4 Unit),99-07 216th St,Queens Village,NY,11429,750000,5,3,Queens Village,,1755,1950,284,,,Active,,,http://www.redfin.com/NY/Queens-Village/99-07-216th-St-11429/home/20737058,MLSLI,3115920,N,Y,40.714374,-73.742582
MLS Listing,,Multi-Family (2-4 Unit),316 Beach 48th St,Far Rockaway,NY,11691,799000,6,4,Far Rockaway,2980,7608,1920,288,268,,Active,,,http://www.redfin.com/NY/Far-Rockaway/316-Beach-48th-St-11691/home/20676528,MLSLI,3114264,N,Y,40.594224,-73.778779
MLS Listing,,Multi-Family (2-4 Unit),3554 Webster Ave,Bronx,NY,10467,799000,6,2,Bronx,1156,1154,1901,290,691,,Active,,,http://www.redfin.com/NY/The-Bronx/3554-Webster-Ave-10467/home/44766356,HGMLS,4917273,N,Y,40.8804008,-73.8705978
MLS Listing,,Single Family Residential,90-01 Hollis Court Blvd,Queens Village,NY,11428,799000,4,1.5,Queens Village,,4440,1925,291,,,Active,January-19-2020 01:30 PM,January-19-2020 03:30 PM,http://www.redfin.com/NY/Jamaica/90-01-Hollis-Ct-Blvd-11428/home/20748806,MLSLI,3113615,N,Y,40.721082,-73.750694
MLS Listing,,Multi-Family (2-4 Unit),89-11 80th St,Woodhaven,NY,11421,768880,6,3,Woodhaven,1804,2000,1920,292,426,,Active,,,http://www.redfin.com/NY/Jamaica/89-11-80th-St-11421/home/20784847,MLSLI,3112972,N,Y,40.688326,-73.860982
MLS Listing,,Single Family Residential,2041 East 54 St,Brooklyn,NY,11234,799000,4,2.25,Brooklyn,1290,2500,1925,320,619,,Active,,,http://www.redfin.com/NY/Brooklyn/2041-E-54th-St-11234/home/40904092,BNYMLS,427625,N,Y,40.6121827,-73.9211946
MLS Listing,,Single Family Residential,90-10 Hollis Court Blvd,Queens Village,NY,11428,800000,5,2,Queens Village,2024,4000,1925,329,395,,Active,,,http://www.redfin.com/NY/Jamaica/90-10-Hollis-Ct-Blvd-11428/home/20749890,MLSLI,3102163,N,Y,40.720638,-73.751129
MLS Listing,,Multi-Family (2-4 Unit),146-67 177th St,Jamaica,NY,11434,799000,7,5,Springfield Gardens,3500,4000,1940,333,228,,Active,,,http://www.redfin.com/NY/Jamaica/146-67-177th-St-11434/home/20689671,MLSLI,3101207,N,Y,40.661082,-73.768716
MLS Listing,,Multi-Family (2-4 Unit),143-04 Ferndale Ave,Jamaica,NY,11435,759000,4,2,Jamaica,,2442,1920,339,,,Active,,,http://www.redfin.com/NY/Jamaica/143-04-Ferndale-Ave-11435/home/20719485,MLSLI,3099872,N,Y,40.687487,-73.802406
MLS Listing,,Condo/Co-op,Unit at 3656 Johnson Ave,Bronx,NY,10463,785000,4,2,Spuyten Duyvil,,,,340,,,Active,,,http://www.redfin.com/NY/Bronx/3656-Johnson-Ave-10463/home/44602026,REBNY,SOTH763951,N,Y,40.8882218,-73.9090226
MLS Listing,,Multi-Family (2-4 Unit),160-17 Grand Central Park,Briarwood,NY,11432,795000,5,2.5,Briarwood,1940,1939,1935,350,410,,Active,,,http://www.redfin.com/NY/Jamaica/160-17-Grand-Central-Pkwy-11432/home/20819872,MLSLI,3096611,N,Y,40.7162865,-73.8050424
MLS Listing,,Multi-Family (2-4 Unit),111-39 112th St,S. Ozone Park,NY,11420,798999,5,3,S. Ozone Park,,2389,1920,359,,,Active,,,http://www.redfin.com/NY/Jamaica/111-39-112th-St-11420/home/20720933,MLSLI,3094574,N,Y,40.677839,-73.826398
MLS Listing,,Single Family Residential,1418 E 66 St,Brooklyn,NY,11234,785000,4,3.25,Brooklyn,1860,5103,1970,367,422,,Active,,,http://www.redfin.com/NY/Brooklyn/1418-E-66th-St-11234/home/40898254,BNYMLS,426356,N,Y,40.620238,-73.914133
MLS Listing,,Multi-Family (2-4 Unit),114-21 Bedell St,Jamaica,NY,11434,799000,6,2,Queens,,2348,1935,419,,,Active,,,http://www.redfin.com/NY/Jamaica/114-21-Bedell-St-11434/home/20711507,MLSLI,3082481,N,Y,40.6881569,-73.786782
MLS Listing,,Multi-Family (2-4 Unit),512 Cleveland St,Brooklyn,NY,11208,775000,5,2,Brooklyn,2200,1800,,546,352,,Active,,,http://www.redfin.com/NY/Brooklyn/512-Cleveland-St-11208/home/40760260,BNYMLS,421970,N,Y,40.671965,-73.8840419
MLS Listing,,Condo/Co-op,3543 Shore Pkwy Unit 1C,Brooklyn,NY,11235,765000,4,2,Brooklyn,1622,,2007,565,472,,Active,,,http://www.redfin.com/NY/Unknown/3543-Shore-Pkwy-11235/unit-1C/home/146114997,BNYMLS,421544,N,Y,40.5853779,-73.9447069
MLS Listing,,Townhouse,545 Annadale Rd,Staten Island,NY,10312,799545,6,5,Annandale,2376,5819,1975,1330,337,,Active,,,http://www.redfin.com/NY/Staten-Island/545-Annadale-Rd-10312/home/56035983,SIBORMLS,1103554,N,Y,40.549102,-74.174422
For-Sale-by-Owner Listing,,Single Family Residential,1648 Ryder St,Brooklyn,NY,11234,775000,4,2.5,Brooklyn,1200,2000,1930,97,646,,Active,,,http://www.redfin.com/NY/Brooklyn/1648-Ryder-St-11234/home/40881345,Fizber.com,5034652,N,Y,40.6166652,-73.9356492
For-Sale-by-Owner Listing,,Multi-Family (2-4 Unit),64 Lander Ave,Staten Island,NY,10314,799000,4,2,Staten Island,2655,,1950,129,301,,Active,,,http://www.redfin.com/NY/Staten-Island/64-Lander-Ave-10314/home/56052056,Fizber.com,5030833,N,Y,40.6132404,-74.1611772
For-Sale-by-Owner Listing,,Multi-Family (2-4 Unit),816 S Oak Dr,The Bronx,NY,10467,799000,7,3,Bronx,2173,,1915,194,368,,Active,,,http://www.redfin.com/NY/The-Bronx/816-S-Oak-Dr-10467/home/44793317,Fizber.com,5022699,N,Y,40.8718067,-73.8624663
For-Sale-by-Owner Listing,,Multi-Family (2-4 Unit),832 E 231st St Unit T,The Bronx,NY,10466,779999,6,4,Bronx,2000,,1910,216,390,,Active,,,http://www.redfin.com/NY/The-Bronx/832-E-231st-St-10466/unit-T/home/167077306,Fizber.com,5019866,N,Y,40.8906008,-73.8541966
For-Sale-by-Owner Listing,,Single Family Residential,82-22 261st St,Glen Oaks,NY,11004,769000,4,2,Glen Oaks,1,5100,1950,270,769000,,Active,,,http://www.redfin.com/NY/Glen-Oaks/82-22-261st-St-11004/home/20793153,Fizber.com,5012489,N,Y,40.74064,-73.708885
