SALE TYPE,SOLD DATE,PROPERTY TYPE,ADDRESS,CITY,STATE OR PROVINCE,ZIP OR POSTAL CODE,PRICE,BEDS,BATHS,LOCATION,SQUARE FEET,LOT SIZE,YEAR BUILT,DAYS ON MARKET,$/SQUARE FEET,HOA/MONTH,STATUS,NEXT OPEN HOUSE START TIME,NEXT OPEN HOUSE END TIME,URL (SEE http://www.redfin.com/buy-a-home/comparative-market-analysis FOR INFO ON PRICING),SOURCE,MLS#,FAVORITE,INTERESTED,LATITUDE,LONGITUDE
MLS Listing,,Multi-Family (2-4 Unit),4137 De Reimer Ave,Bronx,NY,10466,849000,5,4.5,Bronx,3174,2374,2018,1,267,,Active,,,http://www.redfin.com/NY/The-Bronx/4137-De-Reimer-Ave-10466/home/44795313,HGMLS,6003892,N,Y,40.8941469,-73.84347
MLS Listing,,Multi-Family (2-4 Unit),927 E 79 St,Brooklyn,NY,11236,839000,5,2.5,Brooklyn,2456,2400,,1,342,,Active,,,http://www.redfin.com/NY/Brooklyn/927-E-79th-St-11236/home/40886261,BNYMLS,435886,N,Y,40.63455,-73.913143
MLS Listing,,Multi-Family (2-4 Unit),2002 Edenwald Ave,Bronx,NY,10466,800000,6,2,Bronx,3276,2100,1970,1,244,,Active,,,http://www.redfin.com/NY/The-Bronx/2002-Edenwald-Ave-10466/home/44782109,MLSLI,3191293,N,Y,40.892721,-73.843251
MLS Listing,,Multi-Family (2-4 Unit),145-03 107th Ave,Jamaica,NY,11435,800000,6,4.5,Jamaica,2200,1797,2007,1,364,,Active,,,http://www.redfin.com/NY/Jamaica/145-03-107th-Ave-11435/home/20642068,MLSLI,3191275,N,Y,40.691404,-73.80488
MLS Listing,,Single Family Residential,270 Park St,Staten Island,NY,10306,824999,5,3,Richmond Town,1928,4537,1965,3,428,,Active,,,http://www.redfin.com/NY/Staten-Island/270-Park-St-10306/home/56065911,SIBORMLS,1134786,N,Y,40.5694016,-74.1343885
MLS Listing,,Multi-Family (2-4 Unit),116-39 190th St,Jamaica,NY,11412,849000,6,4,Jamaica,,3650,2003,3,,,Active,,,http://www.redfin.com/NY/St-Albans/116-39-190th-St-11412/home/21692862,MLSLI,3190789,N,Y,40.6925293,-73.761098
MLS Listing,,Multi-Family (2-4 Unit),80-15 89th Ave,Woodhaven,NY,11421,838000,7,3,Woodhaven,1840,2500,1901,4,455,,Active,,,http://www.redfin.com/NY/Jamaica/80-15-89th-Ave-11421/home/20786917,MLSLI,3190680,N,Y,40.6889589,-73.860812
MLS Listing,,Multi-Family (2-4 Unit),249 E 49 St,Brooklyn,NY,11203,829000,6,4,Brooklyn,1902,2585,1940,6,436,,Active,,,http://www.redfin.com/NY/Brooklyn/249-E-49th-St-11203/home/170225841,BNYMLS,435747,N,Y,40.6560716,-73.9315912
MLS Listing,,Multi-Family (2-4 Unit),8 Dune Ct,Bronx,NY,10473,849900,6,4,Bronx,2380,1568,2002,6,357,,Active,,,http://www.redfin.com/NY/The-Bronx/8-Dune-Ct-10473/home/44765267,HGMLS,6002150,N,Y,40.809028,-73.855935
MLS Listing,,Multi-Family (2-4 Unit),139-21 254th St,Rosedale,NY,11422,850000,6,5,Rosedale,4500,4500,1930,7,189,,Active,,,http://www.redfin.com/NY/Jamaica/139-21-254th-St-11422/home/20687231,MLSLI,3189566,N,Y,40.660693,-73.729906
MLS Listing,,Townhouse,653 Barlow Ave,Staten Island,NY,10312,819000,5,3,Arden Heights,1760,3800,1970,7,465,,Active,,,http://www.redfin.com/NY/Staten-Island/653-Barlow-Ave-10312/home/56135503,SIBORMLS,1134610,N,Y,40.5570206,-74.1703969
MLS Listing,,Multi-Family (2-4 Unit),56-36 Waldron St,Corona,NY,11368,849000,5,3,Corona,,2000,1920,9,,,Active,,,http://www.redfin.com/NY/Flushing/56-36-Waldron-St-11368/home/20920493,MLSLI,3189290,N,Y,40.739811,-73.85523
MLS Listing,,Multi-Family (2-4 Unit),3031 Brighton 1 St,Brooklyn,NY,11235,849000,5,3.5,Brooklyn,1850,2025,,10,459,,Active,,,http://www.redfin.com/NY/Brooklyn/3031-Brighton-1st-St-11235/home/40906158,BNYMLS,435662,N,Y,40.5778792,-73.966772
MLS Listing,,Multi-Family (2-4 Unit),23-16 Healy Ave,Far Rockaway,NY,11691,849000,9,3,Bayswater,,6875,1930,13,,,Active,,,http://www.redfin.com/NY/Far-Rockaway/23-16-Healy-Ave-11691/home/20677290,MLSLI,3188321,N,Y,40.605509,-73.759501
MLS Listing,,Multi-Family (2-4 Unit),760 Pine St,Brooklyn,NY,11208,850000,6,2.75,Brooklyn,2750,3100,,25,309,,Active,,,http://www.redfin.com/NY/Brooklyn/760-Pine-St-11208/home/40770073,BNYMLS,435472,N,Y,40.6665085,-73.8689899
MLS Listing,,Multi-Family (2-4 Unit),780 Bartholdi St,Bronx,NY,10467,850000,8,5,Bronx,,2626,1910,33,,,Active,,,http://www.redfin.com/NY/The-Bronx/780-Bartholdi-St-10467/home/44790265,MLSLI,3185772,N,Y,40.8738004,-73.8637527
MLS Listing,,Multi-Family (2-4 Unit),91-40 109th St,Richmond Hill,NY,11418,800000,6,2,Richmond Hill,,2000,1920,34,,,Active,,,http://www.redfin.com/NY/Jamaica/91-40-109th-St-11418/home/20774152,MLSLI,3185310,N,Y,40.6921279,-73.837207
MLS Listing,,Multi-Family (2-4 Unit),124-16 85 Ave,Kew Gardens,NY,11415,849900,5,2.5,Kew Gardens,,2242,1920,35,,,Active,,,http://www.redfin.com/NY/Jamaica/124-16-85th-Ave-11415/home/20780081,MLSLI,3185191,N,Y,40.703873,-73.826962
MLS Listing,,Multi-Family (2-4 Unit),161-26 119th Rd,Jamaica,NY,11434,850000,5,4,Queens,,3000,2019,35,,,Active,,,http://www.redfin.com/NY/Jamaica/161-26-119th-Rd-11434/home/20709958,MLSLI,3185102,N,Y,40.681336,-73.782134
MLS Listing,,Townhouse,35 Plank Rd,Staten Island,NY,10314,850000,6,4,Bulls Head,3190,4400,1970,36,266,,Active,,,http://www.redfin.com/NY/Staten-Island/35-Plank-Rd-10314/home/56107228,SIBORMLS,1134235,N,Y,40.6096048,-74.1675531
MLS Listing,,Single Family Residential,2186 Dutch Broadway,Elmont,NY,11003,849000,5,4,Elmont,2600,6820,1951,36,327,,Active,,,http://www.redfin.com/NY/Elmont/2186-Dutch-Broadway-11003/home/20465291,MLSLI,3184978,N,Y,40.6956967,-73.7202144
MLS Listing,,Condo/Co-op,Unit at 247 E 49th St,Brooklyn,NY,11203,829000,6,4,Brooklyn,,,,38,,,Active,,,http://www.redfin.com/NY/Brooklyn/247-E-49th-St-11203/home/170023605,REBNY,NYLS101481,N,Y,40.6561028,-73.9315618
MLS Listing,,Multi-Family (2-4 Unit),163-43 Phroane Ave,Jamaica,NY,11433,849999,9,4,Jamaica,,4000,1925,39,,,Active,,,http://www.redfin.com/NY/Jamaica/163-43-Phroane-Ave-11433/home/20755830,MLSLI,3184437,N,Y,40.691173,-73.7857049
MLS Listing,,Townhouse,418 Castleton Ave,Staten Island,NY,10301,849900,5,3,Silver Lake,2206,4120,1931,39,385,,Active,,,http://www.redfin.com/NY/Staten-Island/418-Castleton-Ave-10301/home/170014518,SIBORMLS,1134186,N,Y,40.6334127,-74.0965927
MLS Listing,,Single Family Residential,112-06 Hannibal St,Jamaica,NY,11412,849000,8,2.5,Jamaica,,8000,1930,40,,,Active,,,http://www.redfin.com/NY/Jamaica/112-06-Hannibal-St-11412/home/20754234,MLSLI,3184089,N,Y,40.699655,-73.765024
MLS Listing,,Multi-Family (2-4 Unit),253-30 148th Dr,Rosedale,NY,11422,849000,6,4,Rosedale,2350,3325,1970,44,361,,Active,,,http://www.redfin.com/NY/Jamaica/253-30-148th-Dr-11422/home/20686185,MLSLI,3183409,N,Y,40.6535256,-73.73567
MLS Listing,,Multi-Family (2-4 Unit),79-24 68th Rd,Middle Village,NY,11379,848000,5,2,Middle Village,,2000,1930,45,,,Active,,,http://www.redfin.com/NY/Flushing/79-24-68th-Rd-11379/home/20873475,MLSLI,3183294,N,Y,40.7102689,-73.872389
MLS Listing,,Multi-Family (2-4 Unit),3613 Avenue J,,NY,11210,835000,6,4,,1648,1951,1915,47,507,,Active,,,http://www.redfin.com/NY/Brooklyn/3613-Avenue-J-11210/home/28894459,HGMLS,5122676,N,Y,40.627609,-73.9407352
MLS Listing,,Multi-Family (2-4 Unit),74-18 87th Ave,Woodhaven,NY,11421,849000,5,2,Woodhaven,,2000,1901,52,,,Active,,,http://www.redfin.com/NY/Jamaica/74-18-87th-Ave-11421/home/20785378,MLSLI,3182420,N,Y,40.69035,-73.867188
MLS Listing,,Multi-Family (2-4 Unit),1616 Remsen Ave,,NY,11236,820000,5,2.5,,1561,,1960,53,525,,Active,,,http://www.redfin.com/NY/Brooklyn/1616-Remsen-Ave-11236/home/40889107,HGMLS,5121330,N,Y,40.632083,-73.89736
MLS Listing,,Townhouse,30 Harbor Rd,Staten Island,NY,10303,849000,6,5,Mariners Harbor,3455,3893,2019,54,246,,Active,,,http://www.redfin.com/NY/Staten-Island/30-Harbor-Rd-10303/home/56088708,SIBORMLS,1133949,N,Y,40.6362746,-74.1603975
MLS Listing,,Single Family Residential,22-25 98 St,E. Elmhurst,NY,11369,849000,6,2.5,E. Elmhurst,,3897,1925,54,,,Active,,,http://www.redfin.com/NY/East-Elmhurst/2225-98th-St-11369/home/20941239,MLSLI,3181684,N,Y,40.769947,-73.872456
MLS Listing,,Multi-Family (2-4 Unit),1976 Matthews Ave,Bronx,NY,10462,849900,5,2.5,Bronx,2268,2500,1970,56,375,,Active,January-18-2020 12:00 PM,January-18-2020 02:00 PM,http://www.redfin.com/NY/The-Bronx/1976-Matthews-Ave-10462/home/44740716,HGMLS,5120805,N,Y,40.8500228,-73.8626156
MLS Listing,,Multi-Family (2-4 Unit),1903 Arnow Ave,Bronx,NY,10469,825000,8,5,Bronx,2040,2003,2004,59,404,,Active,,,http://www.redfin.com/NY/The-Bronx/1903-Arnow-Ave-10469/home/44754710,HGMLS,5120463,N,Y,40.8699572,-73.8355886
MLS Listing,,Multi-Family (2-4 Unit),1901 Arnow Ave,Bronx,NY,10469,825000,8,5,Bronx,2040,2874,2004,59,404,,Active,,,http://www.redfin.com/NY/The-Bronx/1901-Arnow-Ave-10469/home/44798455,HGMLS,5120460,N,Y,40.869898,-73.835646
MLS Listing,,Multi-Family (2-4 Unit),1907 Arnow Ave,Bronx,NY,10469,825000,8,6,Bronx,2040,3267,2004,59,404,,Active,,,http://www.redfin.com/NY/The-Bronx/1907-Arnow-Ave-10469/home/44754711,HGMLS,5120459,N,Y,40.8699693,-73.8354048
MLS Listing,,Multi-Family (2-4 Unit),109-24 175th St,Jamaica,NY,11433,819000,5,4,Jamaica,,3000,1945,59,,,Active,January-18-2020 02:00 PM,January-18-2020 04:00 PM,http://www.redfin.com/NY/Jamaica/109-24-175th-St-11433/home/20753208,MLSLI,3180825,N,Y,40.698336,-73.77996
MLS Listing,,Multi-Family (2-4 Unit),456 Berriman St,Brooklyn,NY,11208,830000,5,4.5,Brooklyn,,2027,2009,60,,,Active,,,http://www.redfin.com/NY/Brooklyn/456-Berriman-St-11208/home/21996704,MLSLI,3180605,N,Y,40.6671819,-73.8779595
MLS Listing,,Multi-Family (2-4 Unit),191-11 114th Rd,Jamaica,NY,11412,829000,6,4.5,Jamaica,,3000,1925,61,,,Active,,,http://www.redfin.com/NY/Jamaica/191-11-114th-Rd-11412/home/20739322,MLSLI,3180174,N,Y,40.6976749,-73.761633
MLS Listing,,Multi-Family (2-4 Unit),2832 Zulette Ave,Bronx,NY,10461,825000,6,3,Bronx,2772,2374,1920,63,298,,Active,,,http://www.redfin.com/NY/The-Bronx/2832-Zulette-Ave-10461/home/44762318,HGMLS,5117362,N,Y,40.8419675,-73.8355962
MLS Listing,,Multi-Family (2-4 Unit),13 Laurel Ave,call Listing Agent,NY,10304,829999,8,2,Staten island,1556,3524,1920,66,533,,Active,,,http://www.redfin.com/NY/Staten-Island/13-Laurel-Ave-10304/home/56083397,HGMLS,5118922,N,Y,40.6200362,-74.0853389
MLS Listing,,Multi-Family (2-4 Unit),103-49 102nd St,Ozone Park,NY,11417,849888,6,3,Ozone Park,2286,3503,1920,67,372,,Active,,,http://www.redfin.com/NY/Jamaica/103-49-102nd-St-11417/home/20768515,MLSLI,3178837,N,Y,40.682533,-73.838899
MLS Listing,,Multi-Family (2-4 Unit),11-13 123rd St,College Point,NY,11356,849000,5,2,College Point,,3910,1910,68,,,Active,,,http://www.redfin.com/NY/Flushing/11-13-123rd-St-11356/home/20872495,MLSLI,3178485,N,Y,40.787507,-73.844374
MLS Listing,,Multi-Family (2-4 Unit),215 E 35th Street St,East Flatbush,NY,11203,849999,5,2,East Flatbush,,2000,1910,72,,,Active,,,http://www.redfin.com/NY/Brooklyn/215-E-35th-St-11203/home/40779391,MLSLI,3177549,N,Y,40.650035,-73.9444365
MLS Listing,,Multi-Family (2-4 Unit),1727 Victor St,Bronx,NY,10462,825000,6,2,Bronx,4077,2500,1901,73,202,,Active,,,http://www.redfin.com/NY/The-Bronx/1727-Victor-St-10462/home/44742909,HGMLS,5117441,N,Y,40.8443334,-73.8668652
MLS Listing,,Single Family Residential,24 Dorothy St,Staten Island,NY,10314,849888,5,4,Willowbrook,2130,4000,1965,76,399,,Active,,,http://www.redfin.com/NY/Staten-Island/24-Dorothy-St-10314/home/56016729,SIBORMLS,1133405,N,Y,40.5984472,-74.1390666
MLS Listing,,Multi-Family (2-4 Unit),913 E 223 St,Bronx,NY,10466,825000,9,3,Bronx,3355,2500,1925,77,246,,Active,,,http://www.redfin.com/NY/The-Bronx/913-E-223rd-St-10466/home/44782810,MLSLI,3176070,N,Y,40.8845826,-73.8548762
MLS Listing,,Multi-Family (2-4 Unit),750 Sackman St,Brooklyn,NY,11212,839999,5,2,Brooklyn,,2283,1910,84,,,Active,,,http://www.redfin.com/NY/Brooklyn/750-Sackman-St-11212/home/40756700,MLSLI,3174417,N,Y,40.6590036,-73.90242
MLS Listing,,Multi-Family (2-4 Unit),99 Kenilworth Pl,Brooklyn,NY,11210,849000,5,2,Brooklyn,1908,1892,1915,85,445,,Active,,,http://www.redfin.com/NY/Brooklyn/99-Kenilworth-Pl-11210/home/40868610,BNYMLS,434119,N,Y,40.633711,-73.949537
MLS Listing,,Single Family Residential,218-05 Grand Central Pkwy,Hollis Hills,NY,11427,850000,5,2.5,Hollis Hills,,5660,1945,87,,,Active,,,http://www.redfin.com/NY/Queens-Village/21805-Grand-Central-Pkwy-11427/home/20805837,MLSLI,3173811,N,Y,40.7307213,-73.7509176
MLS Listing,,Multi-Family (2-4 Unit),76-19 85th Dr,Woodhaven,NY,11421,850000,11,2.5,Woodhaven,,2420,1910,89,,,Active,,,http://www.redfin.com/NY/Jamaica/76-19-85th-Dr-11421/home/20789359,MLSLI,3173220,N,Y,40.6940529,-73.865707
MLS Listing,,Multi-Family (2-4 Unit),103 Savo Loop,STATEN ISLAND,NY,10309,829999,6,3,STATEN ISLAND,,4000,1998,90,,,Active,,,http://www.redfin.com/NY/Staten-Island/103-Savo-Loop-10309/home/56073732,MLSLI,3172882,N,Y,40.5218404,-74.2223576
MLS Listing,,Multi-Family (2-4 Unit),114-04 200th St,St. Albans,NY,11412,850000,6,3,St. Albans,,3794,1960,94,,,Active,,,http://www.redfin.com/NY/Jamaica/114-04-200th-St-11412/home/20740176,MLSLI,3172229,N,Y,40.699782,-73.754867
MLS Listing,,Multi-Family (2-4 Unit),230-48 144th Ave,Springfield Gdns,NY,11413,850000,6,5,Springfield Gdns,,2927,2005,95,,,Active,,,http://www.redfin.com/NY/Jamaica/230-48-144th-Ave-11413/home/20685541,MLSLI,3171821,N,Y,40.6622487,-73.7472571
MLS Listing,,Multi-Family (2-4 Unit),399 Ridgewood Ave,Cypress Hills,NY,11208,840000,5,2.5,Cypress Hills,2120,1940,1901,97,396,,Active,,,http://www.redfin.com/NY/Brooklyn/399-Ridgewood-Ave-11208/home/40762552,MLSLI,3171232,N,Y,40.6852853,-73.8741351
MLS Listing,,Multi-Family (2-4 Unit),390 E 195th St,Bronx,NY,10458,848888,8,3,Bronx,3672,2090,1915,99,231,,Active,,,http://www.redfin.com/NY/The-Bronx/390-E-195th-St-10458/home/44805354,HGMLS,5085460,N,Y,40.8644892,-73.888835
MLS Listing,,Multi-Family (2-4 Unit),145 Highland Pl,Brooklyn,NY,11208,845000,9,4,Cypress Hills/East Ny,,2700,1899,102,,,Active,,,http://www.redfin.com/NY/Brooklyn/145-Highland-Pl-11208/home/40758327,MLSLI,3169951,N,Y,40.6819195,-73.8810603
MLS Listing,,Multi-Family (2-4 Unit),2795 Marion Ave,Bronx,NY,10458,825000,8,3,Bronx,2984,2504,2010,103,276,,Active,,,http://www.redfin.com/NY/The-Bronx/2795-Marion-Ave-10458/home/44713853,HGMLS,5085045,N,Y,40.8671955,-73.8873757
MLS Listing,,Multi-Family (2-4 Unit),1035 E 216th St,Bronx,NY,10469,849000,6,4,Bronx,3576,2731,2014,109,237,,Active,,,http://www.redfin.com/NY/The-Bronx/1035-E-216th-St-10469/home/44749164,HGMLS,5078317,N,Y,40.8785978,-73.8541454
MLS Listing,,Multi-Family (2-4 Unit),79-39 78th Ave,Glendale,NY,11385,829909,5,2,Glendale,,2000,1910,115,,,Active,,,http://www.redfin.com/NY/Flushing/79-39-78th-Ave-11385/home/20877064,MLSLI,3166272,N,Y,40.705216,-73.870198
MLS Listing,,Multi-Family (2-4 Unit),935 Brady Ave,Bronx,NY,10462,849000,5,2.5,Bronx,2370,2282,1954,116,358,,Active,,,http://www.redfin.com/NY/The-Bronx/935-Brady-Ave-10462/home/44741252,HGMLS,5071170,N,Y,40.8525163,-73.8616232
MLS Listing,,Multi-Family (2-4 Unit),87-40 78th St,Jamaica,NY,11422,800000,5,3,Jamaica,,1714,1940,116,,,Active,,,http://www.redfin.com/NY/Woodhaven/87-40-78th-St-11421/home/20788880,MLSLI,3165803,N,Y,40.6900302,-73.8636263
MLS Listing,,Multi-Family (2-4 Unit),34-25 111th St,Corona,NY,11368,828000,6,2,Corona,,2000,1940,117,,,Active,,,http://www.redfin.com/NY/Flushing/34-25-111th-St-11368/home/20925510,MLSLI,3165744,N,Y,40.7559182,-73.8572729
MLS Listing,,Single Family Residential,90-10 157th Ave,Howard Beach,NY,11414,829000,5,2,Rockwood Park,,4500,1950,117,,,Active,,,http://www.redfin.com/NY/Jamaica/90-10-157th-Ave-11414/home/20680768,MLSLI,3165362,N,Y,40.661929,-73.843089
MLS Listing,,Multi-Family (2-4 Unit),15 Preston Ave,Staten  Island,NY,10312,829000,5,3,Staten  Island,2310,4000,1980,118,359,,Active,,,http://www.redfin.com/NY/Staten-Island/15-Preston-Ave-10312/home/56033544,BNYMLS,433321,N,Y,40.5414198,-74.1655348
MLS Listing,,Multi-Family (2-4 Unit),29 Louisiana Ave,Brooklyn,NY,11207,835100,7,3,Brooklyn,,3000,1901,120,,,Active,,,http://www.redfin.com/NY/Brooklyn/29-Louisiana-Ave-11207/home/26844539,MLSLI,3164564,N,Y,40.6586251,-73.8957712
MLS Listing,,Townhouse,33 White Plains Ave,Staten Island,NY,10305,839900,6,5,Rosebank,2500,4218,2001,122,336,,Active,,,http://www.redfin.com/NY/Staten-Island/33-White-Plains-Ave-10305/home/56087402,SIBORMLS,1132228,N,Y,40.6138276,-74.0750596
MLS Listing,,Multi-Family (2-4 Unit),746 E 179th St,Bronx,NY,10457,850000,9,3,Bronx,2976,2060,1920,122,286,,Active,,,http://www.redfin.com/NY/The-Bronx/746-E-179th-St-10457/home/44713293,HGMLS,5063396,N,Y,40.8459691,-73.8886054
MLS Listing,,Multi-Family (2-4 Unit),812 E 175th St,Bronx,NY,10460,849999,5,2,Bronx,2841,1833,1997,124,299,,Active,,,http://www.redfin.com/NY/The-Bronx/812-E-175th-St-10460/home/44717257,HGMLS,5060816,N,Y,40.840561,-73.890043
MLS Listing,,Multi-Family (2-4 Unit),137-11 130 Ave,S. Ozone Park,NY,11420,829999,5,2.5,S. Ozone Park,2582,2582,1982,124,321,,Active,,,http://www.redfin.com/NY/Jamaica/137-11-130th-Ave-11436/home/20718206,MLSLI,3163576,N,Y,40.671542,-73.80012
MLS Listing,,Multi-Family (2-4 Unit),185 Beach 117th,Rockaway Park,NY,11694,848000,6,3,Rockaway Park,,3000,1915,124,,,Active,,,http://www.redfin.com/NY/Far-Rockaway/1-85-Beach-117th-St-11694/home/20673892,MLSLI,3163557,N,Y,40.578999,-73.838099
MLS Listing,,Multi-Family (2-4 Unit),594 Warwick St,Brooklyn,NY,11207,819999,6,3,Brooklyn,,2000,1920,124,,,Active,,,http://www.redfin.com/NY/Brooklyn/594-Warwick-St-11207/home/40761301,MLSLI,3163482,N,Y,40.668675,-73.884896
MLS Listing,,Multi-Family (2-4 Unit),111-27 139th St,Jamaica,NY,11435,820000,5,3,Queens,,4000,1925,126,,,Active,,,http://www.redfin.com/NY/Jamaica/111-27-139th-St-11435/home/20719393,MLSLI,3162906,N,Y,40.684329,-73.804497
MLS Listing,,Multi-Family (2-4 Unit),2015 Camp St,Bronx,NY,10466,849000,9,3,Bronx,3515,3563,1920,126,242,,Active,,,http://www.redfin.com/NY/The-Bronx/2015-Camp-St-10466/home/44794476,HGMLS,5057472,N,Y,40.901167,-73.846143
MLS Listing,,Multi-Family (2-4 Unit),2578 Briggs Ave,Bronx,NY,10458,849000,9,3,Bronx,2146,1984,1915,128,396,,Active,,,http://www.redfin.com/NY/The-Bronx/2578-Briggs-Ave-10458/home/44715793,BNYMLS,433070,N,Y,40.8636305,-73.8934171
MLS Listing,,Multi-Family (2-4 Unit),1429 Vyse Ave,Bronx,NY,10459,850000,6,4,Bronx,3375,2500,1999,129,252,,Active,,,http://www.redfin.com/NY/The-Bronx/1429-Vyse-Ave-10459/home/44745481,HGMLS,4737703,N,Y,40.831008,-73.889703
MLS Listing,,Multi-Family (2-4 Unit),6519 79 St,Middle Village,NY,11379,849000,6,3,Middle Village,,2582,1930,130,,,Active,,,http://www.redfin.com/NY/Flushing/65-19-79th-St-11379/home/20897345,MLSLI,3161630,N,Y,40.716986,-73.874019
MLS Listing,,Multi-Family (2-4 Unit),137-06 132nd Ave,Jamaica,NY,11436,849000,6,4,Jamaica,,3200,1945,135,,,Active,,,http://www.redfin.com/NY/Jamaica/137-06-132nd-Ave-11436/home/20714522,MLSLI,3160358,N,Y,40.6696074,-73.8003775
MLS Listing,,Multi-Family (2-4 Unit),240-27 Newhall Ave,Rosedale,NY,11422,824999,5,2,Rosedale,,3000,1925,136,,,Active,,,http://www.redfin.com/NY/Jamaica/240-27-Newhall-Ave-11422/home/20689882,MLSLI,3160247,N,Y,40.659462,-73.742425
MLS Listing,,Multi-Family (2-4 Unit),186-52 139th Ave,Springfield Gdns,NY,11413,800000,7,3,Springfield Gdns,2058,2058,1960,138,389,,Active,,,http://www.redfin.com/NY/Jamaica/186-52-139th-Ave-11413/home/20696063,MLSLI,3159691,N,Y,40.673023,-73.757094
MLS Listing,,Multi-Family (2-4 Unit),712 Schenck Ave,Brooklyn,NY,11207,849800,5,4,Brooklyn,2499,2200,2002,139,340,,Active,,,http://www.redfin.com/NY/Brooklyn/712-Schenck-Ave-11207/unit-2/home/28492636,MLSLI,3159391,N,Y,40.6629128,-73.8855391
MLS Listing,,Single Family Residential,40-25 Utopia Pkwy,Flushing,NY,11358,850000,5,2.5,Flushing,2800,3200,1950,144,304,,Active,,,http://www.redfin.com/NY/Flushing/40-25-Utopia-Pkwy-11358/home/20847956,MLSLI,3158264,N,Y,40.76003,-73.793058
MLS Listing,,Multi-Family (2-4 Unit),145-37 105th Ave,Jamaica,NY,11435,830000,6,5,Jamaica,,2518,1915,150,,,Active,,,http://www.redfin.com/NY/Jamaica/145-37-105th-Ave-11435/home/20756107,MLSLI,3156731,N,Y,40.693646,-73.806277
MLS Listing,,Multi-Family (2-4 Unit),1632 E 93 St,Brooklyn,NY,11236,845000,5,2.5,Brooklyn,1600,2000,1965,153,528,,Active,,,http://www.redfin.com/NY/Brooklyn/1632-E-93rd-St-11236/home/40895903,BNYMLS,432469,N,Y,40.632441,-73.893905
MLS Listing,,Multi-Family (2-4 Unit),,E. Elmhurst,NY,11369,850000,5,2,E. Elmhurst,,2000,1950,158,,,Active,,,http://www.redfin.com/NY/Flushing/Undisclosed-address-11369/home/20941064,MLSLI,3154588,N,Y,40.7670249,-73.87862
MLS Listing,,Multi-Family (2-4 Unit),174-52 126th Ave,Jamaica,NY,11434,850000,6,4,Jamaica,2184,4555,1997,158,389,,Active,,,http://www.redfin.com/NY/Jamaica/174-52-126th-Ave-11434/home/20702713,MLSLI,3154502,N,Y,40.6814746,-73.767748
MLS Listing,,Multi-Family (2-4 Unit),21214 110th Ave,Queens Village,NY,11429,815000,5,3.5,Queens Village,,4000,1920,159,,,Active,,,http://www.redfin.com/NY/Jamaica/212-14-110th-Ave-11429/home/20737157,MLSLI,3154168,N,Y,40.7075729,-73.744412
MLS Listing,,Townhouse,570 Pendale St,Staten Island,NY,10306,850000,5,3,Oakwood,2264,4100,1975,160,375,,Active,,,http://www.redfin.com/NY/Staten-Island/570-Pendale-St-10306/home/56106600,SIBORMLS,1131227,N,Y,40.5588127,-74.1226884
MLS Listing,,Multi-Family (2-4 Unit),107-25 171 Pl,Jamaica,NY,11433,839000,6,2,Queens,4000,4000,1930,177,210,,Active,,,http://www.redfin.com/NY/Jamaica/107-25-171st-Pl-11433/home/20758063,MLSLI,3149040,N,Y,40.699689,-73.784467
MLS Listing,,Multi-Family (2-4 Unit),89 Shepherd Ave,Brooklyn,NY,11208,839000,6,2,Brooklyn,2080,2057,1910,187,403,,Active,,,http://www.redfin.com/NY/Brooklyn/89-Shepherd-Ave-11208/home/40758303,MLSLI,3146057,N,Y,40.6827002,-73.8822662
MLS Listing,,Multi-Family (2-4 Unit),14336 257th St,Jamaica,NY,11422,825000,5,4,Jamaica,,5400,1955,202,,,Active,,,http://www.redfin.com/NY/Jamaica/143-36-257th-St-11422/home/20689236,MLSLI,3141844,N,Y,40.659177,-73.728984
MLS Listing,,Townhouse,549 Rathbun Ave,Staten Island,NY,10312,849000,5,3,Huguenot,2824,4000,1980,203,301,,Active,,,http://www.redfin.com/NY/Staten-Island/549-Rathbun-Ave-10312/home/56097172,SIBORMLS,1130068,N,Y,40.5406029,-74.1939652
MLS Listing,,Multi-Family (2-4 Unit),20006 104th Ave,Hollis,NY,11423,819000,7,2,Hollis,,3200,1930,214,,,Active,,,http://www.redfin.com/NY/Hollis/20006-104th-AVE-11423/home/167089353,MLSLI,3138149,N,Y,40.7170073,-73.7683784
MLS Listing,,Multi-Family (2-4 Unit),92-15 195th Pl,Hollis,NY,11423,839000,5,2.5,Hollis,,4750,1930,215,,,Active,,,http://www.redfin.com/NY/Jamaica/92-15-195th-Pl-11423/home/20744038,MLSLI,3137724,N,Y,40.712901,-73.764287
MLS Listing,,Multi-Family (2-4 Unit),967 Sutter Ave,Brooklyn,NY,11208,849000,5,3,East New York,3000,1600,1920,230,283,,Active,,,http://www.redfin.com/NY/Brooklyn/967-Sutter-Ave-11208/home/25684204,SIBORMLS,1129297,N,Y,40.6713378,-73.8830471
MLS Listing,,Townhouse,23-15 128th,Queens,NY,11356,828000,6,2,Off Island,1820,2915,1967,230,455,,Active,,,http://www.redfin.com/NY/Flushing/23-15-128th-St-11356/home/20867917,SIBORMLS,1129288,N,Y,40.778076,-73.8404089
MLS Listing,,Multi-Family (2-4 Unit),760 E 214th St,Bronx,NY,10467,840000,6,3.5,Bronx,3189,3188,2006,250,263,,Active,,,http://www.redfin.com/NY/The-Bronx/760-E-214th-St-10467/home/44768702,HGMLS,4930395,N,Y,40.878977,-73.8627489
MLS Listing,,Multi-Family (2-4 Unit),1407 E 93rd St,Brooklyn,NY,11236,849000,5,3,Brooklyn,,7067,1920,260,,,Active,,,http://www.redfin.com/NY/Brooklyn/1407-E-93rd-St-11236/home/40893010,MLSLI,3123177,N,Y,40.636746,-73.8990092
MLS Listing,,Townhouse,311 E 178th St,Bronx,NY,10457,850000,9,2,Mount Hope,,,,265,,,Active,,,http://www.redfin.com/NY/The-Bronx/311-E-178th-St-10457/home/44747316,REBNY,HALS19305567,N,Y,40.850212,-73.902291
MLS Listing,,Multi-Family (2-4 Unit),1174 Clay Ave,Bronx,NY,10456,849000,7,5,Bronx,2850,1520,2006,268,298,,Active,,,http://www.redfin.com/NY/The-Bronx/1174-Clay-Ave-10456/home/44603706,HGMLS,4922922,N,Y,40.8314197,-73.9108943
MLS Listing,,Multi-Family (2-4 Unit),1172 Clay Ave,Bronx,NY,10456,849000,7,5,Bronx,2850,1520,2006,268,298,,Active,,,http://www.redfin.com/NY/The-Bronx/1172-Clay-Ave-10456/home/44603705,HGMLS,4922920,N,Y,40.8313651,-73.9109173
MLS Listing,,Multi-Family (2-4 Unit),1170 Clay Ave,Bronx,NY,10456,849000,7,5,Bronx,2850,1520,2006,269,298,,Active,,,http://www.redfin.com/NY/The-Bronx/1170-Clay-Ave-10456/home/44603704,HGMLS,4922891,N,Y,40.8313186,-73.9109288
MLS Listing,,Multi-Family (2-4 Unit),1210 Beach Ave,Bronx,NY,10472,820000,20,6,Bronx,3348,2500,1925,270,245,,Active,,,http://www.redfin.com/NY/The-Bronx/1210-Beach-Ave-10472/home/44722927,HGMLS,4922661,N,Y,40.830325,-73.86573
MLS Listing,,Multi-Family (2-4 Unit),130-35 148th St,Jamaica,NY,11436,850000,6,3,Jamaica,,3920,1970,272,,,Active,,,http://www.redfin.com/NY/Jamaica/130-35-148th-St-11436/home/20710710,MLSLI,3119869,N,Y,40.66903,-73.790646
MLS Listing,,Multi-Family (2-4 Unit),4412 Locust Point Dr,Bronx,NY,10465,850000,6,2,Bronx,4020,7501,1953,279,211,,Active,,,http://www.redfin.com/NY/The-Bronx/4412-Locust-Point-Dr-10465/home/44785995,HGMLS,4917132,N,Y,40.8162895,-73.7997919
MLS Listing,,Townhouse,328 Hillside Ave,Staten Island,NY,10304,819000,6,5,Stapleton,2254,3300,2019,285,363,,Active,,,http://www.redfin.com/NY/Staten-Island/328-Hillside-Ave-10304/home/56047743,SIBORMLS,1127614,N,Y,40.6153865,-74.0863943
MLS Listing,,Multi-Family (2-4 Unit),1067 Sackett Ave,Bronx,NY,10461,849000,5,3,Bronx,2850,,1931,291,298,,Active,,,http://www.redfin.com/NY/The-Bronx/1067-Sacket-Ave-10461/home/44602849,HGMLS,4916319,N,Y,40.8446552,-73.8506131
MLS Listing,,Townhouse,80 Longview Rd,Staten Island,NY,10304,825000,5,3.5,Staten Island,,2965,1987,308,,,Active,,,http://www.redfin.com/NY/Staten-Island/80-Longview-Rd-10304/home/56047500,MLSLI,3108009,N,Y,40.611142,-74.0905357
MLS Listing,,Multi-Family (2-4 Unit),11-02 Nameoke St,Far Rockaway,NY,11691,850000,9,4,Far Rockaway,,3780,1950,310,,,Active,,,http://www.redfin.com/NY/Far-Rockaway/11-02-Nameoke-St-11691/home/20678097,MLSLI,3107622,N,Y,40.604768,-73.749138
MLS Listing,,Multi-Family (2-4 Unit),80-23 86 Rd,Woodhaven,NY,11421,809000,7,2,Woodhaven,,1775,1920,322,,,Active,,,http://www.redfin.com/NY/Jamaica/80-23-86th-Rd-11421/home/20792178,MLSLI,3103715,N,Y,40.693146,-73.861853
MLS Listing,,Multi-Family (2-4 Unit),115-05 135th St,S. Ozone Park,NY,11420,849000,5,2,S. Ozone Park,,3425,1960,326,,,Active,,,http://www.redfin.com/NY/Jamaica/115-05-135th-St-11420/home/20724613,MLSLI,3102956,N,Y,40.680612,-73.8059509
MLS Listing,,Single Family Residential,90-10 Hollis Court Blvd,Queens Village,NY,11428,800000,5,2,Queens Village,2024,4000,1925,329,395,,Active,,,http://www.redfin.com/NY/Jamaica/90-10-Hollis-Ct-Blvd-11428/home/20749890,MLSLI,3102163,N,Y,40.720638,-73.751129
MLS Listing,,Multi-Family (2-4 Unit),147-38 253rd St,Rosedale,NY,11422,825900,6,4,Rosedale,2218,2800,1988,331,372,,Active,,,http://www.redfin.com/NY/Rosedale/147-38-253rd-St-11422/home/20685982,MLSLI,3101763,N,Y,40.6560109,-73.7368906
MLS Listing,,Multi-Family (2-4 Unit),223-23 109 Ave,Jamaica,NY,11429,825000,7,3,Jamaica,1152,4500,1930,354,716,,Active,,,http://www.redfin.com/NY/Jamaica/223-23-109th-Ave-11429/home/20733311,BNYMLS,426724,N,Y,40.707498,-73.732149
MLS Listing,,Multi-Family (2-4 Unit),830-832 Nugent Ave,Staten Island,NY,10306,848000,6,5,Midland Beach,2960,10000,1923,367,286,,Active,,,http://www.redfin.com/NY/Staten-Island/830-Nugent-Ave-10306/unit-832/home/77422396,SIBORMLS,1125397,N,Y,40.5739037,-74.0950169
For-Sale-by-Owner Listing,,Multi-Family (2-4 Unit),203 Warwick St,Brooklyn,NY,11207,825000,7,4,Brooklyn,1993,,2006,219,414,,Active,,,http://www.redfin.com/NY/Brooklyn/203-Warwick-St-11207/home/40759039,Fizber.com,5019521,N,Y,40.678946,-73.887016
